{
  "generated_at": "2025-11-12T01:44:52.277Z",
  "total_resorts": 100,
  "resorts": [
    {
      "name": "Whistler Blackcomb",
      "lat": 50.1163,
      "lng": -122.9574,
      "snowfall_7day": 0,
      "forecast_text": "Data unavailable",
      "last_updated": "2025-11-12T01:39:22.355Z",
      "error": "Point API failed: 404"
    },
    {
      "name": "Vail",
      "lat": 39.6403,
      "lng": -106.3742,
      "snowfall_7day": 0,
      "forecast_text": "Partly cloudy, with a low around 27. South wind around 5 mph.",
      "last_updated": "2025-11-12T01:39:25.185Z"
    },
    {
      "name": "Park City",
      "lat": 40.6514,
      "lng": -111.5079,
      "snowfall_7day": 1.5,
      "forecast_text": "Partly cloudy. Low around 39, with temperatures rising to around 41 overnight. Southwest wind around 5 mph.",
      "last_updated": "2025-11-12T01:39:26.230Z"
    },
    {
      "name": "Breckenridge",
      "lat": 39.4817,
      "lng": -106.0384,
      "snowfall_7day": 0,
      "forecast_text": "Partly cloudy, with a low around 29. South southwest wind 5 to 10 mph, with gusts as high as 16 mph.",
      "last_updated": "2025-11-12T01:39:30.683Z"
    },
    {
      "name": "Heavenly",
      "lat": 38.935,
      "lng": -119.9403,
      "snowfall_7day": 0,
      "forecast_text": "Mostly cloudy, with a high near 59. Southwest wind around 0 mph.",
      "last_updated": "2025-11-12T01:39:31.344Z"
    },
    {
      "name": "Aspen Snowmass",
      "lat": 39.1911,
      "lng": -106.8175,
      "snowfall_7day": 0,
      "forecast_text": "Partly cloudy, with a low around 32. South wind around 5 mph.",
      "last_updated": "2025-11-12T01:39:36.214Z"
    },
    {
      "name": "Jackson Hole",
      "lat": 43.5875,
      "lng": -110.8278,
      "snowfall_7day": 0,
      "forecast_text": "Partly cloudy, with a low around 34. West southwest wind around 6 mph.",
      "last_updated": "2025-11-12T01:39:38.438Z"
    },
    {
      "name": "Banff Sunshine",
      "lat": 51.1158,
      "lng": -115.7631,
      "snowfall_7day": 0,
      "forecast_text": "Data unavailable",
      "last_updated": "2025-11-12T01:39:38.704Z",
      "error": "Point API failed: 404"
    },
    {
      "name": "Lake Louise",
      "lat": 51.4254,
      "lng": -116.1773,
      "snowfall_7day": 0,
      "forecast_text": "Data unavailable",
      "last_updated": "2025-11-12T01:39:38.990Z",
      "error": "Point API failed: 404"
    },
    {
      "name": "Big Sky",
      "lat": 45.2846,
      "lng": -111.4008,
      "snowfall_7day": 0,
      "forecast_text": "Mostly cloudy, with a low around 33. Southwest wind around 8 mph, with gusts as high as 18 mph.",
      "last_updated": "2025-11-12T01:39:43.308Z"
    },
    {
      "name": "Steamboat",
      "lat": 40.458,
      "lng": -106.8047,
      "snowfall_7day": 0,
      "forecast_text": "Partly cloudy, with a low around 28. East southeast wind 0 to 5 mph.",
      "last_updated": "2025-11-12T01:39:44.396Z"
    },
    {
      "name": "Mammoth Mountain",
      "lat": 37.6308,
      "lng": -119.0326,
      "snowfall_7day": 20.5,
      "forecast_text": "Mostly cloudy. High near 47, with temperatures falling to around 42 in the afternoon. Southwest wind around 15 mph, with gusts as high as 25 mph.",
      "last_updated": "2025-11-12T01:39:45.968Z"
    },
    {
      "name": "Squaw Valley",
      "lat": 39.197,
      "lng": -120.2356,
      "snowfall_7day": 3,
      "forecast_text": "Mostly cloudy, with a high near 62. Southwest wind around 5 mph.",
      "last_updated": "2025-11-12T01:39:47.182Z"
    },
    {
      "name": "Telluride",
      "lat": 37.9375,
      "lng": -107.8123,
      "snowfall_7day": 3,
      "forecast_text": "Partly cloudy, with a low around 25. South wind around 5 mph.",
      "last_updated": "2025-11-12T01:39:49.044Z"
    },
    {
      "name": "Sun Valley",
      "lat": 43.6966,
      "lng": -114.3553,
      "snowfall_7day": 0,
      "forecast_text": "Mostly cloudy. Low around 33, with temperatures rising to around 35 overnight. North northwest wind around 5 mph.",
      "last_updated": "2025-11-12T01:39:49.763Z"
    },
    {
      "name": "Deer Valley",
      "lat": 40.6374,
      "lng": -111.4783,
      "snowfall_7day": 1.5,
      "forecast_text": "Partly cloudy. Low around 37, with temperatures rising to around 39 overnight. Southwest wind 2 to 6 mph.",
      "last_updated": "2025-11-12T01:39:52.462Z"
    },
    {
      "name": "Killington",
      "lat": 43.6046,
      "lng": -72.822,
      "snowfall_7day": 4,
      "forecast_text": "Areas of blowing snow before 10pm. Mostly cloudy, with a low around 20. Wind chill values as low as 0. West wind 16 to 33 mph, with gusts as high as 47 mph.",
      "last_updated": "2025-11-12T01:39:58.810Z"
    },
    {
      "name": "Stowe",
      "lat": 44.5303,
      "lng": -72.7817,
      "snowfall_7day": 13.5,
      "forecast_text": "Areas of blowing snow and a chance of snow showers before 11pm. Mostly cloudy, with a low around 21. West wind 8 to 18 mph, with gusts as high as 38 mph. Chance of precipitation is 40%. New snow accumulation of less than one inch possible.",
      "last_updated": "2025-11-12T01:39:59.931Z"
    },
    {
      "name": "Alta",
      "lat": 40.5885,
      "lng": -111.6376,
      "snowfall_7day": 13.5,
      "forecast_text": "Partly cloudy. Low around 37, with temperatures rising to around 39 overnight. West southwest wind 2 to 8 mph.",
      "last_updated": "2025-11-12T01:40:01.092Z"
    },
    {
      "name": "Snowbird",
      "lat": 40.5803,
      "lng": -111.6573,
      "snowfall_7day": 12,
      "forecast_text": "Partly cloudy, with a low around 37. Southwest wind 2 to 7 mph.",
      "last_updated": "2025-11-12T01:40:02.044Z"
    },
    {
      "name": "Taos",
      "lat": 36.5924,
      "lng": -105.4467,
      "snowfall_7day": 5,
      "forecast_text": "Partly cloudy, with a low around 31. West wind around 5 mph.",
      "last_updated": "2025-11-12T01:40:05.110Z"
    },
    {
      "name": "Copper Mountain",
      "lat": 39.5022,
      "lng": -106.1506,
      "snowfall_7day": 2,
      "forecast_text": "Partly cloudy, with a low around 25. Southwest wind 5 to 10 mph, with gusts as high as 16 mph.",
      "last_updated": "2025-11-12T01:40:11.030Z"
    },
    {
      "name": "Winter Park",
      "lat": 39.8868,
      "lng": -105.7625,
      "snowfall_7day": 2,
      "forecast_text": "Partly cloudy, with a low around 31. West southwest wind 7 to 13 mph, with gusts as high as 21 mph.",
      "last_updated": "2025-11-12T01:40:12.016Z"
    },
    {
      "name": "Keystone",
      "lat": 39.605,
      "lng": -105.9347,
      "snowfall_7day": 1.5,
      "forecast_text": "Partly cloudy, with a low around 29. Southwest wind 6 to 10 mph, with gusts as high as 16 mph.",
      "last_updated": "2025-11-12T01:40:17.004Z"
    },
    {
      "name": "Arapahoe Basin",
      "lat": 39.6426,
      "lng": -105.8717,
      "snowfall_7day": 5,
      "forecast_text": "Partly cloudy. Low around 29, with temperatures rising to around 31 overnight. West southwest wind 8 to 14 mph, with gusts as high as 22 mph.",
      "last_updated": "2025-11-12T01:40:17.969Z"
    },
    {
      "name": "Crested Butte",
      "lat": 38.8997,
      "lng": -106.9653,
      "snowfall_7day": 0,
      "forecast_text": "Partly cloudy, with a low around 27. Northwest wind 0 to 5 mph.",
      "last_updated": "2025-11-12T01:40:21.767Z"
    },
    {
      "name": "Loveland",
      "lat": 39.6803,
      "lng": -105.8978,
      "snowfall_7day": 5,
      "forecast_text": "Partly cloudy. Low around 27, with temperatures rising to around 29 overnight. West wind 10 to 14 mph, with gusts as high as 22 mph.",
      "last_updated": "2025-11-12T01:40:24.628Z"
    },
    {
      "name": "Mt. Bachelor",
      "lat": 43.979,
      "lng": -121.688,
      "snowfall_7day": 10.5,
      "forecast_text": "Mostly cloudy. High near 47, with temperatures falling to around 41 in the afternoon. Southwest wind around 3 mph.",
      "last_updated": "2025-11-12T01:40:30.181Z"
    },
    {
      "name": "Crystal Mountain",
      "lat": 46.9358,
      "lng": -121.4742,
      "snowfall_7day": 9,
      "forecast_text": "Mostly sunny. High near 44, with temperatures falling to around 38 in the afternoon. South southeast wind around 5 mph.",
      "last_updated": "2025-11-12T01:40:38.447Z"
    },
    {
      "name": "Stevens Pass",
      "lat": 47.7453,
      "lng": -121.0892,
      "snowfall_7day": 7,
      "forecast_text": "Partly sunny. High near 44, with temperatures falling to around 39 in the afternoon. East northeast wind around 2 mph.",
      "last_updated": "2025-11-12T01:40:40.130Z"
    },
    {
      "name": "Mt. Baker",
      "lat": 48.8597,
      "lng": -121.6686,
      "snowfall_7day": 18.5,
      "forecast_text": "Mostly cloudy. High near 40, with temperatures falling to around 37 in the afternoon. South southeast wind around 1 mph.",
      "last_updated": "2025-11-12T01:40:42.393Z"
    },
    {
      "name": "Schweitzer",
      "lat": 48.3642,
      "lng": -116.6228,
      "snowfall_7day": 3.5,
      "forecast_text": "Partly sunny. High near 37, with temperatures falling to around 34 in the afternoon. West wind around 3 mph.",
      "last_updated": "2025-11-12T01:40:44.061Z"
    },
    {
      "name": "Sun Peaks",
      "lat": 50.8817,
      "lng": -119.8847,
      "snowfall_7day": 0,
      "forecast_text": "Data unavailable",
      "last_updated": "2025-11-12T01:40:46.038Z",
      "error": "Point API failed: 404"
    },
    {
      "name": "Revelstoke",
      "lat": 50.9981,
      "lng": -118.1956,
      "snowfall_7day": 0,
      "forecast_text": "Data unavailable",
      "last_updated": "2025-11-12T01:40:46.331Z",
      "error": "Point API failed: 404"
    },
    {
      "name": "Fernie",
      "lat": 49.4653,
      "lng": -115.0636,
      "snowfall_7day": 0,
      "forecast_text": "Data unavailable",
      "last_updated": "2025-11-12T01:40:47.974Z",
      "error": "Point API failed: 404"
    },
    {
      "name": "Big White",
      "lat": 49.7311,
      "lng": -118.935,
      "snowfall_7day": 0,
      "forecast_text": "Data unavailable",
      "last_updated": "2025-11-12T01:40:48.315Z",
      "error": "Point API failed: 404"
    },
    {
      "name": "Kicking Horse",
      "lat": 51.2514,
      "lng": -117.0492,
      "snowfall_7day": 0,
      "forecast_text": "Data unavailable",
      "last_updated": "2025-11-12T01:40:48.652Z",
      "error": "Point API failed: 404"
    },
    {
      "name": "Mont Tremblant",
      "lat": 46.2094,
      "lng": -74.5847,
      "snowfall_7day": 0,
      "forecast_text": "Data unavailable",
      "last_updated": "2025-11-12T01:40:50.555Z",
      "error": "Point API failed: 404"
    },
    {
      "name": "Blue Mountain",
      "lat": 44.5075,
      "lng": -80.3231,
      "snowfall_7day": 0,
      "forecast_text": "Data unavailable",
      "last_updated": "2025-11-12T01:40:57.314Z",
      "error": "Point API failed: 404"
    },
    {
      "name": "Sugarloaf",
      "lat": 45.0314,
      "lng": -70.3139,
      "snowfall_7day": 0,
      "forecast_text": "A chance of snow showers before midnight. Mostly cloudy, with a low around 20. West wind 25 to 35 mph, with gusts as high as 60 mph. New snow accumulation of less than half an inch possible.",
      "last_updated": "2025-11-12T01:40:58.434Z"
    },
    {
      "name": "Sunday River",
      "lat": 44.4697,
      "lng": -70.8561,
      "snowfall_7day": 0,
      "forecast_text": "A chance of snow showers before midnight. Mostly cloudy, with a low around 27. West wind 10 to 20 mph, with gusts as high as 40 mph. New snow accumulation of less than half an inch possible.",
      "last_updated": "2025-11-12T01:41:00.894Z"
    },
    {
      "name": "Sugarbush",
      "lat": 44.135,
      "lng": -72.9017,
      "snowfall_7day": 3.5,
      "forecast_text": "Areas of blowing snow before 10pm. Mostly cloudy, with a low around 20. West wind 8 to 17 mph, with gusts as high as 37 mph. New snow accumulation of less than half an inch possible.",
      "last_updated": "2025-11-12T01:41:04.292Z"
    },
    {
      "name": "Stratton",
      "lat": 43.1133,
      "lng": -72.9083,
      "snowfall_7day": 0,
      "forecast_text": "Mostly cloudy, with a low around 25. West wind 7 to 13 mph, with gusts as high as 31 mph.",
      "last_updated": "2025-11-12T01:41:05.655Z"
    },
    {
      "name": "Okemo",
      "lat": 43.4017,
      "lng": -72.7167,
      "snowfall_7day": 0,
      "forecast_text": "Partly cloudy, with a low around 24. West wind 7 to 21 mph, with gusts as high as 36 mph.",
      "last_updated": "2025-11-12T01:41:08.476Z"
    },
    {
      "name": "Jay Peak",
      "lat": 44.9378,
      "lng": -72.5036,
      "snowfall_7day": 16.5,
      "forecast_text": "Areas of blowing snow and a chance of snow showers before 11pm. Mostly cloudy, with a low around 20. West wind 7 to 18 mph, with gusts as high as 46 mph. Chance of precipitation is 40%. New snow accumulation of 1 to 2 inches possible.",
      "last_updated": "2025-11-12T01:41:30.093Z"
    },
    {
      "name": "Smugglers' Notch",
      "lat": 44.5458,
      "lng": -72.7872,
      "snowfall_7day": 15,
      "forecast_text": "Areas of blowing snow and a chance of snow showers before 11pm. Mostly cloudy, with a low around 21. West wind 10 to 24 mph, with gusts as high as 40 mph. Chance of precipitation is 40%. New snow accumulation of less than one inch possible.",
      "last_updated": "2025-11-12T01:41:38.312Z"
    },
    {
      "name": "Loon Mountain",
      "lat": 44.0369,
      "lng": -71.6206,
      "snowfall_7day": 0,
      "forecast_text": "A chance of snow showers. Mostly cloudy, with a low around 21. West wind 10 to 25 mph, with gusts as high as 45 mph. New snow accumulation of less than half an inch possible.",
      "last_updated": "2025-11-12T01:41:54.270Z"
    },
    {
      "name": "Cannon Mountain",
      "lat": 44.1572,
      "lng": -71.6978,
      "snowfall_7day": 5.5,
      "forecast_text": "A chance of snow showers. Mostly cloudy, with a low around 17. Wind chill values as low as -5. West wind 25 to 45 mph, with gusts as high as 75 mph. New snow accumulation of around one inch possible.",
      "last_updated": "2025-11-12T01:41:55.407Z"
    },
    {
      "name": "Wildcat Mountain",
      "lat": 44.2636,
      "lng": -71.2328,
      "snowfall_7day": 5.5,
      "forecast_text": "A chance of snow showers before 2am. Mostly cloudy, with a low around 22. Northwest wind 5 to 25 mph, with gusts as high as 55 mph. New snow accumulation of 1 to 3 inches possible.",
      "last_updated": "2025-11-12T01:41:57.855Z"
    },
    {
      "name": "Bretton Woods",
      "lat": 44.2633,
      "lng": -71.4439,
      "snowfall_7day": 3.5,
      "forecast_text": "Snow showers likely. Mostly cloudy, with a low around 19. West wind 0 to 20 mph, with gusts as high as 40 mph. Chance of precipitation is 20%. New snow accumulation of around one inch possible.",
      "last_updated": "2025-11-12T01:42:05.719Z"
    },
    {
      "name": "Snowbasin",
      "lat": 41.2156,
      "lng": -111.8567,
      "snowfall_7day": 0,
      "forecast_text": "Partly cloudy. Low around 39, with temperatures rising to around 41 overnight. South wind around 5 mph.",
      "last_updated": "2025-11-12T01:42:10.201Z"
    },
    {
      "name": "Powder Mountain",
      "lat": 41.3814,
      "lng": -111.7806,
      "snowfall_7day": 9,
      "forecast_text": "Partly cloudy. Low around 38, with temperatures rising to around 40 overnight. Southwest wind around 6 mph.",
      "last_updated": "2025-11-12T01:42:13.766Z"
    },
    {
      "name": "Solitude",
      "lat": 40.62,
      "lng": -111.5917,
      "snowfall_7day": 9.5,
      "forecast_text": "Partly cloudy. Low around 37, with temperatures rising to around 40 overnight. West southwest wind 2 to 6 mph.",
      "last_updated": "2025-11-12T01:42:14.914Z"
    },
    {
      "name": "Brighton",
      "lat": 40.5981,
      "lng": -111.5831,
      "snowfall_7day": 10.5,
      "forecast_text": "Mostly cloudy. Low around 37, with temperatures rising to around 39 overnight. West southwest wind 2 to 6 mph.",
      "last_updated": "2025-11-12T01:42:17.399Z"
    },
    {
      "name": "Snowmass",
      "lat": 39.2133,
      "lng": -106.9378,
      "snowfall_7day": 0,
      "forecast_text": "Partly cloudy, with a low around 32. Southwest wind around 5 mph.",
      "last_updated": "2025-11-12T01:42:18.762Z"
    },
    {
      "name": "Aspen Highlands",
      "lat": 39.1825,
      "lng": -106.8553,
      "snowfall_7day": 0,
      "forecast_text": "Partly cloudy, with a low around 30. South southwest wind around 5 mph.",
      "last_updated": "2025-11-12T01:42:19.847Z"
    },
    {
      "name": "Buttermilk",
      "lat": 39.2078,
      "lng": -106.8608,
      "snowfall_7day": 0,
      "forecast_text": "Partly cloudy, with a low around 30. South wind around 5 mph.",
      "last_updated": "2025-11-12T01:42:21.176Z"
    },
    {
      "name": "Beaver Creek",
      "lat": 39.6042,
      "lng": -106.5164,
      "snowfall_7day": 0,
      "forecast_text": "Partly cloudy, with a low around 28. South southwest wind around 5 mph.",
      "last_updated": "2025-11-12T01:42:23.521Z"
    },
    {
      "name": "Purgatory",
      "lat": 37.6303,
      "lng": -107.8139,
      "snowfall_7day": 1.5,
      "forecast_text": "Partly cloudy, with a low around 30. North northwest wind around 5 mph.",
      "last_updated": "2025-11-12T01:42:24.341Z"
    },
    {
      "name": "Wolf Creek",
      "lat": 37.4722,
      "lng": -106.7931,
      "snowfall_7day": 11,
      "forecast_text": "Partly cloudy, with a low around 32. West southwest wind around 5 mph.",
      "last_updated": "2025-11-12T01:42:25.719Z"
    },
    {
      "name": "Monarch Mountain",
      "lat": 38.5117,
      "lng": -106.3317,
      "snowfall_7day": 3.5,
      "forecast_text": "Mostly cloudy, with a low around 30. West wind 10 to 15 mph.",
      "last_updated": "2025-11-12T01:42:26.841Z"
    },
    {
      "name": "Eldora",
      "lat": 39.9372,
      "lng": -105.5828,
      "snowfall_7day": 2,
      "forecast_text": "Mostly cloudy. Low around 31, with temperatures rising to around 33 overnight. West southwest wind 10 to 16 mph, with gusts as high as 25 mph.",
      "last_updated": "2025-11-12T01:42:33.302Z"
    },
    {
      "name": "Grand Targhee",
      "lat": 43.7886,
      "lng": -110.9586,
      "snowfall_7day": 6.5,
      "forecast_text": "Partly cloudy. Low around 29, with temperatures rising to around 32 overnight. South wind around 8 mph.",
      "last_updated": "2025-11-12T01:42:36.642Z"
    },
    {
      "name": "Snow King",
      "lat": 43.4783,
      "lng": -110.7628,
      "snowfall_7day": 0,
      "forecast_text": "Partly cloudy, with a low around 31. South wind around 7 mph.",
      "last_updated": "2025-11-12T01:42:37.610Z"
    },
    {
      "name": "Bridger Bowl",
      "lat": 45.8167,
      "lng": -110.8969,
      "snowfall_7day": 3,
      "forecast_text": "Partly cloudy, with a low around 35. Southwest wind around 6 mph.",
      "last_updated": "2025-11-12T01:42:43.906Z"
    },
    {
      "name": "Big Mountain",
      "lat": 48.4928,
      "lng": -114.3483,
      "snowfall_7day": 5.5,
      "forecast_text": "A chance of rain and snow after 4am. Mostly cloudy, with a low around 30. South southeast wind around 3 mph. Chance of precipitation is 30%. New rainfall amounts between a tenth and quarter of an inch possible.",
      "last_updated": "2025-11-12T01:42:47.326Z"
    },
    {
      "name": "Snowbowl",
      "lat": 46.9417,
      "lng": -113.9492,
      "snowfall_7day": 0,
      "forecast_text": "Mostly cloudy, with a low around 39. Northeast wind around 3 mph.",
      "last_updated": "2025-11-12T01:42:48.724Z"
    },
    {
      "name": "Bogus Basin",
      "lat": 43.7725,
      "lng": -116.0939,
      "snowfall_7day": 0,
      "forecast_text": "Mostly cloudy, with a low around 44. South southeast wind 5 to 9 mph.",
      "last_updated": "2025-11-12T01:42:50.095Z"
    },
    {
      "name": "Tamarack",
      "lat": 44.6922,
      "lng": -116.1344,
      "snowfall_7day": 0,
      "forecast_text": "Mostly cloudy, with a low around 36. South southwest wind around 8 mph.",
      "last_updated": "2025-11-12T01:42:53.178Z"
    },
    {
      "name": "Silver Mountain",
      "lat": 47.6764,
      "lng": -116.0703,
      "snowfall_7day": 0,
      "forecast_text": "Mostly sunny. High near 48, with temperatures falling to around 43 in the afternoon. East wind around 2 mph.",
      "last_updated": "2025-11-12T01:42:54.329Z"
    },
    {
      "name": "Mt. Hood Meadows",
      "lat": 45.3319,
      "lng": -121.6653,
      "snowfall_7day": 5.5,
      "forecast_text": "Mostly cloudy. High near 49, with temperatures falling to around 46 in the afternoon. Southwest wind around 1 mph.",
      "last_updated": "2025-11-12T01:42:56.220Z"
    },
    {
      "name": "Timberline",
      "lat": 45.3306,
      "lng": -121.7108,
      "snowfall_7day": 16,
      "forecast_text": "Mostly cloudy. High near 45, with temperatures falling to around 43 in the afternoon. Southwest wind around 2 mph.",
      "last_updated": "2025-11-12T01:42:57.488Z"
    },
    {
      "name": "Willamette Pass",
      "lat": 43.6006,
      "lng": -122.0336,
      "snowfall_7day": 0,
      "forecast_text": "Cloudy. High near 55, with temperatures falling to around 48 in the afternoon. Southwest wind around 6 mph.",
      "last_updated": "2025-11-12T01:43:07.494Z"
    },
    {
      "name": "Mission Ridge",
      "lat": 47.2917,
      "lng": -120.3997,
      "snowfall_7day": 0,
      "forecast_text": "Mostly sunny. High near 42, with temperatures falling to around 36 in the afternoon. South wind around 3 mph.",
      "last_updated": "2025-11-12T01:43:11.419Z"
    },
    {
      "name": "Snoqualmie",
      "lat": 47.4219,
      "lng": -121.4136,
      "snowfall_7day": 0,
      "forecast_text": "Mostly sunny. High near 48, with temperatures falling to around 42 in the afternoon. Southeast wind around 1 mph.",
      "last_updated": "2025-11-12T01:43:14.627Z"
    },
    {
      "name": "Mt. Spokane",
      "lat": 47.9208,
      "lng": -117.0856,
      "snowfall_7day": 0,
      "forecast_text": "Partly sunny. High near 42, with temperatures falling to around 38 in the afternoon. Southeast wind around 3 mph.",
      "last_updated": "2025-11-12T01:43:22.219Z"
    },
    {
      "name": "White Pass",
      "lat": 46.6394,
      "lng": -121.3908,
      "snowfall_7day": 4,
      "forecast_text": "Mostly cloudy. High near 47, with temperatures falling to around 40 in the afternoon. Southeast wind around 2 mph.",
      "last_updated": "2025-11-12T01:43:23.459Z"
    },
    {
      "name": "49 Degrees North",
      "lat": 48.7511,
      "lng": -117.6369,
      "snowfall_7day": 0,
      "forecast_text": "Partly sunny. High near 42, with temperatures falling to around 40 in the afternoon. Southeast wind around 1 mph.",
      "last_updated": "2025-11-12T01:43:35.675Z"
    },
    {
      "name": "Red Mountain",
      "lat": 49.0917,
      "lng": -117.8233,
      "snowfall_7day": 0,
      "forecast_text": "Data unavailable",
      "last_updated": "2025-11-12T01:43:35.972Z",
      "error": "Point API failed: 404"
    },
    {
      "name": "Whitewater",
      "lat": 49.5394,
      "lng": -117.2717,
      "snowfall_7day": 0,
      "forecast_text": "Data unavailable",
      "last_updated": "2025-11-12T01:43:36.391Z",
      "error": "Point API failed: 404"
    },
    {
      "name": "Panorama",
      "lat": 50.8036,
      "lng": -116.0533,
      "snowfall_7day": 0,
      "forecast_text": "Data unavailable",
      "last_updated": "2025-11-12T01:43:36.659Z",
      "error": "Point API failed: 404"
    },
    {
      "name": "Marmot Basin",
      "lat": 52.8236,
      "lng": -118.0747,
      "snowfall_7day": 0,
      "forecast_text": "Data unavailable",
      "last_updated": "2025-11-12T01:43:37.378Z",
      "error": "Point API failed: 404"
    },
    {
      "name": "Nakiska",
      "lat": 50.98,
      "lng": -115.0733,
      "snowfall_7day": 0,
      "forecast_text": "Data unavailable",
      "last_updated": "2025-11-12T01:43:38.521Z",
      "error": "Point API failed: 404"
    },
    {
      "name": "Castle Mountain",
      "lat": 49.4058,
      "lng": -114.5169,
      "snowfall_7day": 0,
      "forecast_text": "Data unavailable",
      "last_updated": "2025-11-12T01:43:38.988Z",
      "error": "Point API failed: 404"
    },
    {
      "name": "Norquay",
      "lat": 51.1967,
      "lng": -115.5531,
      "snowfall_7day": 0,
      "forecast_text": "Data unavailable",
      "last_updated": "2025-11-12T01:43:40.389Z",
      "error": "Point API failed: 404"
    },
    {
      "name": "Le Massif",
      "lat": 47.3136,
      "lng": -70.6358,
      "snowfall_7day": 0,
      "forecast_text": "Data unavailable",
      "last_updated": "2025-11-12T01:43:40.649Z",
      "error": "Point API failed: 404"
    },
    {
      "name": "Calabogie",
      "lat": 45.2906,
      "lng": -76.7019,
      "snowfall_7day": 0,
      "forecast_text": "Data unavailable",
      "last_updated": "2025-11-12T01:43:41.165Z",
      "error": "Point API failed: 404"
    },
    {
      "name": "Sierra-at-Tahoe",
      "lat": 38.7986,
      "lng": -120.0828,
      "snowfall_7day": 4.5,
      "forecast_text": "Mostly cloudy, with a high near 57. Southwest wind around 5 mph.",
      "last_updated": "2025-11-12T01:43:42.167Z"
    },
    {
      "name": "Kirkwood",
      "lat": 38.6867,
      "lng": -120.0656,
      "snowfall_7day": 18,
      "forecast_text": "Mostly cloudy. High near 57, with temperatures falling to around 48 in the afternoon. South southwest wind around 3 mph.",
      "last_updated": "2025-11-12T01:43:47.396Z"
    },
    {
      "name": "Northstar",
      "lat": 39.2733,
      "lng": -120.1211,
      "snowfall_7day": 0,
      "forecast_text": "Mostly cloudy, with a high near 62. Southwest wind around 0 mph.",
      "last_updated": "2025-11-12T01:43:50.502Z"
    },
    {
      "name": "Homewood",
      "lat": 39.0833,
      "lng": -120.1667,
      "snowfall_7day": 2,
      "forecast_text": "Mostly cloudy, with a high near 57. Southwest wind around 5 mph.",
      "last_updated": "2025-11-12T01:43:54.653Z"
    },
    {
      "name": "Mt. Rose",
      "lat": 39.3397,
      "lng": -119.8894,
      "snowfall_7day": 4.5,
      "forecast_text": "Mostly cloudy. High near 55, with temperatures falling to around 47 in the afternoon. Southwest wind around 5 mph.",
      "last_updated": "2025-11-12T01:43:56.547Z"
    },
    {
      "name": "Diamond Peak",
      "lat": 39.2525,
      "lng": -119.9169,
      "snowfall_7day": 0,
      "forecast_text": "Mostly cloudy, with a high near 57. West wind around 5 mph.",
      "last_updated": "2025-11-12T01:44:00.090Z"
    },
    {
      "name": "June Mountain",
      "lat": 37.7853,
      "lng": -119.0781,
      "snowfall_7day": 2,
      "forecast_text": "Mostly cloudy. High near 64, with temperatures falling to around 55 in the afternoon. Southwest wind around 5 mph.",
      "last_updated": "2025-11-12T01:44:16.426Z"
    },
    {
      "name": "Bear Mountain",
      "lat": 34.235,
      "lng": -116.865,
      "snowfall_7day": 0,
      "forecast_text": "Mostly cloudy, with a high near 68. Southwest wind around 0 mph.",
      "last_updated": "2025-11-12T01:44:33.785Z"
    },
    {
      "name": "Snow Summit",
      "lat": 34.2306,
      "lng": -116.8886,
      "snowfall_7day": 1.5,
      "forecast_text": "Mostly cloudy, with a high near 65. Southwest wind around 0 mph.",
      "last_updated": "2025-11-12T01:44:34.560Z"
    },
    {
      "name": "Mountain High",
      "lat": 34.3811,
      "lng": -117.6881,
      "snowfall_7day": 0,
      "forecast_text": "Partly sunny, with a high near 68. South southwest wind around 5 mph.",
      "last_updated": "2025-11-12T01:44:46.452Z"
    },
    {
      "name": "Ski Santa Fe",
      "lat": 35.7869,
      "lng": -105.7961,
      "snowfall_7day": 3,
      "forecast_text": "Partly cloudy, with a low around 34. Northwest wind around 5 mph.",
      "last_updated": "2025-11-12T01:44:47.987Z"
    },
    {
      "name": "Angel Fire",
      "lat": 36.3975,
      "lng": -105.2886,
      "snowfall_7day": 0,
      "forecast_text": "Mostly clear, with a low around 24. Southwest wind 0 to 5 mph.",
      "last_updated": "2025-11-12T01:44:51.389Z"
    },
    {
      "name": "Whiteface Mountain",
      "lat": 44.3659,
      "lng": -73.9024,
      "snowfall_7day": 7,
      "forecast_text": "A slight chance of snow showers after 4am. Mostly cloudy, with a low around 16. Wind chill values as low as -2. West wind 14 to 24 mph, with gusts as high as 48 mph. Chance of precipitation is 20%. New snow accumulation of less than half an inch possible.",
      "last_updated": "2025-11-12T01:44:52.076Z"
    }
  ]
}