{
  "generated_at": "2025-11-14T13:05:12.017Z",
  "total_resorts": 100,
  "resorts": [
    {
      "name": "Whistler Blackcomb",
      "lat": 50.1163,
      "lng": -122.9574,
      "snowfall_24hr": 0,
      "snowfall_48hr": 0,
      "snowfall_7day": 0,
      "forecast_text": "Data unavailable",
      "last_updated": "2025-11-14T12:55:47.926Z",
      "error": "Point API failed: 404"
    },
    {
      "name": "Vail",
      "lat": 39.6403,
      "lng": -106.3742,
      "snowfall_24hr": 0,
      "snowfall_48hr": 0,
      "snowfall_7day": 0,
      "forecast_text": "Clear, with a low around 31. North wind around 5 mph.",
      "last_updated": "2025-11-14T12:55:53.158Z"
    },
    {
      "name": "Park City",
      "lat": 40.6514,
      "lng": -111.5079,
      "snowfall_24hr": 0,
      "snowfall_48hr": 0,
      "snowfall_7day": 1.5,
      "forecast_text": "Partly cloudy. Low around 42, with temperatures rising to around 44 overnight. South wind around 10 mph.",
      "last_updated": "2025-11-14T12:55:54.612Z"
    },
    {
      "name": "Breckenridge",
      "lat": 39.4817,
      "lng": -106.0384,
      "snowfall_24hr": 0,
      "snowfall_48hr": 0,
      "snowfall_7day": 1.5,
      "forecast_text": "Mostly clear, with a low around 28. West southwest wind around 7 mph.",
      "last_updated": "2025-11-14T12:56:07.082Z"
    },
    {
      "name": "Heavenly",
      "lat": 38.935,
      "lng": -119.9403,
      "snowfall_24hr": 0,
      "snowfall_48hr": 0,
      "snowfall_7day": 3.5,
      "forecast_text": "Rain and snow likely. Mostly cloudy, with a low around 38. South wind around 0 mph. Chance of precipitation is 70%.",
      "last_updated": "2025-11-14T12:56:16.039Z"
    },
    {
      "name": "Aspen Snowmass",
      "lat": 39.1911,
      "lng": -106.8175,
      "snowfall_24hr": 0,
      "snowfall_48hr": 0,
      "snowfall_7day": 0,
      "forecast_text": "Mostly clear, with a low around 35. South southeast wind around 5 mph.",
      "last_updated": "2025-11-14T12:56:24.217Z"
    },
    {
      "name": "Jackson Hole",
      "lat": 43.5875,
      "lng": -110.8278,
      "snowfall_24hr": 0,
      "snowfall_48hr": 0,
      "snowfall_7day": 0,
      "forecast_text": "Mostly cloudy. Low around 36, with temperatures rising to around 40 overnight. Southwest wind around 12 mph.",
      "last_updated": "2025-11-14T12:56:39.651Z"
    },
    {
      "name": "Banff Sunshine",
      "lat": 51.1158,
      "lng": -115.7631,
      "snowfall_24hr": 0,
      "snowfall_48hr": 0,
      "snowfall_7day": 0,
      "forecast_text": "Data unavailable",
      "last_updated": "2025-11-14T12:56:40.167Z",
      "error": "Point API failed: 404"
    },
    {
      "name": "Lake Louise",
      "lat": 51.4254,
      "lng": -116.1773,
      "snowfall_24hr": 0,
      "snowfall_48hr": 0,
      "snowfall_7day": 0,
      "forecast_text": "Data unavailable",
      "last_updated": "2025-11-14T12:56:40.691Z",
      "error": "Point API failed: 404"
    },
    {
      "name": "Big Sky",
      "lat": 45.2846,
      "lng": -111.4008,
      "snowfall_24hr": 0,
      "snowfall_48hr": 0,
      "snowfall_7day": 0,
      "forecast_text": "A chance of rain. Mostly cloudy. Low around 37, with temperatures rising to around 41 overnight. South southwest wind around 13 mph, with gusts as high as 28 mph. Chance of precipitation is 30%.",
      "last_updated": "2025-11-14T12:56:42.864Z"
    },
    {
      "name": "Steamboat",
      "lat": 40.458,
      "lng": -106.8047,
      "snowfall_24hr": 0,
      "snowfall_48hr": 0,
      "snowfall_7day": 0,
      "forecast_text": "Mostly clear, with a low around 34. East southeast wind around 5 mph.",
      "last_updated": "2025-11-14T12:56:49.754Z"
    },
    {
      "name": "Mammoth Mountain",
      "lat": 37.6308,
      "lng": -119.0326,
      "snowfall_24hr": 8,
      "snowfall_48hr": 10,
      "snowfall_7day": 37,
      "forecast_text": "Snow. Cloudy. Low around 31, with temperatures rising to around 33 overnight. Wind chill values as low as 19. South southwest wind around 30 mph, with gusts as high as 45 mph. Chance of precipitation is 90%. New snow accumulation of 2 to 4 inches possible.",
      "last_updated": "2025-11-14T12:56:54.980Z"
    },
    {
      "name": "Squaw Valley",
      "lat": 39.197,
      "lng": -120.2356,
      "snowfall_24hr": 0,
      "snowfall_48hr": 0,
      "snowfall_7day": 3.5,
      "forecast_text": "Rain and snow likely. Mostly cloudy, with a low around 33. Southwest wind around 5 mph. Chance of precipitation is 70%. New rainfall amounts between a quarter and half of an inch possible.",
      "last_updated": "2025-11-14T12:56:56.107Z"
    },
    {
      "name": "Telluride",
      "lat": 37.9375,
      "lng": -107.8123,
      "snowfall_24hr": 0,
      "snowfall_48hr": 0,
      "snowfall_7day": 8.5,
      "forecast_text": "Mostly clear, with a low around 28. Southeast wind around 5 mph.",
      "last_updated": "2025-11-14T12:57:03.609Z"
    },
    {
      "name": "Sun Valley",
      "lat": 43.6966,
      "lng": -114.3553,
      "snowfall_24hr": 0,
      "snowfall_48hr": 0,
      "snowfall_7day": 0,
      "forecast_text": "A chance of rain showers. Mostly cloudy. Low around 35, with temperatures rising to around 37 overnight. South southeast wind around 6 mph. Chance of precipitation is 40%.",
      "last_updated": "2025-11-14T12:57:05.453Z"
    },
    {
      "name": "Deer Valley",
      "lat": 40.6374,
      "lng": -111.4783,
      "snowfall_24hr": 0,
      "snowfall_48hr": 0,
      "snowfall_7day": 4.5,
      "forecast_text": "Partly cloudy. Low around 39, with temperatures rising to around 41 overnight. South wind around 10 mph.",
      "last_updated": "2025-11-14T12:57:18.016Z"
    },
    {
      "name": "Killington",
      "lat": 43.6046,
      "lng": -72.822,
      "snowfall_24hr": 0,
      "snowfall_48hr": 0,
      "snowfall_7day": 0,
      "forecast_text": "Mostly cloudy, with a high near 26. Northwest wind around 13 mph.",
      "last_updated": "2025-11-14T12:57:23.469Z"
    },
    {
      "name": "Stowe",
      "lat": 44.5303,
      "lng": -72.7817,
      "snowfall_24hr": 3.5,
      "snowfall_48hr": 3.5,
      "snowfall_7day": 11,
      "forecast_text": "A chance of snow showers. Mostly cloudy, with a high near 28. Northwest wind around 8 mph. Chance of precipitation is 30%. New snow accumulation of 1 to 2 inches possible.",
      "last_updated": "2025-11-14T12:57:31.588Z"
    },
    {
      "name": "Alta",
      "lat": 40.5885,
      "lng": -111.6376,
      "snowfall_24hr": 0,
      "snowfall_48hr": 0,
      "snowfall_7day": 35,
      "forecast_text": "Partly cloudy. Low around 39, with temperatures rising to around 41 overnight. South southwest wind around 15 mph.",
      "last_updated": "2025-11-14T12:57:33.243Z"
    },
    {
      "name": "Snowbird",
      "lat": 40.5803,
      "lng": -111.6573,
      "snowfall_24hr": 0,
      "snowfall_48hr": 0,
      "snowfall_7day": 26.5,
      "forecast_text": "Partly cloudy. Low around 39, with temperatures rising to around 41 overnight. South southwest wind around 13 mph.",
      "last_updated": "2025-11-14T12:57:35.616Z"
    },
    {
      "name": "Taos",
      "lat": 36.5924,
      "lng": -105.4467,
      "snowfall_24hr": 0,
      "snowfall_48hr": 0,
      "snowfall_7day": 3,
      "forecast_text": "Mostly clear, with a low around 32. West wind around 10 mph.",
      "last_updated": "2025-11-14T12:57:37.734Z"
    },
    {
      "name": "Copper Mountain",
      "lat": 39.5022,
      "lng": -106.1506,
      "snowfall_24hr": 0,
      "snowfall_48hr": 0,
      "snowfall_7day": 3.5,
      "forecast_text": "Mostly clear, with a low around 25. Southwest wind around 9 mph.",
      "last_updated": "2025-11-14T12:57:39.712Z"
    },
    {
      "name": "Winter Park",
      "lat": 39.8868,
      "lng": -105.7625,
      "snowfall_24hr": 0,
      "snowfall_48hr": 0,
      "snowfall_7day": 5,
      "forecast_text": "Mostly clear, with a low around 30. West northwest wind around 9 mph.",
      "last_updated": "2025-11-14T12:57:41.462Z"
    },
    {
      "name": "Keystone",
      "lat": 39.605,
      "lng": -105.9347,
      "snowfall_24hr": 0,
      "snowfall_48hr": 0,
      "snowfall_7day": 3,
      "forecast_text": "Mostly clear. Low around 28, with temperatures rising to around 30 overnight. West southwest wind around 8 mph.",
      "last_updated": "2025-11-14T12:57:43.535Z"
    },
    {
      "name": "Arapahoe Basin",
      "lat": 39.6426,
      "lng": -105.8717,
      "snowfall_24hr": 0,
      "snowfall_48hr": 0,
      "snowfall_7day": 9.5,
      "forecast_text": "Mostly clear. Low around 29, with temperatures rising to around 32 overnight. West wind around 15 mph, with gusts as high as 24 mph.",
      "last_updated": "2025-11-14T12:57:44.804Z"
    },
    {
      "name": "Crested Butte",
      "lat": 38.8997,
      "lng": -106.9653,
      "snowfall_24hr": 0,
      "snowfall_48hr": 0,
      "snowfall_7day": 1.5,
      "forecast_text": "Mostly clear, with a low around 29. Northwest wind around 0 mph.",
      "last_updated": "2025-11-14T12:57:46.856Z"
    },
    {
      "name": "Loveland",
      "lat": 39.6803,
      "lng": -105.8978,
      "snowfall_24hr": 0,
      "snowfall_48hr": 0,
      "snowfall_7day": 9.5,
      "forecast_text": "Mostly clear. Low around 28, with temperatures rising to around 30 overnight. West wind around 15 mph, with gusts as high as 24 mph.",
      "last_updated": "2025-11-14T12:58:00.344Z"
    },
    {
      "name": "Mt. Bachelor",
      "lat": 43.979,
      "lng": -121.688,
      "snowfall_24hr": 0,
      "snowfall_48hr": 0,
      "snowfall_7day": 8,
      "forecast_text": "A slight chance of snow. Mostly cloudy. Low around 31, with temperatures rising to around 33 overnight. Southwest wind around 10 mph. Chance of precipitation is 20%. New snow accumulation of less than half an inch possible.",
      "last_updated": "2025-11-14T12:58:14.529Z"
    },
    {
      "name": "Crystal Mountain",
      "lat": 46.9358,
      "lng": -121.4742,
      "snowfall_24hr": 0,
      "snowfall_48hr": 0,
      "snowfall_7day": 11,
      "forecast_text": "Rain and snow likely. Mostly cloudy. Low around 34, with temperatures rising to around 36 overnight. South southwest wind around 13 mph, with gusts as high as 24 mph. Chance of precipitation is 70%. New rainfall amounts less than a tenth of an inch possible.",
      "last_updated": "2025-11-14T12:58:16.786Z"
    },
    {
      "name": "Stevens Pass",
      "lat": 47.7453,
      "lng": -121.0892,
      "snowfall_24hr": 0,
      "snowfall_48hr": 0,
      "snowfall_7day": 6.5,
      "forecast_text": "Rain and snow likely. Cloudy. Low around 36, with temperatures rising to around 38 overnight. West southwest wind 17 to 21 mph, with gusts as high as 26 mph. Chance of precipitation is 70%. New rainfall amounts between a quarter and half of an inch possible.",
      "last_updated": "2025-11-14T12:58:21.652Z"
    },
    {
      "name": "Mt. Baker",
      "lat": 48.8597,
      "lng": -121.6686,
      "snowfall_24hr": 0,
      "snowfall_48hr": 0,
      "snowfall_7day": 6.5,
      "forecast_text": "A chance of rain and snow. Cloudy. Low around 33, with temperatures rising to around 35 overnight. Southwest wind around 3 mph. Chance of precipitation is 30%. New rainfall amounts less than a tenth of an inch possible.",
      "last_updated": "2025-11-14T12:58:33.324Z"
    },
    {
      "name": "Schweitzer",
      "lat": 48.3642,
      "lng": -116.6228,
      "snowfall_24hr": 0,
      "snowfall_48hr": 0,
      "snowfall_7day": 3.5,
      "forecast_text": "Rain likely. Cloudy, with a low around 38. Southwest wind around 16 mph, with gusts as high as 29 mph. Chance of precipitation is 70%. New rainfall amounts between a quarter and half of an inch possible.",
      "last_updated": "2025-11-14T12:58:54.762Z"
    },
    {
      "name": "Sun Peaks",
      "lat": 50.8817,
      "lng": -119.8847,
      "snowfall_24hr": 0,
      "snowfall_48hr": 0,
      "snowfall_7day": 0,
      "forecast_text": "Data unavailable",
      "last_updated": "2025-11-14T12:58:55.541Z",
      "error": "Point API failed: 404"
    },
    {
      "name": "Revelstoke",
      "lat": 50.9981,
      "lng": -118.1956,
      "snowfall_24hr": 0,
      "snowfall_48hr": 0,
      "snowfall_7day": 0,
      "forecast_text": "Data unavailable",
      "last_updated": "2025-11-14T12:58:55.940Z",
      "error": "Point API failed: 404"
    },
    {
      "name": "Fernie",
      "lat": 49.4653,
      "lng": -115.0636,
      "snowfall_24hr": 0,
      "snowfall_48hr": 0,
      "snowfall_7day": 0,
      "forecast_text": "Data unavailable",
      "last_updated": "2025-11-14T12:58:56.257Z",
      "error": "Point API failed: 404"
    },
    {
      "name": "Big White",
      "lat": 49.7311,
      "lng": -118.935,
      "snowfall_24hr": 0,
      "snowfall_48hr": 0,
      "snowfall_7day": 0,
      "forecast_text": "Data unavailable",
      "last_updated": "2025-11-14T12:58:56.825Z",
      "error": "Point API failed: 404"
    },
    {
      "name": "Kicking Horse",
      "lat": 51.2514,
      "lng": -117.0492,
      "snowfall_24hr": 0,
      "snowfall_48hr": 0,
      "snowfall_7day": 0,
      "forecast_text": "Data unavailable",
      "last_updated": "2025-11-14T12:58:58.585Z",
      "error": "Point API failed: 404"
    },
    {
      "name": "Mont Tremblant",
      "lat": 46.2094,
      "lng": -74.5847,
      "snowfall_24hr": 0,
      "snowfall_48hr": 0,
      "snowfall_7day": 0,
      "forecast_text": "Data unavailable",
      "last_updated": "2025-11-14T12:58:59.200Z",
      "error": "Point API failed: 404"
    },
    {
      "name": "Blue Mountain",
      "lat": 44.5075,
      "lng": -80.3231,
      "snowfall_24hr": 0,
      "snowfall_48hr": 0,
      "snowfall_7day": 0,
      "forecast_text": "Data unavailable",
      "last_updated": "2025-11-14T12:58:59.637Z",
      "error": "Point API failed: 404"
    },
    {
      "name": "Sugarloaf",
      "lat": 45.0314,
      "lng": -70.3139,
      "snowfall_24hr": 0,
      "snowfall_48hr": 2,
      "snowfall_7day": 7.5,
      "forecast_text": "A slight chance of snow showers between noon and 2pm. Partly sunny, with a high near 28. Northwest wind 10 to 15 mph, with gusts as high as 25 mph. Chance of precipitation is 20%.",
      "last_updated": "2025-11-14T12:59:02.896Z"
    },
    {
      "name": "Sunday River",
      "lat": 44.4697,
      "lng": -70.8561,
      "snowfall_24hr": 0,
      "snowfall_48hr": 1.5,
      "snowfall_7day": 3.5,
      "forecast_text": "Partly sunny, with a high near 35. Northwest wind around 10 mph, with gusts as high as 25 mph.",
      "last_updated": "2025-11-14T12:59:04.799Z"
    },
    {
      "name": "Sugarbush",
      "lat": 44.135,
      "lng": -72.9017,
      "snowfall_24hr": 3.5,
      "snowfall_48hr": 3.5,
      "snowfall_7day": 5.5,
      "forecast_text": "A chance of snow showers. Mostly cloudy, with a high near 26. Northwest wind around 7 mph. Chance of precipitation is 50%. New snow accumulation of 1 to 2 inches possible.",
      "last_updated": "2025-11-14T12:59:07.538Z"
    },
    {
      "name": "Stratton",
      "lat": 43.1133,
      "lng": -72.9083,
      "snowfall_24hr": 0,
      "snowfall_48hr": 0,
      "snowfall_7day": 0,
      "forecast_text": "Partly sunny, with a high near 36. Northwest wind around 7 mph.",
      "last_updated": "2025-11-14T12:59:11.646Z"
    },
    {
      "name": "Okemo",
      "lat": 43.4017,
      "lng": -72.7167,
      "snowfall_24hr": 0,
      "snowfall_48hr": 0,
      "snowfall_7day": 0,
      "forecast_text": "Partly sunny. High near 39, with temperatures falling to around 32 in the afternoon. Northwest wind around 7 mph.",
      "last_updated": "2025-11-14T12:59:13.213Z"
    },
    {
      "name": "Jay Peak",
      "lat": 44.9378,
      "lng": -72.5036,
      "snowfall_24hr": 0,
      "snowfall_48hr": 0,
      "snowfall_7day": 8.5,
      "forecast_text": "A chance of snow showers. Mostly cloudy, with a high near 26. Northwest wind around 6 mph. Chance of precipitation is 30%. New snow accumulation of around one inch possible.",
      "last_updated": "2025-11-14T12:59:18.202Z"
    },
    {
      "name": "Smugglers' Notch",
      "lat": 44.5458,
      "lng": -72.7872,
      "snowfall_24hr": 3.5,
      "snowfall_48hr": 3.5,
      "snowfall_7day": 11,
      "forecast_text": "A chance of snow showers. Mostly cloudy, with a high near 27. Northwest wind around 9 mph. Chance of precipitation is 30%. New snow accumulation of 1 to 2 inches possible.",
      "last_updated": "2025-11-14T12:59:24.243Z"
    },
    {
      "name": "Loon Mountain",
      "lat": 44.0369,
      "lng": -71.6206,
      "snowfall_24hr": 0,
      "snowfall_48hr": 1.5,
      "snowfall_7day": 3.5,
      "forecast_text": "A slight chance of snow showers before 8am. Partly sunny, with a high near 29. Northwest wind around 10 mph. Chance of precipitation is 20%.",
      "last_updated": "2025-11-14T12:59:32.554Z"
    },
    {
      "name": "Cannon Mountain",
      "lat": 44.1572,
      "lng": -71.6978,
      "snowfall_24hr": 0,
      "snowfall_48hr": 1.5,
      "snowfall_7day": 5,
      "forecast_text": "A slight chance of snow showers before 5pm. Mostly cloudy, with a high near 24. Northwest wind around 15 mph, with gusts as high as 30 mph. Chance of precipitation is 20%. New snow accumulation of less than one inch possible.",
      "last_updated": "2025-11-14T12:59:33.886Z"
    },
    {
      "name": "Wildcat Mountain",
      "lat": 44.2636,
      "lng": -71.2328,
      "snowfall_24hr": 0,
      "snowfall_48hr": 1.5,
      "snowfall_7day": 5,
      "forecast_text": "A slight chance of snow showers. Partly sunny, with a high near 31. Northwest wind around 10 mph, with gusts as high as 25 mph. Chance of precipitation is 20%. New snow accumulation of less than half an inch possible.",
      "last_updated": "2025-11-14T12:59:35.131Z"
    },
    {
      "name": "Bretton Woods",
      "lat": 44.2633,
      "lng": -71.4439,
      "snowfall_24hr": 0,
      "snowfall_48hr": 0,
      "snowfall_7day": 3,
      "forecast_text": "A slight chance of snow showers. Mostly cloudy, with a high near 31. Northwest wind 5 to 10 mph. Chance of precipitation is 20%. New snow accumulation of less than half an inch possible.",
      "last_updated": "2025-11-14T12:59:37.032Z"
    },
    {
      "name": "Snowbasin",
      "lat": 41.2156,
      "lng": -111.8567,
      "snowfall_24hr": 0,
      "snowfall_48hr": 0,
      "snowfall_7day": 3,
      "forecast_text": "Partly cloudy. Low around 44, with temperatures rising to around 46 overnight. South wind around 10 mph.",
      "last_updated": "2025-11-14T12:59:44.252Z"
    },
    {
      "name": "Powder Mountain",
      "lat": 41.3814,
      "lng": -111.7806,
      "snowfall_24hr": 0,
      "snowfall_48hr": 0,
      "snowfall_7day": 13,
      "forecast_text": "Partly cloudy. Low around 40, with temperatures rising to around 42 overnight. South southwest wind around 14 mph.",
      "last_updated": "2025-11-14T12:59:47.983Z"
    },
    {
      "name": "Solitude",
      "lat": 40.62,
      "lng": -111.5917,
      "snowfall_24hr": 0,
      "snowfall_48hr": 0,
      "snowfall_7day": 20,
      "forecast_text": "Partly cloudy. Low around 39, with temperatures rising to around 43 overnight. South southwest wind around 14 mph.",
      "last_updated": "2025-11-14T12:59:53.808Z"
    },
    {
      "name": "Brighton",
      "lat": 40.5981,
      "lng": -111.5831,
      "snowfall_24hr": 0,
      "snowfall_48hr": 0,
      "snowfall_7day": 22,
      "forecast_text": "Partly cloudy. Low around 39, with temperatures rising to around 42 overnight. South southwest wind around 12 mph.",
      "last_updated": "2025-11-14T12:59:55.409Z"
    },
    {
      "name": "Snowmass",
      "lat": 39.2133,
      "lng": -106.9378,
      "snowfall_24hr": 0,
      "snowfall_48hr": 0,
      "snowfall_7day": 0,
      "forecast_text": "Mostly sunny, with a high near 57. West wind 5 to 10 mph.",
      "last_updated": "2025-11-14T13:00:07.980Z"
    },
    {
      "name": "Aspen Highlands",
      "lat": 39.1825,
      "lng": -106.8553,
      "snowfall_24hr": 0,
      "snowfall_48hr": 0,
      "snowfall_7day": 0,
      "forecast_text": "Mostly sunny, with a high near 60. West southwest wind around 5 mph.",
      "last_updated": "2025-11-14T13:00:23.819Z"
    },
    {
      "name": "Buttermilk",
      "lat": 39.2078,
      "lng": -106.8608,
      "snowfall_24hr": 0,
      "snowfall_48hr": 0,
      "snowfall_7day": 0,
      "forecast_text": "Mostly sunny, with a high near 62. Southwest wind around 5 mph.",
      "last_updated": "2025-11-14T13:00:33.474Z"
    },
    {
      "name": "Beaver Creek",
      "lat": 39.6042,
      "lng": -106.5164,
      "snowfall_24hr": 0,
      "snowfall_48hr": 0,
      "snowfall_7day": 0,
      "forecast_text": "Mostly sunny, with a high near 57. Northwest wind 5 to 10 mph, with gusts as high as 25 mph.",
      "last_updated": "2025-11-14T13:00:39.992Z"
    },
    {
      "name": "Purgatory",
      "lat": 37.6303,
      "lng": -107.8139,
      "snowfall_24hr": 0,
      "snowfall_48hr": 0,
      "snowfall_7day": 18,
      "forecast_text": "Mostly sunny, with a high near 57. South southeast wind 0 to 5 mph.",
      "last_updated": "2025-11-14T13:00:41.659Z"
    },
    {
      "name": "Wolf Creek",
      "lat": 37.4722,
      "lng": -106.7931,
      "snowfall_24hr": 0,
      "snowfall_48hr": 0,
      "snowfall_7day": 33,
      "forecast_text": "Mostly sunny, with a high near 41. Southwest wind around 10 mph.",
      "last_updated": "2025-11-14T13:00:59.642Z"
    },
    {
      "name": "Monarch Mountain",
      "lat": 38.5117,
      "lng": -106.3317,
      "snowfall_24hr": 0,
      "snowfall_48hr": 0,
      "snowfall_7day": 7,
      "forecast_text": "Sunny, with a high near 42. West wind 15 to 20 mph.",
      "last_updated": "2025-11-14T13:01:25.814Z"
    },
    {
      "name": "Eldora",
      "lat": 39.9372,
      "lng": -105.5828,
      "snowfall_24hr": 0,
      "snowfall_48hr": 0,
      "snowfall_7day": 7,
      "forecast_text": "Mostly sunny. High near 53, with temperatures falling to around 46 in the afternoon. West wind 10 to 15 mph, with gusts as high as 24 mph.",
      "last_updated": "2025-11-14T13:01:38.923Z"
    },
    {
      "name": "Grand Targhee",
      "lat": 43.7886,
      "lng": -110.9586,
      "snowfall_24hr": 0,
      "snowfall_48hr": 0,
      "snowfall_7day": 5,
      "forecast_text": "Rain and snow showers likely before 5pm, then a chance of rain and snow showers. Cloudy. High near 40, with temperatures falling to around 33 in the afternoon. South southwest wind around 18 mph, with gusts as high as 28 mph. Chance of precipitation is 60%. New snow accumulation of less than half an inch possible.",
      "last_updated": "2025-11-14T13:01:45.235Z"
    },
    {
      "name": "Snow King",
      "lat": 43.4783,
      "lng": -110.7628,
      "snowfall_24hr": 0,
      "snowfall_48hr": 0,
      "snowfall_7day": 0,
      "forecast_text": "Rain showers likely after 8am. Mostly cloudy. High near 55, with temperatures falling to around 50 in the afternoon. South wind 12 to 18 mph, with gusts as high as 28 mph. Chance of precipitation is 60%.",
      "last_updated": "2025-11-14T13:01:48.101Z"
    },
    {
      "name": "Bridger Bowl",
      "lat": 45.8167,
      "lng": -110.8969,
      "snowfall_24hr": 0,
      "snowfall_48hr": 0,
      "snowfall_7day": 0,
      "forecast_text": "Rain likely. Cloudy. High near 50, with temperatures falling to around 44 in the afternoon. West southwest wind 10 to 17 mph, with gusts as high as 39 mph. Chance of precipitation is 70%.",
      "last_updated": "2025-11-14T13:01:52.610Z"
    },
    {
      "name": "Big Mountain",
      "lat": 48.4928,
      "lng": -114.3483,
      "snowfall_24hr": 0,
      "snowfall_48hr": 0,
      "snowfall_7day": 0,
      "forecast_text": "Rain and snow likely before 7am, then rain and snow. Cloudy, with a high near 35. West southwest wind 9 to 16 mph, with gusts as high as 25 mph. Chance of precipitation is 90%. New rainfall amounts between a quarter and half of an inch possible.",
      "last_updated": "2025-11-14T13:01:54.180Z"
    },
    {
      "name": "Snowbowl",
      "lat": 46.9417,
      "lng": -113.9492,
      "snowfall_24hr": 0,
      "snowfall_48hr": 0,
      "snowfall_7day": 0,
      "forecast_text": "Rain. Cloudy. High near 49, with temperatures falling to around 44 in the afternoon. West wind 8 to 12 mph, with gusts as high as 23 mph. Chance of precipitation is 90%. New rainfall amounts between a tenth and quarter of an inch possible.",
      "last_updated": "2025-11-14T13:02:01.021Z"
    },
    {
      "name": "Bogus Basin",
      "lat": 43.7725,
      "lng": -116.0939,
      "snowfall_24hr": 0,
      "snowfall_48hr": 0,
      "snowfall_7day": 1.5,
      "forecast_text": "Rain likely before 11am. Partly sunny. High near 46, with temperatures falling to around 41 in the afternoon. Southwest wind 2 to 8 mph. Chance of precipitation is 70%.",
      "last_updated": "2025-11-14T13:02:02.905Z"
    },
    {
      "name": "Tamarack",
      "lat": 44.6922,
      "lng": -116.1344,
      "snowfall_24hr": 0,
      "snowfall_48hr": 0,
      "snowfall_7day": 3.5,
      "forecast_text": "Rain before 5pm. Mostly cloudy. High near 44, with temperatures falling to around 39 in the afternoon. Southwest wind 6 to 10 mph. Chance of precipitation is 90%. New rainfall amounts between a tenth and quarter of an inch possible.",
      "last_updated": "2025-11-14T13:02:14.412Z"
    },
    {
      "name": "Silver Mountain",
      "lat": 47.6764,
      "lng": -116.0703,
      "snowfall_24hr": 0,
      "snowfall_48hr": 0,
      "snowfall_7day": 0,
      "forecast_text": "Rain. Cloudy, with a low around 44. Southwest wind around 9 mph, with gusts as high as 22 mph. Chance of precipitation is 90%. New rainfall amounts between a tenth and quarter of an inch possible.",
      "last_updated": "2025-11-14T13:02:23.374Z"
    },
    {
      "name": "Mt. Hood Meadows",
      "lat": 45.3319,
      "lng": -121.6653,
      "snowfall_24hr": 0,
      "snowfall_48hr": 0,
      "snowfall_7day": 7,
      "forecast_text": "Rain. Mostly cloudy. Low around 37, with temperatures rising to around 39 overnight. West wind around 6 mph. Chance of precipitation is 80%.",
      "last_updated": "2025-11-14T13:02:32.296Z"
    },
    {
      "name": "Timberline",
      "lat": 45.3306,
      "lng": -121.7108,
      "snowfall_24hr": 0,
      "snowfall_48hr": 0,
      "snowfall_7day": 14,
      "forecast_text": "Snow. Mostly cloudy. Low around 35, with temperatures rising to around 37 overnight. West wind around 9 mph, with gusts as high as 20 mph. Chance of precipitation is 80%.",
      "last_updated": "2025-11-14T13:02:49.706Z"
    },
    {
      "name": "Willamette Pass",
      "lat": 43.6006,
      "lng": -122.0336,
      "snowfall_24hr": 0,
      "snowfall_48hr": 0,
      "snowfall_7day": 7.5,
      "forecast_text": "A chance of rain and patchy fog. Mostly cloudy, with a low around 35. South wind around 6 mph. Chance of precipitation is 30%.",
      "last_updated": "2025-11-14T13:02:52.786Z"
    },
    {
      "name": "Mission Ridge",
      "lat": 47.2917,
      "lng": -120.3997,
      "snowfall_24hr": 0,
      "snowfall_48hr": 0,
      "snowfall_7day": 2,
      "forecast_text": "A chance of snow. Mostly cloudy. Low around 36, with temperatures rising to around 38 overnight. West wind around 13 mph. Chance of precipitation is 40%. New rainfall amounts less than a tenth of an inch possible.",
      "last_updated": "2025-11-14T13:03:02.808Z"
    },
    {
      "name": "Snoqualmie",
      "lat": 47.4219,
      "lng": -121.4136,
      "snowfall_24hr": 0,
      "snowfall_48hr": 0,
      "snowfall_7day": 1.5,
      "forecast_text": "Rain. Cloudy. Low around 38, with temperatures rising to around 40 overnight. West wind around 2 mph. Chance of precipitation is 90%. New rainfall amounts between a quarter and half of an inch possible.",
      "last_updated": "2025-11-14T13:03:05.060Z"
    },
    {
      "name": "Mt. Spokane",
      "lat": 47.9208,
      "lng": -117.0856,
      "snowfall_24hr": 0,
      "snowfall_48hr": 0,
      "snowfall_7day": 0,
      "forecast_text": "A chance of rain. Cloudy, with a low around 40. Southwest wind around 14 mph, with gusts as high as 26 mph. Chance of precipitation is 50%. New rainfall amounts between a tenth and quarter of an inch possible.",
      "last_updated": "2025-11-14T13:03:07.876Z"
    },
    {
      "name": "White Pass",
      "lat": 46.6394,
      "lng": -121.3908,
      "snowfall_24hr": 0,
      "snowfall_48hr": 0,
      "snowfall_7day": 6,
      "forecast_text": "Rain likely. Cloudy. Low around 36, with temperatures rising to around 38 overnight. West wind around 9 mph, with gusts as high as 24 mph. Chance of precipitation is 70%. New rainfall amounts between a tenth and quarter of an inch possible.",
      "last_updated": "2025-11-14T13:03:10.166Z"
    },
    {
      "name": "49 Degrees North",
      "lat": 48.7511,
      "lng": -117.6369,
      "snowfall_24hr": 0,
      "snowfall_48hr": 0,
      "snowfall_7day": 0,
      "forecast_text": "Rain likely and patchy fog. Cloudy, with a low around 41. South wind around 2 mph. Chance of precipitation is 60%. New rainfall amounts between a tenth and quarter of an inch possible.",
      "last_updated": "2025-11-14T13:03:15.832Z"
    },
    {
      "name": "Red Mountain",
      "lat": 49.0917,
      "lng": -117.8233,
      "snowfall_24hr": 0,
      "snowfall_48hr": 0,
      "snowfall_7day": 0,
      "forecast_text": "Data unavailable",
      "last_updated": "2025-11-14T13:03:16.196Z",
      "error": "Point API failed: 404"
    },
    {
      "name": "Whitewater",
      "lat": 49.5394,
      "lng": -117.2717,
      "snowfall_24hr": 0,
      "snowfall_48hr": 0,
      "snowfall_7day": 0,
      "forecast_text": "Data unavailable",
      "last_updated": "2025-11-14T13:03:17.425Z",
      "error": "Point API failed: 404"
    },
    {
      "name": "Panorama",
      "lat": 50.8036,
      "lng": -116.0533,
      "snowfall_24hr": 0,
      "snowfall_48hr": 0,
      "snowfall_7day": 0,
      "forecast_text": "Data unavailable",
      "last_updated": "2025-11-14T13:03:18.096Z",
      "error": "Point API failed: 404"
    },
    {
      "name": "Marmot Basin",
      "lat": 52.8236,
      "lng": -118.0747,
      "snowfall_24hr": 0,
      "snowfall_48hr": 0,
      "snowfall_7day": 0,
      "forecast_text": "Data unavailable",
      "last_updated": "2025-11-14T13:03:18.458Z",
      "error": "Point API failed: 404"
    },
    {
      "name": "Nakiska",
      "lat": 50.98,
      "lng": -115.0733,
      "snowfall_24hr": 0,
      "snowfall_48hr": 0,
      "snowfall_7day": 0,
      "forecast_text": "Data unavailable",
      "last_updated": "2025-11-14T13:03:18.913Z",
      "error": "Point API failed: 404"
    },
    {
      "name": "Castle Mountain",
      "lat": 49.4058,
      "lng": -114.5169,
      "snowfall_24hr": 0,
      "snowfall_48hr": 0,
      "snowfall_7day": 0,
      "forecast_text": "Data unavailable",
      "last_updated": "2025-11-14T13:03:19.420Z",
      "error": "Point API failed: 404"
    },
    {
      "name": "Norquay",
      "lat": 51.1967,
      "lng": -115.5531,
      "snowfall_24hr": 0,
      "snowfall_48hr": 0,
      "snowfall_7day": 0,
      "forecast_text": "Data unavailable",
      "last_updated": "2025-11-14T13:03:19.732Z",
      "error": "Point API failed: 404"
    },
    {
      "name": "Le Massif",
      "lat": 47.3136,
      "lng": -70.6358,
      "snowfall_24hr": 0,
      "snowfall_48hr": 0,
      "snowfall_7day": 0,
      "forecast_text": "Data unavailable",
      "last_updated": "2025-11-14T13:03:21.689Z",
      "error": "Point API failed: 404"
    },
    {
      "name": "Calabogie",
      "lat": 45.2906,
      "lng": -76.7019,
      "snowfall_24hr": 0,
      "snowfall_48hr": 0,
      "snowfall_7day": 0,
      "forecast_text": "Data unavailable",
      "last_updated": "2025-11-14T13:03:22.276Z",
      "error": "Point API failed: 404"
    },
    {
      "name": "Sierra-at-Tahoe",
      "lat": 38.7986,
      "lng": -120.0828,
      "snowfall_24hr": 0,
      "snowfall_48hr": 0,
      "snowfall_7day": 12.5,
      "forecast_text": "Rain showers. Cloudy, with a low around 36. Southwest wind around 0 mph. Chance of precipitation is 80%. New rainfall amounts between a quarter and half of an inch possible.",
      "last_updated": "2025-11-14T13:03:30.061Z"
    },
    {
      "name": "Kirkwood",
      "lat": 38.6867,
      "lng": -120.0656,
      "snowfall_24hr": 0,
      "snowfall_48hr": 0,
      "snowfall_7day": 30.5,
      "forecast_text": "Rain and snow showers. Cloudy. Low around 33, with temperatures rising to around 36 overnight. South wind around 7 mph. Chance of precipitation is 80%. New snow accumulation of less than half an inch possible.",
      "last_updated": "2025-11-14T13:03:36.819Z"
    },
    {
      "name": "Northstar",
      "lat": 39.2733,
      "lng": -120.1211,
      "snowfall_24hr": 0,
      "snowfall_48hr": 0,
      "snowfall_7day": 0,
      "forecast_text": "Rain and snow likely. Mostly cloudy, with a low around 37. South wind around 5 mph. Chance of precipitation is 70%.",
      "last_updated": "2025-11-14T13:03:38.129Z"
    },
    {
      "name": "Homewood",
      "lat": 39.0833,
      "lng": -120.1667,
      "snowfall_24hr": 0,
      "snowfall_48hr": 0,
      "snowfall_7day": 1.5,
      "forecast_text": "Rain and snow. Mostly cloudy, with a low around 37. Southwest wind around 0 mph. Chance of precipitation is 80%.",
      "last_updated": "2025-11-14T13:03:46.903Z"
    },
    {
      "name": "Mt. Rose",
      "lat": 39.3397,
      "lng": -119.8894,
      "snowfall_24hr": 0,
      "snowfall_48hr": 0,
      "snowfall_7day": 8.5,
      "forecast_text": "Rain and snow likely. Mostly cloudy, with a low around 34. Southwest wind around 5 mph. Chance of precipitation is 60%.",
      "last_updated": "2025-11-14T13:03:50.816Z"
    },
    {
      "name": "Diamond Peak",
      "lat": 39.2525,
      "lng": -119.9169,
      "snowfall_24hr": 0,
      "snowfall_48hr": 0,
      "snowfall_7day": 3.5,
      "forecast_text": "Rain and snow likely. Mostly cloudy, with a low around 37. Southwest wind around 5 mph. Chance of precipitation is 70%.",
      "last_updated": "2025-11-14T13:03:55.381Z"
    },
    {
      "name": "June Mountain",
      "lat": 37.7853,
      "lng": -119.0781,
      "snowfall_24hr": 0,
      "snowfall_48hr": 0,
      "snowfall_7day": 8,
      "forecast_text": "Rain and snow. Cloudy, with a low around 37. South wind around 10 mph, with gusts as high as 25 mph. Chance of precipitation is 90%. New rainfall amounts between a half and three quarters of an inch possible.",
      "last_updated": "2025-11-14T13:03:58.258Z"
    },
    {
      "name": "Bear Mountain",
      "lat": 34.235,
      "lng": -116.865,
      "snowfall_24hr": 0,
      "snowfall_48hr": 0,
      "snowfall_7day": 3.5,
      "forecast_text": "Rain showers likely. Cloudy, with a low around 34. Southwest wind around 10 mph. Chance of precipitation is 60%. New rainfall amounts less than a tenth of an inch possible.",
      "last_updated": "2025-11-14T13:04:15.651Z"
    },
    {
      "name": "Snow Summit",
      "lat": 34.2306,
      "lng": -116.8886,
      "snowfall_24hr": 0,
      "snowfall_48hr": 0,
      "snowfall_7day": 5.5,
      "forecast_text": "Rain showers likely. Cloudy, with a low around 37. Southwest wind around 10 mph. Chance of precipitation is 60%. New rainfall amounts less than a tenth of an inch possible.",
      "last_updated": "2025-11-14T13:04:16.960Z"
    },
    {
      "name": "Mountain High",
      "lat": 34.3811,
      "lng": -117.6881,
      "snowfall_24hr": 0,
      "snowfall_48hr": 0,
      "snowfall_7day": 0,
      "forecast_text": "Rain showers likely. Cloudy, with a low around 43. South wind around 15 mph. Chance of precipitation is 60%. New rainfall amounts between a quarter and half of an inch possible.",
      "last_updated": "2025-11-14T13:04:20.269Z"
    },
    {
      "name": "Ski Santa Fe",
      "lat": 35.7869,
      "lng": -105.7961,
      "snowfall_24hr": 0,
      "snowfall_48hr": 0,
      "snowfall_7day": 6.5,
      "forecast_text": "Sunny. High near 49, with temperatures falling to around 40 in the afternoon. Northwest wind around 10 mph.",
      "last_updated": "2025-11-14T13:04:22.074Z"
    },
    {
      "name": "Angel Fire",
      "lat": 36.3975,
      "lng": -105.2886,
      "snowfall_24hr": 0,
      "snowfall_48hr": 0,
      "snowfall_7day": 0,
      "forecast_text": "Sunny. High near 60, with temperatures falling to around 46 in the afternoon. West wind 5 to 10 mph.",
      "last_updated": "2025-11-14T13:04:45.769Z"
    },
    {
      "name": "Whiteface Mountain",
      "lat": 44.3659,
      "lng": -73.9024,
      "snowfall_24hr": 0,
      "snowfall_48hr": 0,
      "snowfall_7day": 1.5,
      "forecast_text": "A slight chance of snow showers after 1pm. Mostly cloudy, with a high near 24. Northwest wind 8 to 12 mph. Chance of precipitation is 20%. New snow accumulation of less than half an inch possible.",
      "last_updated": "2025-11-14T13:05:11.816Z"
    }
  ]
}