{
  "generated_at": "2025-12-27T06:41:52.597Z",
  "total_resorts": 115,
  "data_source": "Open-Meteo",
  "resorts": [
    {
      "name": "Whistler Blackcomb",
      "lat": 50.1163,
      "lng": -122.9574,
      "snowfall_24hr": 2.1,
      "snowfall_48hr": 2.1,
      "snowfall_7day": 2.4,
      "forecast_text": "2.1\" expected in next 24 hours",
      "last_updated": "2025-12-27T06:41:28.225Z"
    },
    {
      "name": "Vail",
      "lat": 39.6403,
      "lng": -106.3742,
      "snowfall_24hr": 0,
      "snowfall_48hr": 2.8,
      "snowfall_7day": 3.3,
      "forecast_text": "2.8\" expected in next 48 hours",
      "last_updated": "2025-12-27T06:41:28.428Z"
    },
    {
      "name": "Park City",
      "lat": 40.6514,
      "lng": -111.5079,
      "snowfall_24hr": 0.4,
      "snowfall_48hr": 1.3,
      "snowfall_7day": 1.6,
      "forecast_text": "0.4\" expected in next 24 hours",
      "last_updated": "2025-12-27T06:41:28.632Z"
    },
    {
      "name": "Breckenridge",
      "lat": 39.4817,
      "lng": -106.0384,
      "snowfall_24hr": 0,
      "snowfall_48hr": 1.1,
      "snowfall_7day": 1.7,
      "forecast_text": "1.1\" expected in next 48 hours",
      "last_updated": "2025-12-27T06:41:28.835Z"
    },
    {
      "name": "Heavenly",
      "lat": 38.935,
      "lng": -119.9403,
      "snowfall_24hr": 3.4,
      "snowfall_48hr": 3.4,
      "snowfall_7day": 3.4,
      "forecast_text": "3.4\" expected in next 24 hours",
      "last_updated": "2025-12-27T06:41:29.038Z"
    },
    {
      "name": "Aspen Snowmass",
      "lat": 39.1911,
      "lng": -106.8175,
      "snowfall_24hr": 0,
      "snowfall_48hr": 1.5,
      "snowfall_7day": 1.6,
      "forecast_text": "1.5\" expected in next 48 hours",
      "last_updated": "2025-12-27T06:41:29.240Z"
    },
    {
      "name": "Jackson Hole",
      "lat": 43.5875,
      "lng": -110.8278,
      "snowfall_24hr": 1.5,
      "snowfall_48hr": 3.1,
      "snowfall_7day": 3.1,
      "forecast_text": "1.5\" expected in next 24 hours",
      "last_updated": "2025-12-27T06:41:29.444Z"
    },
    {
      "name": "Banff Sunshine",
      "lat": 51.1158,
      "lng": -115.7631,
      "snowfall_24hr": 0.2,
      "snowfall_48hr": 1.1,
      "snowfall_7day": 1.1,
      "forecast_text": "0.2\" expected in next 24 hours",
      "last_updated": "2025-12-27T06:41:29.647Z"
    },
    {
      "name": "Lake Louise",
      "lat": 51.4254,
      "lng": -116.1773,
      "snowfall_24hr": 0.3,
      "snowfall_48hr": 0.6,
      "snowfall_7day": 0.6,
      "forecast_text": "0.3\" expected in next 24 hours",
      "last_updated": "2025-12-27T06:41:29.850Z"
    },
    {
      "name": "Big Sky",
      "lat": 45.2846,
      "lng": -111.4008,
      "snowfall_24hr": 0.8,
      "snowfall_48hr": 1.3,
      "snowfall_7day": 1.3,
      "forecast_text": "0.8\" expected in next 24 hours",
      "last_updated": "2025-12-27T06:41:30.053Z"
    },
    {
      "name": "Steamboat",
      "lat": 40.458,
      "lng": -106.8047,
      "snowfall_24hr": 0,
      "snowfall_48hr": 4,
      "snowfall_7day": 4.1,
      "forecast_text": "4.0\" expected in next 48 hours",
      "last_updated": "2025-12-27T06:41:30.291Z"
    },
    {
      "name": "Mammoth Mountain",
      "lat": 37.6308,
      "lng": -119.0326,
      "snowfall_24hr": 6.5,
      "snowfall_48hr": 6.8,
      "snowfall_7day": 7.8,
      "forecast_text": "6.5\" expected in next 24 hours",
      "last_updated": "2025-12-27T06:41:30.493Z"
    },
    {
      "name": "Squaw Valley",
      "lat": 39.197,
      "lng": -120.2356,
      "snowfall_24hr": 6,
      "snowfall_48hr": 6.4,
      "snowfall_7day": 6.4,
      "forecast_text": "6.0\" expected in next 24 hours",
      "last_updated": "2025-12-27T06:41:30.695Z"
    },
    {
      "name": "Telluride",
      "lat": 37.9375,
      "lng": -107.8123,
      "snowfall_24hr": 0,
      "snowfall_48hr": 0.3,
      "snowfall_7day": 0.7,
      "forecast_text": "0.3\" expected in next 48 hours",
      "last_updated": "2025-12-27T06:41:30.899Z"
    },
    {
      "name": "Sun Valley",
      "lat": 43.6966,
      "lng": -114.3553,
      "snowfall_24hr": 0.9,
      "snowfall_48hr": 0.9,
      "snowfall_7day": 0.9,
      "forecast_text": "0.9\" expected in next 24 hours",
      "last_updated": "2025-12-27T06:41:31.101Z"
    },
    {
      "name": "Deer Valley",
      "lat": 40.6374,
      "lng": -111.4783,
      "snowfall_24hr": 0.4,
      "snowfall_48hr": 1.2,
      "snowfall_7day": 1.7,
      "forecast_text": "0.4\" expected in next 24 hours",
      "last_updated": "2025-12-27T06:41:31.302Z"
    },
    {
      "name": "Killington",
      "lat": 43.6046,
      "lng": -72.822,
      "snowfall_24hr": 0.4,
      "snowfall_48hr": 0.4,
      "snowfall_7day": 2.9,
      "forecast_text": "0.4\" expected in next 24 hours",
      "last_updated": "2025-12-27T06:41:31.504Z"
    },
    {
      "name": "Stowe",
      "lat": 44.5303,
      "lng": -72.7817,
      "snowfall_24hr": 0.3,
      "snowfall_48hr": 0.3,
      "snowfall_7day": 5.7,
      "forecast_text": "0.3\" expected in next 24 hours",
      "last_updated": "2025-12-27T06:41:31.706Z"
    },
    {
      "name": "Alta",
      "lat": 40.5885,
      "lng": -111.6376,
      "snowfall_24hr": 0.1,
      "snowfall_48hr": 2.3,
      "snowfall_7day": 3.2,
      "forecast_text": "0.1\" expected in next 24 hours",
      "last_updated": "2025-12-27T06:41:31.907Z"
    },
    {
      "name": "Snowbird",
      "lat": 40.5803,
      "lng": -111.6573,
      "snowfall_24hr": 0.1,
      "snowfall_48hr": 2.7,
      "snowfall_7day": 3.7,
      "forecast_text": "0.1\" expected in next 24 hours",
      "last_updated": "2025-12-27T06:41:32.109Z"
    },
    {
      "name": "Taos",
      "lat": 36.5924,
      "lng": -105.4467,
      "snowfall_24hr": 0,
      "snowfall_48hr": 6.1,
      "snowfall_7day": 6.1,
      "forecast_text": "6.1\" expected in next 48 hours",
      "last_updated": "2025-12-27T06:41:32.313Z"
    },
    {
      "name": "Copper Mountain",
      "lat": 39.5022,
      "lng": -106.1506,
      "snowfall_24hr": 0,
      "snowfall_48hr": 1.5,
      "snowfall_7day": 2,
      "forecast_text": "1.5\" expected in next 48 hours",
      "last_updated": "2025-12-27T06:41:32.514Z"
    },
    {
      "name": "Winter Park",
      "lat": 39.8868,
      "lng": -105.7625,
      "snowfall_24hr": 0,
      "snowfall_48hr": 1.4,
      "snowfall_7day": 1.7,
      "forecast_text": "1.4\" expected in next 48 hours",
      "last_updated": "2025-12-27T06:41:32.713Z"
    },
    {
      "name": "Keystone",
      "lat": 39.605,
      "lng": -105.9347,
      "snowfall_24hr": 0,
      "snowfall_48hr": 1.4,
      "snowfall_7day": 1.7,
      "forecast_text": "1.4\" expected in next 48 hours",
      "last_updated": "2025-12-27T06:41:32.915Z"
    },
    {
      "name": "Arapahoe Basin",
      "lat": 39.6426,
      "lng": -105.8717,
      "snowfall_24hr": 0,
      "snowfall_48hr": 1.8,
      "snowfall_7day": 2.3,
      "forecast_text": "1.8\" expected in next 48 hours",
      "last_updated": "2025-12-27T06:41:33.117Z"
    },
    {
      "name": "Crested Butte",
      "lat": 38.8997,
      "lng": -106.9653,
      "snowfall_24hr": 0,
      "snowfall_48hr": 0.6,
      "snowfall_7day": 0.7,
      "forecast_text": "0.6\" expected in next 48 hours",
      "last_updated": "2025-12-27T06:41:33.319Z"
    },
    {
      "name": "Loveland",
      "lat": 39.6803,
      "lng": -105.8978,
      "snowfall_24hr": 0,
      "snowfall_48hr": 2.4,
      "snowfall_7day": 3.3,
      "forecast_text": "2.4\" expected in next 48 hours",
      "last_updated": "2025-12-27T06:41:33.519Z"
    },
    {
      "name": "Mt. Bachelor",
      "lat": 43.979,
      "lng": -121.688,
      "snowfall_24hr": 1.2,
      "snowfall_48hr": 1.6,
      "snowfall_7day": 1.6,
      "forecast_text": "1.2\" expected in next 24 hours",
      "last_updated": "2025-12-27T06:41:33.721Z"
    },
    {
      "name": "Crystal Mountain",
      "lat": 46.9358,
      "lng": -121.4742,
      "snowfall_24hr": 1.1,
      "snowfall_48hr": 1.1,
      "snowfall_7day": 1.1,
      "forecast_text": "1.1\" expected in next 24 hours",
      "last_updated": "2025-12-27T06:41:33.923Z"
    },
    {
      "name": "Stevens Pass",
      "lat": 47.7453,
      "lng": -121.0892,
      "snowfall_24hr": 5.4,
      "snowfall_48hr": 6,
      "snowfall_7day": 6,
      "forecast_text": "5.4\" expected in next 24 hours",
      "last_updated": "2025-12-27T06:41:34.125Z"
    },
    {
      "name": "Mt. Baker",
      "lat": 48.8597,
      "lng": -121.6686,
      "snowfall_24hr": 3.9,
      "snowfall_48hr": 3.9,
      "snowfall_7day": 4.3,
      "forecast_text": "3.9\" expected in next 24 hours",
      "last_updated": "2025-12-27T06:41:34.327Z"
    },
    {
      "name": "Schweitzer",
      "lat": 48.3642,
      "lng": -116.6228,
      "snowfall_24hr": 2.8,
      "snowfall_48hr": 2.8,
      "snowfall_7day": 2.8,
      "forecast_text": "2.8\" expected in next 24 hours",
      "last_updated": "2025-12-27T06:41:34.528Z"
    },
    {
      "name": "Sun Peaks",
      "lat": 50.8817,
      "lng": -119.8847,
      "snowfall_24hr": 0.1,
      "snowfall_48hr": 0.1,
      "snowfall_7day": 0.2,
      "forecast_text": "0.1\" expected in next 24 hours",
      "last_updated": "2025-12-27T06:41:34.731Z"
    },
    {
      "name": "Revelstoke",
      "lat": 50.9981,
      "lng": -118.1956,
      "snowfall_24hr": 2.7,
      "snowfall_48hr": 2.7,
      "snowfall_7day": 3.1,
      "forecast_text": "2.7\" expected in next 24 hours",
      "last_updated": "2025-12-27T06:41:34.932Z"
    },
    {
      "name": "Fernie",
      "lat": 49.4653,
      "lng": -115.0636,
      "snowfall_24hr": 0.1,
      "snowfall_48hr": 0.9,
      "snowfall_7day": 0.9,
      "forecast_text": "0.1\" expected in next 24 hours",
      "last_updated": "2025-12-27T06:41:35.134Z"
    },
    {
      "name": "Big White",
      "lat": 49.7311,
      "lng": -118.935,
      "snowfall_24hr": 1.3,
      "snowfall_48hr": 1.3,
      "snowfall_7day": 1.5,
      "forecast_text": "1.3\" expected in next 24 hours",
      "last_updated": "2025-12-27T06:41:35.337Z"
    },
    {
      "name": "Kicking Horse",
      "lat": 51.2514,
      "lng": -117.0492,
      "snowfall_24hr": 0.6,
      "snowfall_48hr": 0.6,
      "snowfall_7day": 0.6,
      "forecast_text": "0.6\" expected in next 24 hours",
      "last_updated": "2025-12-27T06:41:35.539Z"
    },
    {
      "name": "Mont Tremblant",
      "lat": 46.2094,
      "lng": -74.5847,
      "snowfall_24hr": 0,
      "snowfall_48hr": 0,
      "snowfall_7day": 3.5,
      "forecast_text": "3.5\" expected in next 7 days",
      "last_updated": "2025-12-27T06:41:35.741Z"
    },
    {
      "name": "Blue Mountain",
      "lat": 44.5075,
      "lng": -80.3231,
      "snowfall_24hr": 0,
      "snowfall_48hr": 0.4,
      "snowfall_7day": 4.7,
      "forecast_text": "0.4\" expected in next 48 hours",
      "last_updated": "2025-12-27T06:41:35.943Z"
    },
    {
      "name": "Sugarloaf",
      "lat": 45.0314,
      "lng": -70.3139,
      "snowfall_24hr": 0,
      "snowfall_48hr": 0,
      "snowfall_7day": 3.4,
      "forecast_text": "3.4\" expected in next 7 days",
      "last_updated": "2025-12-27T06:41:36.145Z"
    },
    {
      "name": "Sunday River",
      "lat": 44.4697,
      "lng": -70.8561,
      "snowfall_24hr": 0,
      "snowfall_48hr": 0,
      "snowfall_7day": 2.3,
      "forecast_text": "2.3\" expected in next 7 days",
      "last_updated": "2025-12-27T06:41:36.347Z"
    },
    {
      "name": "Sugarbush",
      "lat": 44.135,
      "lng": -72.9017,
      "snowfall_24hr": 0.2,
      "snowfall_48hr": 0.2,
      "snowfall_7day": 3,
      "forecast_text": "0.2\" expected in next 24 hours",
      "last_updated": "2025-12-27T06:41:36.548Z"
    },
    {
      "name": "Stratton",
      "lat": 43.1133,
      "lng": -72.9083,
      "snowfall_24hr": 0.7,
      "snowfall_48hr": 0.7,
      "snowfall_7day": 2.8,
      "forecast_text": "0.7\" expected in next 24 hours",
      "last_updated": "2025-12-27T06:41:36.751Z"
    },
    {
      "name": "Okemo",
      "lat": 43.4017,
      "lng": -72.7167,
      "snowfall_24hr": 0.4,
      "snowfall_48hr": 0.4,
      "snowfall_7day": 2.8,
      "forecast_text": "0.4\" expected in next 24 hours",
      "last_updated": "2025-12-27T06:41:36.956Z"
    },
    {
      "name": "Jay Peak",
      "lat": 44.9378,
      "lng": -72.5036,
      "snowfall_24hr": 0,
      "snowfall_48hr": 0,
      "snowfall_7day": 6.1,
      "forecast_text": "6.1\" expected in next 7 days",
      "last_updated": "2025-12-27T06:41:37.159Z"
    },
    {
      "name": "Smugglers' Notch",
      "lat": 44.5458,
      "lng": -72.7872,
      "snowfall_24hr": 0.3,
      "snowfall_48hr": 0.3,
      "snowfall_7day": 5.8,
      "forecast_text": "0.3\" expected in next 24 hours",
      "last_updated": "2025-12-27T06:41:37.360Z"
    },
    {
      "name": "Loon Mountain",
      "lat": 44.0369,
      "lng": -71.6206,
      "snowfall_24hr": 0.2,
      "snowfall_48hr": 0.2,
      "snowfall_7day": 4.3,
      "forecast_text": "0.2\" expected in next 24 hours",
      "last_updated": "2025-12-27T06:41:37.563Z"
    },
    {
      "name": "Cannon Mountain",
      "lat": 44.1572,
      "lng": -71.6978,
      "snowfall_24hr": 0,
      "snowfall_48hr": 0,
      "snowfall_7day": 4,
      "forecast_text": "0.0\" expected in next 24 hours",
      "last_updated": "2025-12-27T06:41:37.764Z"
    },
    {
      "name": "Wildcat Mountain",
      "lat": 44.2636,
      "lng": -71.2328,
      "snowfall_24hr": 0,
      "snowfall_48hr": 0,
      "snowfall_7day": 3.8,
      "forecast_text": "3.8\" expected in next 7 days",
      "last_updated": "2025-12-27T06:41:37.967Z"
    },
    {
      "name": "Bretton Woods",
      "lat": 44.2633,
      "lng": -71.4439,
      "snowfall_24hr": 0,
      "snowfall_48hr": 0,
      "snowfall_7day": 3.9,
      "forecast_text": "3.9\" expected in next 7 days",
      "last_updated": "2025-12-27T06:41:38.169Z"
    },
    {
      "name": "Snowbasin",
      "lat": 41.2156,
      "lng": -111.8567,
      "snowfall_24hr": 0.1,
      "snowfall_48hr": 0.9,
      "snowfall_7day": 0.9,
      "forecast_text": "0.1\" expected in next 24 hours",
      "last_updated": "2025-12-27T06:41:38.371Z"
    },
    {
      "name": "Powder Mountain",
      "lat": 41.3814,
      "lng": -111.7806,
      "snowfall_24hr": 1.4,
      "snowfall_48hr": 1.9,
      "snowfall_7day": 2.3,
      "forecast_text": "1.4\" expected in next 24 hours",
      "last_updated": "2025-12-27T06:41:38.572Z"
    },
    {
      "name": "Solitude",
      "lat": 40.62,
      "lng": -111.5917,
      "snowfall_24hr": 0.1,
      "snowfall_48hr": 2.3,
      "snowfall_7day": 3.4,
      "forecast_text": "0.1\" expected in next 24 hours",
      "last_updated": "2025-12-27T06:41:38.774Z"
    },
    {
      "name": "Brighton",
      "lat": 40.5981,
      "lng": -111.5831,
      "snowfall_24hr": 0.2,
      "snowfall_48hr": 2.2,
      "snowfall_7day": 3.3,
      "forecast_text": "0.2\" expected in next 24 hours",
      "last_updated": "2025-12-27T06:41:38.975Z"
    },
    {
      "name": "Snowmass",
      "lat": 39.2133,
      "lng": -106.9378,
      "snowfall_24hr": 0,
      "snowfall_48hr": 1.5,
      "snowfall_7day": 1.6,
      "forecast_text": "1.5\" expected in next 48 hours",
      "last_updated": "2025-12-27T06:41:39.178Z"
    },
    {
      "name": "Aspen Highlands",
      "lat": 39.1825,
      "lng": -106.8553,
      "snowfall_24hr": 0,
      "snowfall_48hr": 1.6,
      "snowfall_7day": 1.7,
      "forecast_text": "1.6\" expected in next 48 hours",
      "last_updated": "2025-12-27T06:41:39.379Z"
    },
    {
      "name": "Buttermilk",
      "lat": 39.2078,
      "lng": -106.8608,
      "snowfall_24hr": 0,
      "snowfall_48hr": 1.5,
      "snowfall_7day": 1.6,
      "forecast_text": "1.5\" expected in next 48 hours",
      "last_updated": "2025-12-27T06:41:39.580Z"
    },
    {
      "name": "Beaver Creek",
      "lat": 39.6042,
      "lng": -106.5164,
      "snowfall_24hr": 0,
      "snowfall_48hr": 2.2,
      "snowfall_7day": 2.3,
      "forecast_text": "2.2\" expected in next 48 hours",
      "last_updated": "2025-12-27T06:41:39.781Z"
    },
    {
      "name": "Purgatory",
      "lat": 37.6303,
      "lng": -107.8139,
      "snowfall_24hr": 0,
      "snowfall_48hr": 0.1,
      "snowfall_7day": 0.2,
      "forecast_text": "0.1\" expected in next 48 hours",
      "last_updated": "2025-12-27T06:41:39.983Z"
    },
    {
      "name": "Wolf Creek",
      "lat": 37.4722,
      "lng": -106.7931,
      "snowfall_24hr": 0,
      "snowfall_48hr": 1.8,
      "snowfall_7day": 1.8,
      "forecast_text": "1.8\" expected in next 48 hours",
      "last_updated": "2025-12-27T06:41:40.184Z"
    },
    {
      "name": "Monarch Mountain",
      "lat": 38.5117,
      "lng": -106.3317,
      "snowfall_24hr": 0,
      "snowfall_48hr": 0.4,
      "snowfall_7day": 0.6,
      "forecast_text": "0.4\" expected in next 48 hours",
      "last_updated": "2025-12-27T06:41:40.388Z"
    },
    {
      "name": "Eldora",
      "lat": 39.9372,
      "lng": -105.5828,
      "snowfall_24hr": 0,
      "snowfall_48hr": 1.4,
      "snowfall_7day": 1.9,
      "forecast_text": "1.4\" expected in next 48 hours",
      "last_updated": "2025-12-27T06:41:40.589Z"
    },
    {
      "name": "Grand Targhee",
      "lat": 43.7886,
      "lng": -110.9586,
      "snowfall_24hr": 1.8,
      "snowfall_48hr": 3.5,
      "snowfall_7day": 3.5,
      "forecast_text": "1.8\" expected in next 24 hours",
      "last_updated": "2025-12-27T06:41:40.790Z"
    },
    {
      "name": "Snow King",
      "lat": 43.4783,
      "lng": -110.7628,
      "snowfall_24hr": 0.9,
      "snowfall_48hr": 1.9,
      "snowfall_7day": 1.9,
      "forecast_text": "0.9\" expected in next 24 hours",
      "last_updated": "2025-12-27T06:41:40.992Z"
    },
    {
      "name": "Bridger Bowl",
      "lat": 45.8167,
      "lng": -110.8969,
      "snowfall_24hr": 0,
      "snowfall_48hr": 0.6,
      "snowfall_7day": 0.6,
      "forecast_text": "0.6\" expected in next 48 hours",
      "last_updated": "2025-12-27T06:41:41.195Z"
    },
    {
      "name": "Big Mountain",
      "lat": 48.4928,
      "lng": -114.3483,
      "snowfall_24hr": 1.7,
      "snowfall_48hr": 2.5,
      "snowfall_7day": 2.5,
      "forecast_text": "1.7\" expected in next 24 hours",
      "last_updated": "2025-12-27T06:41:41.396Z"
    },
    {
      "name": "Snowbowl",
      "lat": 46.9417,
      "lng": -113.9492,
      "snowfall_24hr": 0.1,
      "snowfall_48hr": 0.4,
      "snowfall_7day": 0.4,
      "forecast_text": "0.1\" expected in next 24 hours",
      "last_updated": "2025-12-27T06:41:41.600Z"
    },
    {
      "name": "Bogus Basin",
      "lat": 43.7725,
      "lng": -116.0939,
      "snowfall_24hr": 0,
      "snowfall_48hr": 1,
      "snowfall_7day": 1,
      "forecast_text": "0.0\" expected in next 24 hours",
      "last_updated": "2025-12-27T06:41:41.802Z"
    },
    {
      "name": "Tamarack",
      "lat": 44.6922,
      "lng": -116.1344,
      "snowfall_24hr": 3.1,
      "snowfall_48hr": 3.6,
      "snowfall_7day": 3.6,
      "forecast_text": "3.1\" expected in next 24 hours",
      "last_updated": "2025-12-27T06:41:42.003Z"
    },
    {
      "name": "Silver Mountain",
      "lat": 47.6764,
      "lng": -116.0703,
      "snowfall_24hr": 1.2,
      "snowfall_48hr": 1.7,
      "snowfall_7day": 1.7,
      "forecast_text": "1.2\" expected in next 24 hours",
      "last_updated": "2025-12-27T06:41:42.205Z"
    },
    {
      "name": "Mt. Hood Meadows",
      "lat": 45.3319,
      "lng": -121.6653,
      "snowfall_24hr": 1.9,
      "snowfall_48hr": 2.1,
      "snowfall_7day": 2.1,
      "forecast_text": "1.9\" expected in next 24 hours",
      "last_updated": "2025-12-27T06:41:42.407Z"
    },
    {
      "name": "Timberline",
      "lat": 45.3306,
      "lng": -121.7108,
      "snowfall_24hr": 3,
      "snowfall_48hr": 3.8,
      "snowfall_7day": 3.8,
      "forecast_text": "3.0\" expected in next 24 hours",
      "last_updated": "2025-12-27T06:41:42.609Z"
    },
    {
      "name": "Willamette Pass",
      "lat": 43.6006,
      "lng": -122.0336,
      "snowfall_24hr": 0.9,
      "snowfall_48hr": 1.2,
      "snowfall_7day": 1.2,
      "forecast_text": "0.9\" expected in next 24 hours",
      "last_updated": "2025-12-27T06:41:42.810Z"
    },
    {
      "name": "Mission Ridge",
      "lat": 47.2917,
      "lng": -120.3997,
      "snowfall_24hr": 0.9,
      "snowfall_48hr": 1,
      "snowfall_7day": 1,
      "forecast_text": "0.9\" expected in next 24 hours",
      "last_updated": "2025-12-27T06:41:43.016Z"
    },
    {
      "name": "Snoqualmie",
      "lat": 47.4219,
      "lng": -121.4136,
      "snowfall_24hr": 2.5,
      "snowfall_48hr": 3.3,
      "snowfall_7day": 3.3,
      "forecast_text": "2.5\" expected in next 24 hours",
      "last_updated": "2025-12-27T06:41:43.218Z"
    },
    {
      "name": "Mt. Spokane",
      "lat": 47.9208,
      "lng": -117.0856,
      "snowfall_24hr": 2,
      "snowfall_48hr": 2,
      "snowfall_7day": 2,
      "forecast_text": "2.0\" expected in next 24 hours",
      "last_updated": "2025-12-27T06:41:43.420Z"
    },
    {
      "name": "White Pass",
      "lat": 46.6394,
      "lng": -121.3908,
      "snowfall_24hr": 2.4,
      "snowfall_48hr": 2.5,
      "snowfall_7day": 2.5,
      "forecast_text": "2.4\" expected in next 24 hours",
      "last_updated": "2025-12-27T06:41:43.622Z"
    },
    {
      "name": "49 Degrees North",
      "lat": 48.7511,
      "lng": -117.6369,
      "snowfall_24hr": 0.1,
      "snowfall_48hr": 0.1,
      "snowfall_7day": 0.1,
      "forecast_text": "0.1\" expected in next 24 hours",
      "last_updated": "2025-12-27T06:41:43.824Z"
    },
    {
      "name": "Red Mountain",
      "lat": 49.0917,
      "lng": -117.8233,
      "snowfall_24hr": 0.7,
      "snowfall_48hr": 0.7,
      "snowfall_7day": 0.7,
      "forecast_text": "0.7\" expected in next 24 hours",
      "last_updated": "2025-12-27T06:41:44.026Z"
    },
    {
      "name": "Whitewater",
      "lat": 49.5394,
      "lng": -117.2717,
      "snowfall_24hr": 0.3,
      "snowfall_48hr": 0.3,
      "snowfall_7day": 0.3,
      "forecast_text": "0.3\" expected in next 24 hours",
      "last_updated": "2025-12-27T06:41:44.530Z"
    },
    {
      "name": "Panorama",
      "lat": 50.8036,
      "lng": -116.0533,
      "snowfall_24hr": 0.4,
      "snowfall_48hr": 0.9,
      "snowfall_7day": 0.9,
      "forecast_text": "0.4\" expected in next 24 hours",
      "last_updated": "2025-12-27T06:41:45.036Z"
    },
    {
      "name": "Marmot Basin",
      "lat": 52.8236,
      "lng": -118.0747,
      "snowfall_24hr": 1.8,
      "snowfall_48hr": 1.8,
      "snowfall_7day": 2,
      "forecast_text": "1.8\" expected in next 24 hours",
      "last_updated": "2025-12-27T06:41:45.239Z"
    },
    {
      "name": "Nakiska",
      "lat": 50.98,
      "lng": -115.0733,
      "snowfall_24hr": 0.7,
      "snowfall_48hr": 1.3,
      "snowfall_7day": 1.3,
      "forecast_text": "0.7\" expected in next 24 hours",
      "last_updated": "2025-12-27T06:41:45.440Z"
    },
    {
      "name": "Castle Mountain",
      "lat": 49.4058,
      "lng": -114.5169,
      "snowfall_24hr": 0.1,
      "snowfall_48hr": 1.3,
      "snowfall_7day": 1.3,
      "forecast_text": "0.1\" expected in next 24 hours",
      "last_updated": "2025-12-27T06:41:45.642Z"
    },
    {
      "name": "Norquay",
      "lat": 51.1967,
      "lng": -115.5531,
      "snowfall_24hr": 0.2,
      "snowfall_48hr": 1,
      "snowfall_7day": 1,
      "forecast_text": "0.2\" expected in next 24 hours",
      "last_updated": "2025-12-27T06:41:45.842Z"
    },
    {
      "name": "Le Massif",
      "lat": 47.3136,
      "lng": -70.6358,
      "snowfall_24hr": 0,
      "snowfall_48hr": 0,
      "snowfall_7day": 3.9,
      "forecast_text": "3.9\" expected in next 7 days",
      "last_updated": "2025-12-27T06:41:46.045Z"
    },
    {
      "name": "Calabogie",
      "lat": 45.2906,
      "lng": -76.7019,
      "snowfall_24hr": 0.2,
      "snowfall_48hr": 0.3,
      "snowfall_7day": 2,
      "forecast_text": "0.2\" expected in next 24 hours",
      "last_updated": "2025-12-27T06:41:46.247Z"
    },
    {
      "name": "Sierra-at-Tahoe",
      "lat": 38.7986,
      "lng": -120.0828,
      "snowfall_24hr": 4.6,
      "snowfall_48hr": 4.9,
      "snowfall_7day": 4.9,
      "forecast_text": "4.6\" expected in next 24 hours",
      "last_updated": "2025-12-27T06:41:46.449Z"
    },
    {
      "name": "Kirkwood",
      "lat": 38.6867,
      "lng": -120.0656,
      "snowfall_24hr": 5.8,
      "snowfall_48hr": 5.8,
      "snowfall_7day": 5.9,
      "forecast_text": "5.8\" expected in next 24 hours",
      "last_updated": "2025-12-27T06:41:46.650Z"
    },
    {
      "name": "Northstar",
      "lat": 39.2733,
      "lng": -120.1211,
      "snowfall_24hr": 4.4,
      "snowfall_48hr": 4.5,
      "snowfall_7day": 4.5,
      "forecast_text": "4.4\" expected in next 24 hours",
      "last_updated": "2025-12-27T06:41:46.852Z"
    },
    {
      "name": "Homewood",
      "lat": 39.0833,
      "lng": -120.1667,
      "snowfall_24hr": 6.4,
      "snowfall_48hr": 6.9,
      "snowfall_7day": 6.9,
      "forecast_text": "6.4\" expected in next 24 hours",
      "last_updated": "2025-12-27T06:41:47.053Z"
    },
    {
      "name": "Mt. Rose",
      "lat": 39.3397,
      "lng": -119.8894,
      "snowfall_24hr": 3.9,
      "snowfall_48hr": 3.9,
      "snowfall_7day": 3.9,
      "forecast_text": "3.9\" expected in next 24 hours",
      "last_updated": "2025-12-27T06:41:47.255Z"
    },
    {
      "name": "Diamond Peak",
      "lat": 39.2525,
      "lng": -119.9169,
      "snowfall_24hr": 3.9,
      "snowfall_48hr": 3.9,
      "snowfall_7day": 3.9,
      "forecast_text": "3.9\" expected in next 24 hours",
      "last_updated": "2025-12-27T06:41:47.763Z"
    },
    {
      "name": "June Mountain",
      "lat": 37.7853,
      "lng": -119.0781,
      "snowfall_24hr": 3.7,
      "snowfall_48hr": 3.7,
      "snowfall_7day": 3.7,
      "forecast_text": "3.7\" expected in next 24 hours",
      "last_updated": "2025-12-27T06:41:47.963Z"
    },
    {
      "name": "Bear Mountain",
      "lat": 34.235,
      "lng": -116.865,
      "snowfall_24hr": 1.5,
      "snowfall_48hr": 1.7,
      "snowfall_7day": 1.7,
      "forecast_text": "1.5\" expected in next 24 hours",
      "last_updated": "2025-12-27T06:41:48.165Z"
    },
    {
      "name": "Snow Summit",
      "lat": 34.2306,
      "lng": -116.8886,
      "snowfall_24hr": 1.8,
      "snowfall_48hr": 1.9,
      "snowfall_7day": 1.9,
      "forecast_text": "1.8\" expected in next 24 hours",
      "last_updated": "2025-12-27T06:41:48.367Z"
    },
    {
      "name": "Mountain High",
      "lat": 34.3811,
      "lng": -117.6881,
      "snowfall_24hr": 5.2,
      "snowfall_48hr": 5.2,
      "snowfall_7day": 5.2,
      "forecast_text": "5.2\" expected in next 24 hours",
      "last_updated": "2025-12-27T06:41:48.569Z"
    },
    {
      "name": "Ski Santa Fe",
      "lat": 35.7869,
      "lng": -105.7961,
      "snowfall_24hr": 0,
      "snowfall_48hr": 3.9,
      "snowfall_7day": 4.2,
      "forecast_text": "3.9\" expected in next 48 hours",
      "last_updated": "2025-12-27T06:41:48.769Z"
    },
    {
      "name": "Angel Fire",
      "lat": 36.3975,
      "lng": -105.2886,
      "snowfall_24hr": 0,
      "snowfall_48hr": 0,
      "snowfall_7day": 0,
      "forecast_text": "0.0\" expected in next 48 hours",
      "last_updated": "2025-12-27T06:41:48.971Z"
    },
    {
      "name": "Whiteface Mountain",
      "lat": 44.3659,
      "lng": -73.9024,
      "snowfall_24hr": 0.1,
      "snowfall_48hr": 0.1,
      "snowfall_7day": 2,
      "forecast_text": "0.1\" expected in next 24 hours",
      "last_updated": "2025-12-27T06:41:49.176Z"
    },
    {
      "name": "Bristol Mountain",
      "lat": 42.7455,
      "lng": -77.4016,
      "snowfall_24hr": 0,
      "snowfall_48hr": 0,
      "snowfall_7day": 1.6,
      "forecast_text": "1.6\" expected in next 7 days",
      "last_updated": "2025-12-27T06:41:49.675Z"
    },
    {
      "name": "Revelstoke Mountain Resort",
      "lat": 50.9981,
      "lng": -118.1958,
      "snowfall_24hr": 2.7,
      "snowfall_48hr": 2.7,
      "snowfall_7day": 3.1,
      "forecast_text": "2.7\" expected in next 24 hours",
      "last_updated": "2025-12-27T06:41:49.876Z"
    },
    {
      "name": "Big White Ski Resort",
      "lat": 49.7308,
      "lng": -118.9357,
      "snowfall_24hr": 1.3,
      "snowfall_48hr": 1.3,
      "snowfall_7day": 1.5,
      "forecast_text": "1.3\" expected in next 24 hours",
      "last_updated": "2025-12-27T06:41:50.077Z"
    },
    {
      "name": "Sun Peaks Resort",
      "lat": 50.8847,
      "lng": -119.8892,
      "snowfall_24hr": 0.1,
      "snowfall_48hr": 0.1,
      "snowfall_7day": 0.2,
      "forecast_text": "0.1\" expected in next 24 hours",
      "last_updated": "2025-12-27T06:41:50.278Z"
    },
    {
      "name": "Fernie Alpine Resort",
      "lat": 49.4651,
      "lng": -115.0764,
      "snowfall_24hr": 0.1,
      "snowfall_48hr": 0.9,
      "snowfall_7day": 0.9,
      "forecast_text": "0.1\" expected in next 24 hours",
      "last_updated": "2025-12-27T06:41:50.480Z"
    },
    {
      "name": "Kicking Horse Mountain Resort",
      "lat": 51.2983,
      "lng": -116.955,
      "snowfall_24hr": 0.4,
      "snowfall_48hr": 0.4,
      "snowfall_7day": 0.4,
      "forecast_text": "0.4\" expected in next 24 hours",
      "last_updated": "2025-12-27T06:41:50.681Z"
    },
    {
      "name": "Panorama Mountain Resort",
      "lat": 50.9806,
      "lng": -116.0972,
      "snowfall_24hr": 0.2,
      "snowfall_48hr": 0.5,
      "snowfall_7day": 0.5,
      "forecast_text": "0.2\" expected in next 24 hours",
      "last_updated": "2025-12-27T06:41:50.882Z"
    },
    {
      "name": "RED Mountain Resort",
      "lat": 49.0878,
      "lng": -117.8197,
      "snowfall_24hr": 0.5,
      "snowfall_48hr": 0.5,
      "snowfall_7day": 0.5,
      "forecast_text": "0.5\" expected in next 24 hours",
      "last_updated": "2025-12-27T06:41:51.084Z"
    },
    {
      "name": "SilverStar Mountain Resort",
      "lat": 50.4,
      "lng": -119.0833,
      "snowfall_24hr": 1.5,
      "snowfall_48hr": 1.5,
      "snowfall_7day": 1.5,
      "forecast_text": "1.5\" expected in next 24 hours",
      "last_updated": "2025-12-27T06:41:51.287Z"
    },
    {
      "name": "Lake Louise Ski Resort",
      "lat": 51.4254,
      "lng": -116.1773,
      "snowfall_24hr": 0.3,
      "snowfall_48hr": 0.6,
      "snowfall_7day": 0.6,
      "forecast_text": "0.3\" expected in next 24 hours",
      "last_updated": "2025-12-27T06:41:51.489Z"
    },
    {
      "name": "Sunshine Village",
      "lat": 51.1128,
      "lng": -115.7631,
      "snowfall_24hr": 0.2,
      "snowfall_48hr": 1.1,
      "snowfall_7day": 1.1,
      "forecast_text": "0.2\" expected in next 24 hours",
      "last_updated": "2025-12-27T06:41:51.689Z"
    },
    {
      "name": "Mount Norquay",
      "lat": 51.2094,
      "lng": -115.5797,
      "snowfall_24hr": 0.2,
      "snowfall_48hr": 1,
      "snowfall_7day": 1,
      "forecast_text": "0.2\" expected in next 24 hours",
      "last_updated": "2025-12-27T06:41:51.892Z"
    },
    {
      "name": "Nakiska Ski Area",
      "lat": 50.9042,
      "lng": -115.0856,
      "snowfall_24hr": 0.4,
      "snowfall_48hr": 1.2,
      "snowfall_7day": 1.2,
      "forecast_text": "0.4\" expected in next 24 hours",
      "last_updated": "2025-12-27T06:41:52.093Z"
    },
    {
      "name": "Le Massif de Charlevoix",
      "lat": 47.3389,
      "lng": -70.6375,
      "snowfall_24hr": 0,
      "snowfall_48hr": 0,
      "snowfall_7day": 3.5,
      "forecast_text": "3.5\" expected in next 7 days",
      "last_updated": "2025-12-27T06:41:52.295Z"
    },
    {
      "name": "Blue Mountain Resort",
      "lat": 44.5067,
      "lng": -80.3158,
      "snowfall_24hr": 0,
      "snowfall_48hr": 0.4,
      "snowfall_7day": 4.7,
      "forecast_text": "0.4\" expected in next 48 hours",
      "last_updated": "2025-12-27T06:41:52.497Z"
    }
  ]
}