{
  "generated_at": "2025-11-13T18:34:37.636Z",
  "total_resorts": 100,
  "resorts": [
    {
      "name": "Whistler Blackcomb",
      "lat": 50.1163,
      "lng": -122.9574,
      "snowfall_7day": 0,
      "forecast_text": "Data unavailable",
      "last_updated": "2025-11-13T18:29:21.581Z",
      "error": "Point API failed: 404"
    },
    {
      "name": "Vail",
      "lat": 39.6403,
      "lng": -106.3742,
      "snowfall_7day": 0,
      "forecast_text": "Sunny, with a high near 55. West wind around 5 mph, with gusts as high as 25 mph.",
      "last_updated": "2025-11-13T18:29:26.485Z"
    },
    {
      "name": "Park City",
      "lat": 40.6514,
      "lng": -111.5079,
      "snowfall_7day": 0,
      "forecast_text": "Sunny. High near 61, with temperatures falling to around 55 in the afternoon. South wind around 10 mph.",
      "last_updated": "2025-11-13T18:29:26.978Z"
    },
    {
      "name": "Breckenridge",
      "lat": 39.4817,
      "lng": -106.0384,
      "snowfall_7day": 1.5,
      "forecast_text": "Sunny. High near 54, with temperatures falling to around 46 in the afternoon. West wind 7 to 12 mph, with gusts as high as 18 mph.",
      "last_updated": "2025-11-13T18:29:27.885Z"
    },
    {
      "name": "Heavenly",
      "lat": 38.935,
      "lng": -119.9403,
      "snowfall_7day": 1.5,
      "forecast_text": "Rain likely. Mostly cloudy, with a high near 50. South wind 15 to 20 mph, with gusts as high as 35 mph. Chance of precipitation is 60%. New rainfall amounts between a quarter and half of an inch possible.",
      "last_updated": "2025-11-13T18:29:29.061Z"
    },
    {
      "name": "Aspen Snowmass",
      "lat": 39.1911,
      "lng": -106.8175,
      "snowfall_7day": 0,
      "forecast_text": "Sunny, with a high near 60. West northwest wind around 5 mph.",
      "last_updated": "2025-11-13T18:29:34.311Z"
    },
    {
      "name": "Jackson Hole",
      "lat": 43.5875,
      "lng": -110.8278,
      "snowfall_7day": 0,
      "forecast_text": "Sunny. High near 56, with temperatures falling to around 50 in the afternoon. South southwest wind 8 to 12 mph, with gusts as high as 22 mph.",
      "last_updated": "2025-11-13T18:29:35.399Z"
    },
    {
      "name": "Banff Sunshine",
      "lat": 51.1158,
      "lng": -115.7631,
      "snowfall_7day": 0,
      "forecast_text": "Data unavailable",
      "last_updated": "2025-11-13T18:29:43.512Z",
      "error": "Point API failed: 404"
    },
    {
      "name": "Lake Louise",
      "lat": 51.4254,
      "lng": -116.1773,
      "snowfall_7day": 0,
      "forecast_text": "Data unavailable",
      "last_updated": "2025-11-13T18:29:43.850Z",
      "error": "Point API failed: 404"
    },
    {
      "name": "Big Sky",
      "lat": 45.2846,
      "lng": -111.4008,
      "snowfall_7day": 3,
      "forecast_text": "Sunny. High near 47, with temperatures falling to around 44 in the afternoon. South southwest wind 12 to 16 mph, with gusts as high as 36 mph.",
      "last_updated": "2025-11-13T18:29:46.602Z"
    },
    {
      "name": "Steamboat",
      "lat": 40.458,
      "lng": -106.8047,
      "snowfall_7day": 0,
      "forecast_text": "Sunny, with a high near 60. West northwest wind 5 to 10 mph.",
      "last_updated": "2025-11-13T18:29:49.590Z"
    },
    {
      "name": "Mammoth Mountain",
      "lat": 37.6308,
      "lng": -119.0326,
      "snowfall_7day": 43,
      "forecast_text": "Rain and snow likely. Mostly cloudy. High near 37, with temperatures falling to around 33 in the afternoon. Wind chill values as low as 17. South southwest wind 35 to 40 mph, with gusts as high as 60 mph. Chance of precipitation is 60%. New snow accumulation of less than one inch possible.",
      "last_updated": "2025-11-13T18:29:51.464Z"
    },
    {
      "name": "Squaw Valley",
      "lat": 39.197,
      "lng": -120.2356,
      "snowfall_7day": 7.5,
      "forecast_text": "Rain. Cloudy, with a high near 51. South wind 15 to 20 mph, with gusts as high as 30 mph. Chance of precipitation is 90%. New rainfall amounts between 1 and 2 inches possible.",
      "last_updated": "2025-11-13T18:29:52.398Z"
    },
    {
      "name": "Telluride",
      "lat": 37.9375,
      "lng": -107.8123,
      "snowfall_7day": 5,
      "forecast_text": "Mostly sunny, with a high near 61. West wind 0 to 5 mph.",
      "last_updated": "2025-11-13T18:29:53.804Z"
    },
    {
      "name": "Sun Valley",
      "lat": 43.6966,
      "lng": -114.3553,
      "snowfall_7day": 0,
      "forecast_text": "Sunny. High near 56, with temperatures falling to around 51 in the afternoon. South southeast wind around 8 mph.",
      "last_updated": "2025-11-13T18:29:55.045Z"
    },
    {
      "name": "Deer Valley",
      "lat": 40.6374,
      "lng": -111.4783,
      "snowfall_7day": 0,
      "forecast_text": "Sunny. High near 57, with temperatures falling to around 52 in the afternoon. South wind around 12 mph.",
      "last_updated": "2025-11-13T18:29:57.434Z"
    },
    {
      "name": "Killington",
      "lat": 43.6046,
      "lng": -72.822,
      "snowfall_7day": 0,
      "forecast_text": "A chance of snow showers. Cloudy, with a high near 27. Northwest wind 14 to 22 mph. Chance of precipitation is 50%. New snow accumulation of less than one inch possible.",
      "last_updated": "2025-11-13T18:30:18.489Z"
    },
    {
      "name": "Stowe",
      "lat": 44.5303,
      "lng": -72.7817,
      "snowfall_7day": 17.5,
      "forecast_text": "Snow showers. Cloudy, with a high near 31. Northwest wind 10 to 14 mph. Chance of precipitation is 90%. New snow accumulation of 1 to 3 inches possible.",
      "last_updated": "2025-11-13T18:30:20.056Z"
    },
    {
      "name": "Alta",
      "lat": 40.5885,
      "lng": -111.6376,
      "snowfall_7day": 22,
      "forecast_text": "Sunny. High near 47, with temperatures falling to around 44 in the afternoon. South southwest wind around 10 mph.",
      "last_updated": "2025-11-13T18:30:26.393Z"
    },
    {
      "name": "Snowbird",
      "lat": 40.5803,
      "lng": -111.6573,
      "snowfall_7day": 20,
      "forecast_text": "Sunny. High near 54, with temperatures falling to around 49 in the afternoon. South southwest wind around 10 mph.",
      "last_updated": "2025-11-13T18:30:27.550Z"
    },
    {
      "name": "Taos",
      "lat": 36.5924,
      "lng": -105.4467,
      "snowfall_7day": 3.5,
      "forecast_text": "Mostly cloudy. High near 50, with temperatures falling to around 40 in the afternoon. West wind 5 to 10 mph.",
      "last_updated": "2025-11-13T18:30:31.976Z"
    },
    {
      "name": "Copper Mountain",
      "lat": 39.5022,
      "lng": -106.1506,
      "snowfall_7day": 2,
      "forecast_text": "Sunny. High near 52, with temperatures falling to around 43 in the afternoon. West wind 9 to 13 mph, with gusts as high as 21 mph.",
      "last_updated": "2025-11-13T18:30:39.075Z"
    },
    {
      "name": "Winter Park",
      "lat": 39.8868,
      "lng": -105.7625,
      "snowfall_7day": 1.5,
      "forecast_text": "Sunny. High near 51, with temperatures falling to around 45 in the afternoon. West wind 10 to 15 mph, with gusts as high as 24 mph.",
      "last_updated": "2025-11-13T18:30:40.925Z"
    },
    {
      "name": "Keystone",
      "lat": 39.605,
      "lng": -105.9347,
      "snowfall_7day": 1.5,
      "forecast_text": "Sunny. High near 54, with temperatures falling to around 46 in the afternoon. West wind 8 to 13 mph, with gusts as high as 21 mph.",
      "last_updated": "2025-11-13T18:30:44.726Z"
    },
    {
      "name": "Arapahoe Basin",
      "lat": 39.6426,
      "lng": -105.8717,
      "snowfall_7day": 6,
      "forecast_text": "Sunny. High near 47, with temperatures falling to around 42 in the afternoon. West wind 12 to 16 mph, with gusts as high as 25 mph.",
      "last_updated": "2025-11-13T18:30:58.190Z"
    },
    {
      "name": "Crested Butte",
      "lat": 38.8997,
      "lng": -106.9653,
      "snowfall_7day": 1.5,
      "forecast_text": "Sunny, with a high near 50. West northwest wind 5 to 10 mph.",
      "last_updated": "2025-11-13T18:31:00.119Z"
    },
    {
      "name": "Loveland",
      "lat": 39.6803,
      "lng": -105.8978,
      "snowfall_7day": 6,
      "forecast_text": "Sunny. High near 39, with temperatures falling to around 35 in the afternoon. West wind 12 to 16 mph, with gusts as high as 26 mph.",
      "last_updated": "2025-11-13T18:31:01.033Z"
    },
    {
      "name": "Mt. Bachelor",
      "lat": 43.979,
      "lng": -121.688,
      "snowfall_7day": 9,
      "forecast_text": "Rain. Cloudy. High near 44, with temperatures falling to around 41 in the afternoon. South wind 12 to 18 mph, with gusts as high as 30 mph. Chance of precipitation is 80%. New rainfall amounts between a tenth and quarter of an inch possible.",
      "last_updated": "2025-11-13T18:31:02.536Z"
    },
    {
      "name": "Crystal Mountain",
      "lat": 46.9358,
      "lng": -121.4742,
      "snowfall_7day": 12.5,
      "forecast_text": "Rain. Cloudy. High near 44, with temperatures falling to around 41 in the afternoon. Southwest wind 7 to 12 mph, with gusts as high as 24 mph. Chance of precipitation is 100%. New rainfall amounts between a quarter and half of an inch possible.",
      "last_updated": "2025-11-13T18:31:03.919Z"
    },
    {
      "name": "Stevens Pass",
      "lat": 47.7453,
      "lng": -121.0892,
      "snowfall_7day": 7.5,
      "forecast_text": "Rain. Cloudy, with a high near 44. Southwest wind around 6 mph. Chance of precipitation is 100%. New rainfall amounts between three quarters and one inch possible.",
      "last_updated": "2025-11-13T18:31:04.876Z"
    },
    {
      "name": "Mt. Baker",
      "lat": 48.8597,
      "lng": -121.6686,
      "snowfall_7day": 15,
      "forecast_text": "Rain before 1pm, then rain and snow between 1pm and 5pm, then rain and snow likely. Cloudy. High near 44, with temperatures falling to around 39 in the afternoon. Southwest wind around 12 mph, with gusts as high as 23 mph. Chance of precipitation is 100%. New rainfall amounts between three quarters and one inch possible.",
      "last_updated": "2025-11-13T18:31:07.158Z"
    },
    {
      "name": "Schweitzer",
      "lat": 48.3642,
      "lng": -116.6228,
      "snowfall_7day": 5,
      "forecast_text": "Rain. Cloudy, with a high near 42. Southwest wind 7 to 14 mph, with gusts as high as 24 mph. Chance of precipitation is 100%. New rainfall amounts between three quarters and one inch possible.",
      "last_updated": "2025-11-13T18:31:10.048Z"
    },
    {
      "name": "Sun Peaks",
      "lat": 50.8817,
      "lng": -119.8847,
      "snowfall_7day": 0,
      "forecast_text": "Data unavailable",
      "last_updated": "2025-11-13T18:31:10.326Z",
      "error": "Point API failed: 404"
    },
    {
      "name": "Revelstoke",
      "lat": 50.9981,
      "lng": -118.1956,
      "snowfall_7day": 0,
      "forecast_text": "Data unavailable",
      "last_updated": "2025-11-13T18:31:11.779Z",
      "error": "Point API failed: 404"
    },
    {
      "name": "Fernie",
      "lat": 49.4653,
      "lng": -115.0636,
      "snowfall_7day": 0,
      "forecast_text": "Data unavailable",
      "last_updated": "2025-11-13T18:31:13.057Z",
      "error": "Point API failed: 404"
    },
    {
      "name": "Big White",
      "lat": 49.7311,
      "lng": -118.935,
      "snowfall_7day": 0,
      "forecast_text": "Data unavailable",
      "last_updated": "2025-11-13T18:31:13.333Z",
      "error": "Point API failed: 404"
    },
    {
      "name": "Kicking Horse",
      "lat": 51.2514,
      "lng": -117.0492,
      "snowfall_7day": 0,
      "forecast_text": "Data unavailable",
      "last_updated": "2025-11-13T18:31:13.653Z",
      "error": "Point API failed: 404"
    },
    {
      "name": "Mont Tremblant",
      "lat": 46.2094,
      "lng": -74.5847,
      "snowfall_7day": 0,
      "forecast_text": "Data unavailable",
      "last_updated": "2025-11-13T18:31:13.959Z",
      "error": "Point API failed: 404"
    },
    {
      "name": "Blue Mountain",
      "lat": 44.5075,
      "lng": -80.3231,
      "snowfall_7day": 0,
      "forecast_text": "Data unavailable",
      "last_updated": "2025-11-13T18:31:23.966Z",
      "error": "Point API failed: 404"
    },
    {
      "name": "Sugarloaf",
      "lat": 45.0314,
      "lng": -70.3139,
      "snowfall_7day": 5,
      "forecast_text": "A chance of snow showers. Cloudy, with a high near 30. Northwest wind around 5 mph. Chance of precipitation is 40%. New snow accumulation of less than half an inch possible.",
      "last_updated": "2025-11-13T18:31:35.071Z"
    },
    {
      "name": "Sunday River",
      "lat": 44.4697,
      "lng": -70.8561,
      "snowfall_7day": 3,
      "forecast_text": "Rain and snow showers likely. Cloudy, with a high near 37. Northwest wind around 5 mph. Chance of precipitation is 60%. New snow accumulation of less than half an inch possible.",
      "last_updated": "2025-11-13T18:31:42.858Z"
    },
    {
      "name": "Sugarbush",
      "lat": 44.135,
      "lng": -72.9017,
      "snowfall_7day": 3.5,
      "forecast_text": "Snow showers likely. Mostly cloudy, with a high near 28. Northwest wind 10 to 20 mph. Chance of precipitation is 70%. New snow accumulation of 1 to 2 inches possible.",
      "last_updated": "2025-11-13T18:31:46.003Z"
    },
    {
      "name": "Stratton",
      "lat": 43.1133,
      "lng": -72.9083,
      "snowfall_7day": 0,
      "forecast_text": "Scattered rain showers before 3pm, then isolated rain and snow showers between 3pm and 4pm. Mostly cloudy, with a high near 37. Northwest wind around 10 mph, with gusts as high as 22 mph. Chance of precipitation is 50%. New rainfall amounts less than a tenth of an inch possible.",
      "last_updated": "2025-11-13T18:31:47.541Z"
    },
    {
      "name": "Okemo",
      "lat": 43.4017,
      "lng": -72.7167,
      "snowfall_7day": 0,
      "forecast_text": "A chance of snow showers. Mostly cloudy, with a high near 38. Northwest wind around 7 mph. Chance of precipitation is 40%. New rainfall amounts less than a tenth of an inch possible.",
      "last_updated": "2025-11-13T18:31:48.385Z"
    },
    {
      "name": "Jay Peak",
      "lat": 44.9378,
      "lng": -72.5036,
      "snowfall_7day": 11,
      "forecast_text": "Snow showers. Cloudy, with a high near 28. West wind 10 to 16 mph. Chance of precipitation is 90%. New snow accumulation of 1 to 3 inches possible.",
      "last_updated": "2025-11-13T18:31:49.849Z"
    },
    {
      "name": "Smugglers' Notch",
      "lat": 44.5458,
      "lng": -72.7872,
      "snowfall_7day": 19,
      "forecast_text": "Snow showers. Cloudy, with a high near 29. Northwest wind 10 to 14 mph. Chance of precipitation is 90%. New snow accumulation of 1 to 3 inches possible.",
      "last_updated": "2025-11-13T18:32:03.804Z"
    },
    {
      "name": "Loon Mountain",
      "lat": 44.0369,
      "lng": -71.6206,
      "snowfall_7day": 4,
      "forecast_text": "A chance of snow showers. Cloudy, with a high near 32. Northwest wind 5 to 10 mph. Chance of precipitation is 50%. New snow accumulation of less than half an inch possible.",
      "last_updated": "2025-11-13T18:32:13.065Z"
    },
    {
      "name": "Cannon Mountain",
      "lat": 44.1572,
      "lng": -71.6978,
      "snowfall_7day": 15,
      "forecast_text": "Snow showers likely. Cloudy, with a high near 27. Northwest wind 10 to 15 mph, with gusts as high as 25 mph. Chance of precipitation is 60%. New snow accumulation of 1 to 3 inches possible.",
      "last_updated": "2025-11-13T18:32:16.323Z"
    },
    {
      "name": "Wildcat Mountain",
      "lat": 44.2636,
      "lng": -71.2328,
      "snowfall_7day": 4,
      "forecast_text": "Rain and snow showers likely. Cloudy, with a high near 34. Northwest wind around 10 mph. Chance of precipitation is 60%. New snow accumulation of less than half an inch possible.",
      "last_updated": "2025-11-13T18:32:17.715Z"
    },
    {
      "name": "Bretton Woods",
      "lat": 44.2633,
      "lng": -71.4439,
      "snowfall_7day": 10.5,
      "forecast_text": "Snow showers likely. Cloudy, with a high near 34. Northwest wind around 5 mph. Chance of precipitation is 70%. New snow accumulation of 1 to 2 inches possible.",
      "last_updated": "2025-11-13T18:32:19.002Z"
    },
    {
      "name": "Snowbasin",
      "lat": 41.2156,
      "lng": -111.8567,
      "snowfall_7day": 1.5,
      "forecast_text": "Sunny. High near 57, with temperatures falling to around 53 in the afternoon. South southwest wind around 9 mph.",
      "last_updated": "2025-11-13T18:32:24.805Z"
    },
    {
      "name": "Powder Mountain",
      "lat": 41.3814,
      "lng": -111.7806,
      "snowfall_7day": 13.5,
      "forecast_text": "Sunny. High near 47, with temperatures falling to around 44 in the afternoon. South southwest wind around 10 mph.",
      "last_updated": "2025-11-13T18:32:27.199Z"
    },
    {
      "name": "Solitude",
      "lat": 40.62,
      "lng": -111.5917,
      "snowfall_7day": 13.5,
      "forecast_text": "Sunny. High near 51, with temperatures falling to around 48 in the afternoon. South southwest wind around 10 mph.",
      "last_updated": "2025-11-13T18:32:29.500Z"
    },
    {
      "name": "Brighton",
      "lat": 40.5981,
      "lng": -111.5831,
      "snowfall_7day": 14.5,
      "forecast_text": "Sunny. High near 50, with temperatures falling to around 47 in the afternoon. South southwest wind around 10 mph.",
      "last_updated": "2025-11-13T18:32:30.322Z"
    },
    {
      "name": "Snowmass",
      "lat": 39.2133,
      "lng": -106.9378,
      "snowfall_7day": 0,
      "forecast_text": "Sunny, with a high near 56. West northwest wind around 5 mph.",
      "last_updated": "2025-11-13T18:32:31.536Z"
    },
    {
      "name": "Aspen Highlands",
      "lat": 39.1825,
      "lng": -106.8553,
      "snowfall_7day": 0,
      "forecast_text": "Sunny, with a high near 59. West northwest wind around 5 mph.",
      "last_updated": "2025-11-13T18:32:35.113Z"
    },
    {
      "name": "Buttermilk",
      "lat": 39.2078,
      "lng": -106.8608,
      "snowfall_7day": 0,
      "forecast_text": "Sunny, with a high near 61. Northwest wind around 5 mph.",
      "last_updated": "2025-11-13T18:32:35.967Z"
    },
    {
      "name": "Beaver Creek",
      "lat": 39.6042,
      "lng": -106.5164,
      "snowfall_7day": 0,
      "forecast_text": "Sunny, with a high near 55. West wind 5 to 10 mph, with gusts as high as 25 mph.",
      "last_updated": "2025-11-13T18:32:37.348Z"
    },
    {
      "name": "Purgatory",
      "lat": 37.6303,
      "lng": -107.8139,
      "snowfall_7day": 18.5,
      "forecast_text": "Mostly sunny, with a high near 59. Southwest wind 0 to 5 mph.",
      "last_updated": "2025-11-13T18:32:40.012Z"
    },
    {
      "name": "Wolf Creek",
      "lat": 37.4722,
      "lng": -106.7931,
      "snowfall_7day": 25,
      "forecast_text": "Sunny, with a high near 46. Southwest wind 5 to 10 mph.",
      "last_updated": "2025-11-13T18:32:44.286Z"
    },
    {
      "name": "Monarch Mountain",
      "lat": 38.5117,
      "lng": -106.3317,
      "snowfall_7day": 3.5,
      "forecast_text": "Sunny, with a high near 43. West wind 15 to 20 mph.",
      "last_updated": "2025-11-13T18:32:45.927Z"
    },
    {
      "name": "Eldora",
      "lat": 39.9372,
      "lng": -105.5828,
      "snowfall_7day": 1.5,
      "forecast_text": "Sunny. High near 52, with temperatures falling to around 46 in the afternoon. West wind 9 to 17 mph, with gusts as high as 28 mph.",
      "last_updated": "2025-11-13T18:32:46.936Z"
    },
    {
      "name": "Grand Targhee",
      "lat": 43.7886,
      "lng": -110.9586,
      "snowfall_7day": 3.5,
      "forecast_text": "Sunny. High near 42, with temperatures falling to around 35 in the afternoon. South southwest wind around 14 mph, with gusts as high as 22 mph.",
      "last_updated": "2025-11-13T18:32:49.693Z"
    },
    {
      "name": "Snow King",
      "lat": 43.4783,
      "lng": -110.7628,
      "snowfall_7day": 0,
      "forecast_text": "Sunny. High near 59, with temperatures falling to around 53 in the afternoon. South southwest wind 8 to 13 mph, with gusts as high as 21 mph.",
      "last_updated": "2025-11-13T18:32:53.063Z"
    },
    {
      "name": "Bridger Bowl",
      "lat": 45.8167,
      "lng": -110.8969,
      "snowfall_7day": 1.5,
      "forecast_text": "Sunny. High near 59, with temperatures falling to around 54 in the afternoon. Southwest wind 10 to 16 mph, with gusts as high as 33 mph.",
      "last_updated": "2025-11-13T18:32:54.416Z"
    },
    {
      "name": "Big Mountain",
      "lat": 48.4928,
      "lng": -114.3483,
      "snowfall_7day": 0,
      "forecast_text": "A chance of rain after 2pm. Mostly cloudy, with a high near 41. South southwest wind around 8 mph. Chance of precipitation is 40%. New rainfall amounts less than a tenth of an inch possible.",
      "last_updated": "2025-11-13T18:32:55.945Z"
    },
    {
      "name": "Snowbowl",
      "lat": 46.9417,
      "lng": -113.9492,
      "snowfall_7day": 0,
      "forecast_text": "A slight chance of rain after 5pm. Partly sunny. High near 59, with temperatures falling to around 54 in the afternoon. South southwest wind around 9 mph. Chance of precipitation is 20%.",
      "last_updated": "2025-11-13T18:32:57.264Z"
    },
    {
      "name": "Bogus Basin",
      "lat": 43.7725,
      "lng": -116.0939,
      "snowfall_7day": 6,
      "forecast_text": "Rain likely. Partly sunny. High near 53, with temperatures falling to around 48 in the afternoon. South southeast wind around 10 mph, with gusts as high as 21 mph. Chance of precipitation is 70%.",
      "last_updated": "2025-11-13T18:32:58.496Z"
    },
    {
      "name": "Tamarack",
      "lat": 44.6922,
      "lng": -116.1344,
      "snowfall_7day": 5,
      "forecast_text": "Rain. Mostly cloudy. High near 52, with temperatures falling to around 44 in the afternoon. South southwest wind around 9 mph. Chance of precipitation is 80%. New rainfall amounts between a tenth and quarter of an inch possible.",
      "last_updated": "2025-11-13T18:33:00.926Z"
    },
    {
      "name": "Silver Mountain",
      "lat": 47.6764,
      "lng": -116.0703,
      "snowfall_7day": 0,
      "forecast_text": "Rain. Mostly cloudy. High near 54, with temperatures falling to around 49 in the afternoon. Southwest wind around 7 mph, with gusts as high as 22 mph. Chance of precipitation is 90%. New rainfall amounts between a quarter and half of an inch possible.",
      "last_updated": "2025-11-13T18:33:11.038Z"
    },
    {
      "name": "Mt. Hood Meadows",
      "lat": 45.3319,
      "lng": -121.6653,
      "snowfall_7day": 11,
      "forecast_text": "Rain. Mostly cloudy. High near 49, with temperatures falling to around 43 in the afternoon. Southwest wind around 5 mph. Chance of precipitation is 90%. New rainfall amounts between a tenth and quarter of an inch possible.",
      "last_updated": "2025-11-13T18:33:20.000Z"
    },
    {
      "name": "Timberline",
      "lat": 45.3306,
      "lng": -121.7108,
      "snowfall_7day": 15,
      "forecast_text": "Rain. Cloudy. High near 45, with temperatures falling to around 41 in the afternoon. Southwest wind 6 to 9 mph. Chance of precipitation is 90%. New rainfall amounts between a quarter and half of an inch possible.",
      "last_updated": "2025-11-13T18:33:20.875Z"
    },
    {
      "name": "Willamette Pass",
      "lat": 43.6006,
      "lng": -122.0336,
      "snowfall_7day": 10.5,
      "forecast_text": "Rain. Mostly cloudy. High near 51, with temperatures falling to around 44 in the afternoon. South wind 7 to 20 mph, with gusts as high as 30 mph. Chance of precipitation is 80%. New rainfall amounts between a tenth and quarter of an inch possible.",
      "last_updated": "2025-11-13T18:33:21.625Z"
    },
    {
      "name": "Mission Ridge",
      "lat": 47.2917,
      "lng": -120.3997,
      "snowfall_7day": 3,
      "forecast_text": "Rain. Mostly cloudy, with a high near 40. Southwest wind around 8 mph. Chance of precipitation is 90%. New rainfall amounts between a quarter and half of an inch possible.",
      "last_updated": "2025-11-13T18:33:23.254Z"
    },
    {
      "name": "Snoqualmie",
      "lat": 47.4219,
      "lng": -121.4136,
      "snowfall_7day": 5,
      "forecast_text": "Rain. Cloudy. High near 47, with temperatures falling to around 45 in the afternoon. South wind around 5 mph. Chance of precipitation is 100%. New rainfall amounts between three quarters and one inch possible.",
      "last_updated": "2025-11-13T18:33:24.039Z"
    },
    {
      "name": "Mt. Spokane",
      "lat": 47.9208,
      "lng": -117.0856,
      "snowfall_7day": 3.5,
      "forecast_text": "Rain. Mostly cloudy. High near 46, with temperatures falling to around 43 in the afternoon. Southwest wind 7 to 10 mph, with gusts as high as 22 mph. Chance of precipitation is 90%. New rainfall amounts between a half and three quarters of an inch possible.",
      "last_updated": "2025-11-13T18:33:26.914Z"
    },
    {
      "name": "White Pass",
      "lat": 46.6394,
      "lng": -121.3908,
      "snowfall_7day": 7,
      "forecast_text": "Rain. Cloudy. High near 47, with temperatures falling to around 45 in the afternoon. Southwest wind around 6 mph. Chance of precipitation is 100%. New rainfall amounts between a quarter and half of an inch possible.",
      "last_updated": "2025-11-13T18:33:29.648Z"
    },
    {
      "name": "49 Degrees North",
      "lat": 48.7511,
      "lng": -117.6369,
      "snowfall_7day": 0,
      "forecast_text": "Rain. Cloudy, with a high near 46. South wind around 6 mph. Chance of precipitation is 100%. New rainfall amounts between a quarter and half of an inch possible.",
      "last_updated": "2025-11-13T18:33:31.056Z"
    },
    {
      "name": "Red Mountain",
      "lat": 49.0917,
      "lng": -117.8233,
      "snowfall_7day": 0,
      "forecast_text": "Data unavailable",
      "last_updated": "2025-11-13T18:33:31.457Z",
      "error": "Point API failed: 404"
    },
    {
      "name": "Whitewater",
      "lat": 49.5394,
      "lng": -117.2717,
      "snowfall_7day": 0,
      "forecast_text": "Data unavailable",
      "last_updated": "2025-11-13T18:33:37.992Z",
      "error": "Point API failed: 404"
    },
    {
      "name": "Panorama",
      "lat": 50.8036,
      "lng": -116.0533,
      "snowfall_7day": 0,
      "forecast_text": "Data unavailable",
      "last_updated": "2025-11-13T18:33:38.262Z",
      "error": "Point API failed: 404"
    },
    {
      "name": "Marmot Basin",
      "lat": 52.8236,
      "lng": -118.0747,
      "snowfall_7day": 0,
      "forecast_text": "Data unavailable",
      "last_updated": "2025-11-13T18:33:39.233Z",
      "error": "Point API failed: 404"
    },
    {
      "name": "Nakiska",
      "lat": 50.98,
      "lng": -115.0733,
      "snowfall_7day": 0,
      "forecast_text": "Data unavailable",
      "last_updated": "2025-11-13T18:33:39.585Z",
      "error": "Point API failed: 404"
    },
    {
      "name": "Castle Mountain",
      "lat": 49.4058,
      "lng": -114.5169,
      "snowfall_7day": 0,
      "forecast_text": "Data unavailable",
      "last_updated": "2025-11-13T18:33:39.886Z",
      "error": "Point API failed: 404"
    },
    {
      "name": "Norquay",
      "lat": 51.1967,
      "lng": -115.5531,
      "snowfall_7day": 0,
      "forecast_text": "Data unavailable",
      "last_updated": "2025-11-13T18:33:40.318Z",
      "error": "Point API failed: 404"
    },
    {
      "name": "Le Massif",
      "lat": 47.3136,
      "lng": -70.6358,
      "snowfall_7day": 0,
      "forecast_text": "Data unavailable",
      "last_updated": "2025-11-13T18:33:41.548Z",
      "error": "Point API failed: 404"
    },
    {
      "name": "Calabogie",
      "lat": 45.2906,
      "lng": -76.7019,
      "snowfall_7day": 0,
      "forecast_text": "Data unavailable",
      "last_updated": "2025-11-13T18:33:43.727Z",
      "error": "Point API failed: 404"
    },
    {
      "name": "Sierra-at-Tahoe",
      "lat": 38.7986,
      "lng": -120.0828,
      "snowfall_7day": 10.5,
      "forecast_text": "Rain showers before 3pm, then rain showers and patchy fog. Mostly cloudy, with a high near 45. Southwest wind 10 to 15 mph, with gusts as high as 35 mph. Chance of precipitation is 90%. New rainfall amounts between 1 and 2 inches possible.",
      "last_updated": "2025-11-13T18:33:45.901Z"
    },
    {
      "name": "Kirkwood",
      "lat": 38.6867,
      "lng": -120.0656,
      "snowfall_7day": 19,
      "forecast_text": "Rain showers and patchy fog. Cloudy. High near 44, with temperatures falling to around 40 in the afternoon. South southwest wind 10 to 16 mph, with gusts as high as 38 mph. Chance of precipitation is 90%. New rainfall amounts between 1 and 2 inches possible.",
      "last_updated": "2025-11-13T18:33:46.723Z"
    },
    {
      "name": "Northstar",
      "lat": 39.2733,
      "lng": -120.1211,
      "snowfall_7day": 3,
      "forecast_text": "Rain. Mostly cloudy, with a high near 52. South wind around 15 mph, with gusts as high as 30 mph. Chance of precipitation is 80%. New rainfall amounts between a quarter and half of an inch possible.",
      "last_updated": "2025-11-13T18:33:53.311Z"
    },
    {
      "name": "Homewood",
      "lat": 39.0833,
      "lng": -120.1667,
      "snowfall_7day": 4,
      "forecast_text": "Rain. Cloudy, with a high near 47. South wind 15 to 20 mph, with gusts as high as 30 mph. Chance of precipitation is 80%. New rainfall amounts between three quarters and one inch possible.",
      "last_updated": "2025-11-13T18:33:55.607Z"
    },
    {
      "name": "Mt. Rose",
      "lat": 39.3397,
      "lng": -119.8894,
      "snowfall_7day": 6.5,
      "forecast_text": "A chance of rain. Mostly cloudy, with a high near 45. South wind 20 to 25 mph, with gusts as high as 40 mph. Chance of precipitation is 50%. New rainfall amounts between a quarter and half of an inch possible.",
      "last_updated": "2025-11-13T18:34:04.676Z"
    },
    {
      "name": "Diamond Peak",
      "lat": 39.2525,
      "lng": -119.9169,
      "snowfall_7day": 3.5,
      "forecast_text": "A chance of rain. Mostly cloudy, with a high near 48. Southwest wind around 15 mph, with gusts as high as 30 mph. Chance of precipitation is 50%.",
      "last_updated": "2025-11-13T18:34:05.909Z"
    },
    {
      "name": "June Mountain",
      "lat": 37.7853,
      "lng": -119.0781,
      "snowfall_7day": 7.5,
      "forecast_text": "Rain likely. Mostly cloudy, with a high near 52. South wind 20 to 25 mph, with gusts as high as 40 mph. Chance of precipitation is 70%. New rainfall amounts between a half and three quarters of an inch possible.",
      "last_updated": "2025-11-13T18:34:08.404Z"
    },
    {
      "name": "Bear Mountain",
      "lat": 34.235,
      "lng": -116.865,
      "snowfall_7day": 1.5,
      "forecast_text": "A slight chance of rain showers after 4pm. Sunny, with a high near 60. Southwest wind 10 to 15 mph, with gusts as high as 30 mph. Chance of precipitation is 20%.",
      "last_updated": "2025-11-13T18:34:11.046Z"
    },
    {
      "name": "Snow Summit",
      "lat": 34.2306,
      "lng": -116.8886,
      "snowfall_7day": 4.5,
      "forecast_text": "A slight chance of rain showers after 4pm. Sunny, with a high near 57. Southwest wind 10 to 15 mph, with gusts as high as 25 mph. Chance of precipitation is 20%.",
      "last_updated": "2025-11-13T18:34:15.659Z"
    },
    {
      "name": "Mountain High",
      "lat": 34.3811,
      "lng": -117.6881,
      "snowfall_7day": 1.5,
      "forecast_text": "A slight chance of rain showers after 4pm. Mostly sunny, with a high near 53. South wind 15 to 20 mph, with gusts as high as 30 mph. Chance of precipitation is 20%.",
      "last_updated": "2025-11-13T18:34:16.709Z"
    },
    {
      "name": "Ski Santa Fe",
      "lat": 35.7869,
      "lng": -105.7961,
      "snowfall_7day": 3,
      "forecast_text": "Mostly cloudy. High near 49, with temperatures falling to around 42 in the afternoon. Northwest wind 5 to 10 mph.",
      "last_updated": "2025-11-13T18:34:18.294Z"
    },
    {
      "name": "Angel Fire",
      "lat": 36.3975,
      "lng": -105.2886,
      "snowfall_7day": 0,
      "forecast_text": "Mostly cloudy. High near 59, with temperatures falling to around 51 in the afternoon. West wind 5 to 10 mph.",
      "last_updated": "2025-11-13T18:34:36.353Z"
    },
    {
      "name": "Whiteface Mountain",
      "lat": 44.3659,
      "lng": -73.9024,
      "snowfall_7day": 3,
      "forecast_text": "A chance of snow showers. Mostly cloudy, with a high near 24. Northwest wind 22 to 25 mph. Chance of precipitation is 50%. New snow accumulation of less than one inch possible.",
      "last_updated": "2025-11-13T18:34:37.437Z"
    }
  ]
}