{
  "generated_at": "2026-01-05T13:04:10.509Z",
  "total_resorts": 115,
  "data_source": "Open-Meteo",
  "resorts": [
    {
      "name": "Whistler Blackcomb",
      "lat": 50.1163,
      "lng": -122.9574,
      "snowfall_24hr": 0.6,
      "snowfall_48hr": 3.8,
      "snowfall_7day": 9.8,
      "forecast_text": "0.6\" expected in next 24 hours",
      "last_updated": "2026-01-05T13:03:43.501Z"
    },
    {
      "name": "Vail",
      "lat": 39.6403,
      "lng": -106.3742,
      "snowfall_24hr": 0.6,
      "snowfall_48hr": 1.2,
      "snowfall_7day": 2.5,
      "forecast_text": "0.6\" expected in next 24 hours",
      "last_updated": "2026-01-05T13:03:43.727Z"
    },
    {
      "name": "Park City",
      "lat": 40.6514,
      "lng": -111.5079,
      "snowfall_24hr": 2.6,
      "snowfall_48hr": 2.6,
      "snowfall_7day": 5.6,
      "forecast_text": "2.6\" expected in next 24 hours",
      "last_updated": "2026-01-05T13:03:43.953Z"
    },
    {
      "name": "Breckenridge",
      "lat": 39.4817,
      "lng": -106.0384,
      "snowfall_24hr": 0.7,
      "snowfall_48hr": 1,
      "snowfall_7day": 2,
      "forecast_text": "0.7\" expected in next 24 hours",
      "last_updated": "2026-01-05T13:03:44.179Z"
    },
    {
      "name": "Heavenly",
      "lat": 38.935,
      "lng": -119.9403,
      "snowfall_24hr": 0,
      "snowfall_48hr": 0,
      "snowfall_7day": 0,
      "forecast_text": "0.0\" expected in next 24 hours",
      "last_updated": "2026-01-05T13:03:44.405Z"
    },
    {
      "name": "Aspen Snowmass",
      "lat": 39.1911,
      "lng": -106.8175,
      "snowfall_24hr": 1.9,
      "snowfall_48hr": 1.9,
      "snowfall_7day": 4.6,
      "forecast_text": "1.9\" expected in next 24 hours",
      "last_updated": "2026-01-05T13:03:44.630Z"
    },
    {
      "name": "Jackson Hole",
      "lat": 43.5875,
      "lng": -110.8278,
      "snowfall_24hr": 1.3,
      "snowfall_48hr": 1.9,
      "snowfall_7day": 6.7,
      "forecast_text": "1.3\" expected in next 24 hours",
      "last_updated": "2026-01-05T13:03:44.856Z"
    },
    {
      "name": "Banff Sunshine",
      "lat": 51.1158,
      "lng": -115.7631,
      "snowfall_24hr": 0,
      "snowfall_48hr": 0.8,
      "snowfall_7day": 1.1,
      "forecast_text": "0.8\" expected in next 48 hours",
      "last_updated": "2026-01-05T13:03:45.082Z"
    },
    {
      "name": "Lake Louise",
      "lat": 51.4254,
      "lng": -116.1773,
      "snowfall_24hr": 0,
      "snowfall_48hr": 0.2,
      "snowfall_7day": 0.6,
      "forecast_text": "0.2\" expected in next 48 hours",
      "last_updated": "2026-01-05T13:03:45.308Z"
    },
    {
      "name": "Big Sky",
      "lat": 45.2846,
      "lng": -111.4008,
      "snowfall_24hr": 0.1,
      "snowfall_48hr": 0.8,
      "snowfall_7day": 2.1,
      "forecast_text": "0.1\" expected in next 24 hours",
      "last_updated": "2026-01-05T13:03:45.534Z"
    },
    {
      "name": "Steamboat",
      "lat": 40.458,
      "lng": -106.8047,
      "snowfall_24hr": 0.5,
      "snowfall_48hr": 0.5,
      "snowfall_7day": 1.4,
      "forecast_text": "0.5\" expected in next 24 hours",
      "last_updated": "2026-01-05T13:03:45.759Z"
    },
    {
      "name": "Mammoth Mountain",
      "lat": 37.6308,
      "lng": -119.0326,
      "snowfall_24hr": 0,
      "snowfall_48hr": 0,
      "snowfall_7day": 0,
      "forecast_text": "No snow expected",
      "last_updated": "2026-01-05T13:03:45.985Z"
    },
    {
      "name": "Squaw Valley",
      "lat": 39.197,
      "lng": -120.2356,
      "snowfall_24hr": 0.5,
      "snowfall_48hr": 0.5,
      "snowfall_7day": 2.9,
      "forecast_text": "0.5\" expected in next 24 hours",
      "last_updated": "2026-01-05T13:03:46.210Z"
    },
    {
      "name": "Telluride",
      "lat": 37.9375,
      "lng": -107.8123,
      "snowfall_24hr": 0.1,
      "snowfall_48hr": 0.1,
      "snowfall_7day": 1.8,
      "forecast_text": "0.1\" expected in next 24 hours",
      "last_updated": "2026-01-05T13:03:46.436Z"
    },
    {
      "name": "Sun Valley",
      "lat": 43.6966,
      "lng": -114.3553,
      "snowfall_24hr": 0.1,
      "snowfall_48hr": 0.6,
      "snowfall_7day": 1.3,
      "forecast_text": "0.1\" expected in next 24 hours",
      "last_updated": "2026-01-05T13:03:46.661Z"
    },
    {
      "name": "Deer Valley",
      "lat": 40.6374,
      "lng": -111.4783,
      "snowfall_24hr": 2.9,
      "snowfall_48hr": 2.9,
      "snowfall_7day": 4.6,
      "forecast_text": "2.9\" expected in next 24 hours",
      "last_updated": "2026-01-05T13:03:46.886Z"
    },
    {
      "name": "Killington",
      "lat": 43.6046,
      "lng": -72.822,
      "snowfall_24hr": 1.4,
      "snowfall_48hr": 2.1,
      "snowfall_7day": 2.5,
      "forecast_text": "1.4\" expected in next 24 hours",
      "last_updated": "2026-01-05T13:03:47.112Z"
    },
    {
      "name": "Stowe",
      "lat": 44.5303,
      "lng": -72.7817,
      "snowfall_24hr": 1.1,
      "snowfall_48hr": 1.6,
      "snowfall_7day": 4,
      "forecast_text": "1.1\" expected in next 24 hours",
      "last_updated": "2026-01-05T13:03:47.337Z"
    },
    {
      "name": "Alta",
      "lat": 40.5885,
      "lng": -111.6376,
      "snowfall_24hr": 3,
      "snowfall_48hr": 3,
      "snowfall_7day": 6.6,
      "forecast_text": "3.0\" expected in next 24 hours",
      "last_updated": "2026-01-05T13:03:47.561Z"
    },
    {
      "name": "Snowbird",
      "lat": 40.5803,
      "lng": -111.6573,
      "snowfall_24hr": 2.8,
      "snowfall_48hr": 2.8,
      "snowfall_7day": 6.4,
      "forecast_text": "2.8\" expected in next 24 hours",
      "last_updated": "2026-01-05T13:03:47.786Z"
    },
    {
      "name": "Taos",
      "lat": 36.5924,
      "lng": -105.4467,
      "snowfall_24hr": 0,
      "snowfall_48hr": 0,
      "snowfall_7day": 0.7,
      "forecast_text": "0.7\" expected in next 7 days",
      "last_updated": "2026-01-05T13:03:48.011Z"
    },
    {
      "name": "Copper Mountain",
      "lat": 39.5022,
      "lng": -106.1506,
      "snowfall_24hr": 0.7,
      "snowfall_48hr": 1.1,
      "snowfall_7day": 2.4,
      "forecast_text": "0.7\" expected in next 24 hours",
      "last_updated": "2026-01-05T13:03:48.236Z"
    },
    {
      "name": "Winter Park",
      "lat": 39.8868,
      "lng": -105.7625,
      "snowfall_24hr": 0.7,
      "snowfall_48hr": 0.7,
      "snowfall_7day": 1.7,
      "forecast_text": "0.7\" expected in next 24 hours",
      "last_updated": "2026-01-05T13:03:48.460Z"
    },
    {
      "name": "Keystone",
      "lat": 39.605,
      "lng": -105.9347,
      "snowfall_24hr": 0.7,
      "snowfall_48hr": 1.3,
      "snowfall_7day": 2,
      "forecast_text": "0.7\" expected in next 24 hours",
      "last_updated": "2026-01-05T13:03:48.685Z"
    },
    {
      "name": "Arapahoe Basin",
      "lat": 39.6426,
      "lng": -105.8717,
      "snowfall_24hr": 1,
      "snowfall_48hr": 1.9,
      "snowfall_7day": 2.5,
      "forecast_text": "1.0\" expected in next 24 hours",
      "last_updated": "2026-01-05T13:03:48.910Z"
    },
    {
      "name": "Crested Butte",
      "lat": 38.8997,
      "lng": -106.9653,
      "snowfall_24hr": 3,
      "snowfall_48hr": 3,
      "snowfall_7day": 4.4,
      "forecast_text": "3.0\" expected in next 24 hours",
      "last_updated": "2026-01-05T13:03:49.137Z"
    },
    {
      "name": "Loveland",
      "lat": 39.6803,
      "lng": -105.8978,
      "snowfall_24hr": 0.7,
      "snowfall_48hr": 1,
      "snowfall_7day": 1.7,
      "forecast_text": "0.7\" expected in next 24 hours",
      "last_updated": "2026-01-05T13:03:49.361Z"
    },
    {
      "name": "Mt. Bachelor",
      "lat": 43.979,
      "lng": -121.688,
      "snowfall_24hr": 0.6,
      "snowfall_48hr": 3.8,
      "snowfall_7day": 13.1,
      "forecast_text": "0.6\" expected in next 24 hours",
      "last_updated": "2026-01-05T13:03:49.586Z"
    },
    {
      "name": "Crystal Mountain",
      "lat": 46.9358,
      "lng": -121.4742,
      "snowfall_24hr": 0.2,
      "snowfall_48hr": 6.1,
      "snowfall_7day": 11.7,
      "forecast_text": "0.2\" expected in next 24 hours",
      "last_updated": "2026-01-05T13:03:49.810Z"
    },
    {
      "name": "Stevens Pass",
      "lat": 47.7453,
      "lng": -121.0892,
      "snowfall_24hr": 1.6,
      "snowfall_48hr": 11.9,
      "snowfall_7day": 19.4,
      "forecast_text": "1.6\" expected in next 24 hours",
      "last_updated": "2026-01-05T13:03:50.035Z"
    },
    {
      "name": "Mt. Baker",
      "lat": 48.8597,
      "lng": -121.6686,
      "snowfall_24hr": 1.1,
      "snowfall_48hr": 9.3,
      "snowfall_7day": 18.5,
      "forecast_text": "1.1\" expected in next 24 hours",
      "last_updated": "2026-01-05T13:03:50.262Z"
    },
    {
      "name": "Schweitzer",
      "lat": 48.3642,
      "lng": -116.6228,
      "snowfall_24hr": 0.5,
      "snowfall_48hr": 4.6,
      "snowfall_7day": 8.6,
      "forecast_text": "0.5\" expected in next 24 hours",
      "last_updated": "2026-01-05T13:03:50.487Z"
    },
    {
      "name": "Sun Peaks",
      "lat": 50.8817,
      "lng": -119.8847,
      "snowfall_24hr": 0,
      "snowfall_48hr": 0.1,
      "snowfall_7day": 1.8,
      "forecast_text": "0.1\" expected in next 48 hours",
      "last_updated": "2026-01-05T13:03:50.711Z"
    },
    {
      "name": "Revelstoke",
      "lat": 50.9981,
      "lng": -118.1956,
      "snowfall_24hr": 0.4,
      "snowfall_48hr": 1.7,
      "snowfall_7day": 5.5,
      "forecast_text": "0.4\" expected in next 24 hours",
      "last_updated": "2026-01-05T13:03:50.936Z"
    },
    {
      "name": "Fernie",
      "lat": 49.4653,
      "lng": -115.0636,
      "snowfall_24hr": 0.6,
      "snowfall_48hr": 1.5,
      "snowfall_7day": 3.9,
      "forecast_text": "0.6\" expected in next 24 hours",
      "last_updated": "2026-01-05T13:03:51.163Z"
    },
    {
      "name": "Big White",
      "lat": 49.7311,
      "lng": -118.935,
      "snowfall_24hr": 0.8,
      "snowfall_48hr": 2.7,
      "snowfall_7day": 3.2,
      "forecast_text": "0.8\" expected in next 24 hours",
      "last_updated": "2026-01-05T13:03:51.388Z"
    },
    {
      "name": "Kicking Horse",
      "lat": 51.2514,
      "lng": -117.0492,
      "snowfall_24hr": 0.1,
      "snowfall_48hr": 0.6,
      "snowfall_7day": 1.2,
      "forecast_text": "0.1\" expected in next 24 hours",
      "last_updated": "2026-01-05T13:03:51.618Z"
    },
    {
      "name": "Mont Tremblant",
      "lat": 46.2094,
      "lng": -74.5847,
      "snowfall_24hr": 0.6,
      "snowfall_48hr": 0.7,
      "snowfall_7day": 2.2,
      "forecast_text": "0.6\" expected in next 24 hours",
      "last_updated": "2026-01-05T13:03:51.843Z"
    },
    {
      "name": "Blue Mountain",
      "lat": 44.5075,
      "lng": -80.3231,
      "snowfall_24hr": 1.1,
      "snowfall_48hr": 1.1,
      "snowfall_7day": 1.4,
      "forecast_text": "1.1\" expected in next 24 hours",
      "last_updated": "2026-01-05T13:03:52.069Z"
    },
    {
      "name": "Sugarloaf",
      "lat": 45.0314,
      "lng": -70.3139,
      "snowfall_24hr": 0.5,
      "snowfall_48hr": 0.7,
      "snowfall_7day": 2.9,
      "forecast_text": "0.5\" expected in next 24 hours",
      "last_updated": "2026-01-05T13:03:52.295Z"
    },
    {
      "name": "Sunday River",
      "lat": 44.4697,
      "lng": -70.8561,
      "snowfall_24hr": 0.6,
      "snowfall_48hr": 0.8,
      "snowfall_7day": 1.9,
      "forecast_text": "0.6\" expected in next 24 hours",
      "last_updated": "2026-01-05T13:03:52.522Z"
    },
    {
      "name": "Sugarbush",
      "lat": 44.135,
      "lng": -72.9017,
      "snowfall_24hr": 1.1,
      "snowfall_48hr": 1.5,
      "snowfall_7day": 2.8,
      "forecast_text": "1.1\" expected in next 24 hours",
      "last_updated": "2026-01-05T13:03:52.747Z"
    },
    {
      "name": "Stratton",
      "lat": 43.1133,
      "lng": -72.9083,
      "snowfall_24hr": 1.1,
      "snowfall_48hr": 1.8,
      "snowfall_7day": 2.3,
      "forecast_text": "1.1\" expected in next 24 hours",
      "last_updated": "2026-01-05T13:03:52.974Z"
    },
    {
      "name": "Okemo",
      "lat": 43.4017,
      "lng": -72.7167,
      "snowfall_24hr": 1.2,
      "snowfall_48hr": 1.9,
      "snowfall_7day": 2.4,
      "forecast_text": "1.2\" expected in next 24 hours",
      "last_updated": "2026-01-05T13:03:53.205Z"
    },
    {
      "name": "Jay Peak",
      "lat": 44.9378,
      "lng": -72.5036,
      "snowfall_24hr": 1,
      "snowfall_48hr": 1.3,
      "snowfall_7day": 3.9,
      "forecast_text": "1.0\" expected in next 24 hours",
      "last_updated": "2026-01-05T13:03:53.438Z"
    },
    {
      "name": "Smugglers' Notch",
      "lat": 44.5458,
      "lng": -72.7872,
      "snowfall_24hr": 1.3,
      "snowfall_48hr": 1.9,
      "snowfall_7day": 4.3,
      "forecast_text": "1.3\" expected in next 24 hours",
      "last_updated": "2026-01-05T13:03:53.668Z"
    },
    {
      "name": "Loon Mountain",
      "lat": 44.0369,
      "lng": -71.6206,
      "snowfall_24hr": 0.9,
      "snowfall_48hr": 1.4,
      "snowfall_7day": 2.7,
      "forecast_text": "0.9\" expected in next 24 hours",
      "last_updated": "2026-01-05T13:03:53.897Z"
    },
    {
      "name": "Cannon Mountain",
      "lat": 44.1572,
      "lng": -71.6978,
      "snowfall_24hr": 1,
      "snowfall_48hr": 1.4,
      "snowfall_7day": 2.9,
      "forecast_text": "1.0\" expected in next 24 hours",
      "last_updated": "2026-01-05T13:03:54.126Z"
    },
    {
      "name": "Wildcat Mountain",
      "lat": 44.2636,
      "lng": -71.2328,
      "snowfall_24hr": 0.7,
      "snowfall_48hr": 0.9,
      "snowfall_7day": 2.3,
      "forecast_text": "0.7\" expected in next 24 hours",
      "last_updated": "2026-01-05T13:03:54.357Z"
    },
    {
      "name": "Bretton Woods",
      "lat": 44.2633,
      "lng": -71.4439,
      "snowfall_24hr": 0.5,
      "snowfall_48hr": 0.7,
      "snowfall_7day": 2.7,
      "forecast_text": "0.5\" expected in next 24 hours",
      "last_updated": "2026-01-05T13:03:54.586Z"
    },
    {
      "name": "Snowbasin",
      "lat": 41.2156,
      "lng": -111.8567,
      "snowfall_24hr": 1.6,
      "snowfall_48hr": 1.6,
      "snowfall_7day": 3.7,
      "forecast_text": "1.6\" expected in next 24 hours",
      "last_updated": "2026-01-05T13:03:54.817Z"
    },
    {
      "name": "Powder Mountain",
      "lat": 41.3814,
      "lng": -111.7806,
      "snowfall_24hr": 2.5,
      "snowfall_48hr": 2.5,
      "snowfall_7day": 7.4,
      "forecast_text": "2.5\" expected in next 24 hours",
      "last_updated": "2026-01-05T13:03:55.048Z"
    },
    {
      "name": "Solitude",
      "lat": 40.62,
      "lng": -111.5917,
      "snowfall_24hr": 2.8,
      "snowfall_48hr": 2.8,
      "snowfall_7day": 5.2,
      "forecast_text": "2.8\" expected in next 24 hours",
      "last_updated": "2026-01-05T13:03:55.287Z"
    },
    {
      "name": "Brighton",
      "lat": 40.5981,
      "lng": -111.5831,
      "snowfall_24hr": 3.4,
      "snowfall_48hr": 3.4,
      "snowfall_7day": 5.8,
      "forecast_text": "3.4\" expected in next 24 hours",
      "last_updated": "2026-01-05T13:03:55.517Z"
    },
    {
      "name": "Snowmass",
      "lat": 39.2133,
      "lng": -106.9378,
      "snowfall_24hr": 1.9,
      "snowfall_48hr": 1.9,
      "snowfall_7day": 4.9,
      "forecast_text": "1.9\" expected in next 24 hours",
      "last_updated": "2026-01-05T13:03:56.080Z"
    },
    {
      "name": "Aspen Highlands",
      "lat": 39.1825,
      "lng": -106.8553,
      "snowfall_24hr": 2.4,
      "snowfall_48hr": 2.4,
      "snowfall_7day": 5.1,
      "forecast_text": "2.4\" expected in next 24 hours",
      "last_updated": "2026-01-05T13:03:56.320Z"
    },
    {
      "name": "Buttermilk",
      "lat": 39.2078,
      "lng": -106.8608,
      "snowfall_24hr": 1.9,
      "snowfall_48hr": 1.9,
      "snowfall_7day": 4.6,
      "forecast_text": "1.9\" expected in next 24 hours",
      "last_updated": "2026-01-05T13:03:56.549Z"
    },
    {
      "name": "Beaver Creek",
      "lat": 39.6042,
      "lng": -106.5164,
      "snowfall_24hr": 0.3,
      "snowfall_48hr": 0.9,
      "snowfall_7day": 2,
      "forecast_text": "0.3\" expected in next 24 hours",
      "last_updated": "2026-01-05T13:03:56.779Z"
    },
    {
      "name": "Purgatory",
      "lat": 37.6303,
      "lng": -107.8139,
      "snowfall_24hr": 0.3,
      "snowfall_48hr": 0.3,
      "snowfall_7day": 0.5,
      "forecast_text": "0.3\" expected in next 24 hours",
      "last_updated": "2026-01-05T13:03:57.008Z"
    },
    {
      "name": "Wolf Creek",
      "lat": 37.4722,
      "lng": -106.7931,
      "snowfall_24hr": 0.5,
      "snowfall_48hr": 0.5,
      "snowfall_7day": 1.4,
      "forecast_text": "0.5\" expected in next 24 hours",
      "last_updated": "2026-01-05T13:03:57.233Z"
    },
    {
      "name": "Monarch Mountain",
      "lat": 38.5117,
      "lng": -106.3317,
      "snowfall_24hr": 0.1,
      "snowfall_48hr": 0.2,
      "snowfall_7day": 0.5,
      "forecast_text": "0.1\" expected in next 24 hours",
      "last_updated": "2026-01-05T13:03:57.462Z"
    },
    {
      "name": "Eldora",
      "lat": 39.9372,
      "lng": -105.5828,
      "snowfall_24hr": 0.8,
      "snowfall_48hr": 0.9,
      "snowfall_7day": 1.3,
      "forecast_text": "0.8\" expected in next 24 hours",
      "last_updated": "2026-01-05T13:03:57.691Z"
    },
    {
      "name": "Grand Targhee",
      "lat": 43.7886,
      "lng": -110.9586,
      "snowfall_24hr": 2.6,
      "snowfall_48hr": 4.9,
      "snowfall_7day": 8.7,
      "forecast_text": "2.6\" expected in next 24 hours",
      "last_updated": "2026-01-05T13:03:57.921Z"
    },
    {
      "name": "Snow King",
      "lat": 43.4783,
      "lng": -110.7628,
      "snowfall_24hr": 0.8,
      "snowfall_48hr": 1.2,
      "snowfall_7day": 3.6,
      "forecast_text": "0.8\" expected in next 24 hours",
      "last_updated": "2026-01-05T13:03:58.150Z"
    },
    {
      "name": "Bridger Bowl",
      "lat": 45.8167,
      "lng": -110.8969,
      "snowfall_24hr": 0,
      "snowfall_48hr": 0.1,
      "snowfall_7day": 3.1,
      "forecast_text": "0.1\" expected in next 48 hours",
      "last_updated": "2026-01-05T13:03:58.379Z"
    },
    {
      "name": "Big Mountain",
      "lat": 48.4928,
      "lng": -114.3483,
      "snowfall_24hr": 1.3,
      "snowfall_48hr": 3.8,
      "snowfall_7day": 6.1,
      "forecast_text": "1.3\" expected in next 24 hours",
      "last_updated": "2026-01-05T13:03:58.609Z"
    },
    {
      "name": "Snowbowl",
      "lat": 46.9417,
      "lng": -113.9492,
      "snowfall_24hr": 0.4,
      "snowfall_48hr": 0.4,
      "snowfall_7day": 0.9,
      "forecast_text": "0.4\" expected in next 24 hours",
      "last_updated": "2026-01-05T13:03:58.839Z"
    },
    {
      "name": "Bogus Basin",
      "lat": 43.7725,
      "lng": -116.0939,
      "snowfall_24hr": 0.9,
      "snowfall_48hr": 4.7,
      "snowfall_7day": 6.4,
      "forecast_text": "0.9\" expected in next 24 hours",
      "last_updated": "2026-01-05T13:03:59.072Z"
    },
    {
      "name": "Tamarack",
      "lat": 44.6922,
      "lng": -116.1344,
      "snowfall_24hr": 1.7,
      "snowfall_48hr": 6,
      "snowfall_7day": 10.2,
      "forecast_text": "1.7\" expected in next 24 hours",
      "last_updated": "2026-01-05T13:03:59.302Z"
    },
    {
      "name": "Silver Mountain",
      "lat": 47.6764,
      "lng": -116.0703,
      "snowfall_24hr": 0,
      "snowfall_48hr": 2.9,
      "snowfall_7day": 7.5,
      "forecast_text": "2.9\" expected in next 48 hours",
      "last_updated": "2026-01-05T13:03:59.532Z"
    },
    {
      "name": "Mt. Hood Meadows",
      "lat": 45.3319,
      "lng": -121.6653,
      "snowfall_24hr": 0,
      "snowfall_48hr": 11.4,
      "snowfall_7day": 25.3,
      "forecast_text": "11.4\" expected in next 48 hours",
      "last_updated": "2026-01-05T13:03:59.761Z"
    },
    {
      "name": "Timberline",
      "lat": 45.3306,
      "lng": -121.7108,
      "snowfall_24hr": 0.2,
      "snowfall_48hr": 12,
      "snowfall_7day": 28.2,
      "forecast_text": "0.2\" expected in next 24 hours",
      "last_updated": "2026-01-05T13:03:59.992Z"
    },
    {
      "name": "Willamette Pass",
      "lat": 43.6006,
      "lng": -122.0336,
      "snowfall_24hr": 1.3,
      "snowfall_48hr": 2.4,
      "snowfall_7day": 12.3,
      "forecast_text": "1.3\" expected in next 24 hours",
      "last_updated": "2026-01-05T13:04:00.222Z"
    },
    {
      "name": "Mission Ridge",
      "lat": 47.2917,
      "lng": -120.3997,
      "snowfall_24hr": 0,
      "snowfall_48hr": 3.7,
      "snowfall_7day": 4,
      "forecast_text": "3.7\" expected in next 48 hours",
      "last_updated": "2026-01-05T13:04:00.466Z"
    },
    {
      "name": "Snoqualmie",
      "lat": 47.4219,
      "lng": -121.4136,
      "snowfall_24hr": 0.6,
      "snowfall_48hr": 7.6,
      "snowfall_7day": 16.1,
      "forecast_text": "0.6\" expected in next 24 hours",
      "last_updated": "2026-01-05T13:04:00.697Z"
    },
    {
      "name": "Mt. Spokane",
      "lat": 47.9208,
      "lng": -117.0856,
      "snowfall_24hr": 0.1,
      "snowfall_48hr": 3.6,
      "snowfall_7day": 5.8,
      "forecast_text": "0.1\" expected in next 24 hours",
      "last_updated": "2026-01-05T13:04:00.927Z"
    },
    {
      "name": "White Pass",
      "lat": 46.6394,
      "lng": -121.3908,
      "snowfall_24hr": 0.1,
      "snowfall_48hr": 9.8,
      "snowfall_7day": 16.7,
      "forecast_text": "0.1\" expected in next 24 hours",
      "last_updated": "2026-01-05T13:04:01.158Z"
    },
    {
      "name": "49 Degrees North",
      "lat": 48.7511,
      "lng": -117.6369,
      "snowfall_24hr": 0,
      "snowfall_48hr": 0.1,
      "snowfall_7day": 0.9,
      "forecast_text": "0.1\" expected in next 48 hours",
      "last_updated": "2026-01-05T13:04:01.387Z"
    },
    {
      "name": "Red Mountain",
      "lat": 49.0917,
      "lng": -117.8233,
      "snowfall_24hr": 0.1,
      "snowfall_48hr": 1.5,
      "snowfall_7day": 2.3,
      "forecast_text": "0.1\" expected in next 24 hours",
      "last_updated": "2026-01-05T13:04:01.617Z"
    },
    {
      "name": "Whitewater",
      "lat": 49.5394,
      "lng": -117.2717,
      "snowfall_24hr": 0.1,
      "snowfall_48hr": 1.7,
      "snowfall_7day": 4,
      "forecast_text": "0.1\" expected in next 24 hours",
      "last_updated": "2026-01-05T13:04:01.848Z"
    },
    {
      "name": "Panorama",
      "lat": 50.8036,
      "lng": -116.0533,
      "snowfall_24hr": 1.2,
      "snowfall_48hr": 1.5,
      "snowfall_7day": 1.5,
      "forecast_text": "1.2\" expected in next 24 hours",
      "last_updated": "2026-01-05T13:04:02.079Z"
    },
    {
      "name": "Marmot Basin",
      "lat": 52.8236,
      "lng": -118.0747,
      "snowfall_24hr": 0,
      "snowfall_48hr": 0.3,
      "snowfall_7day": 0.5,
      "forecast_text": "0.3\" expected in next 48 hours",
      "last_updated": "2026-01-05T13:04:02.311Z"
    },
    {
      "name": "Nakiska",
      "lat": 50.98,
      "lng": -115.0733,
      "snowfall_24hr": 0.2,
      "snowfall_48hr": 0.5,
      "snowfall_7day": 0.5,
      "forecast_text": "0.2\" expected in next 24 hours",
      "last_updated": "2026-01-05T13:04:02.540Z"
    },
    {
      "name": "Castle Mountain",
      "lat": 49.4058,
      "lng": -114.5169,
      "snowfall_24hr": 0.5,
      "snowfall_48hr": 2.1,
      "snowfall_7day": 3,
      "forecast_text": "0.5\" expected in next 24 hours",
      "last_updated": "2026-01-05T13:04:02.771Z"
    },
    {
      "name": "Norquay",
      "lat": 51.1967,
      "lng": -115.5531,
      "snowfall_24hr": 0,
      "snowfall_48hr": 0.2,
      "snowfall_7day": 0.3,
      "forecast_text": "0.2\" expected in next 48 hours",
      "last_updated": "2026-01-05T13:04:02.997Z"
    },
    {
      "name": "Le Massif",
      "lat": 47.3136,
      "lng": -70.6358,
      "snowfall_24hr": 0,
      "snowfall_48hr": 0,
      "snowfall_7day": 3.1,
      "forecast_text": "3.1\" expected in next 7 days",
      "last_updated": "2026-01-05T13:04:03.228Z"
    },
    {
      "name": "Calabogie",
      "lat": 45.2906,
      "lng": -76.7019,
      "snowfall_24hr": 1,
      "snowfall_48hr": 1,
      "snowfall_7day": 1.7,
      "forecast_text": "1.0\" expected in next 24 hours",
      "last_updated": "2026-01-05T13:04:03.460Z"
    },
    {
      "name": "Sierra-at-Tahoe",
      "lat": 38.7986,
      "lng": -120.0828,
      "snowfall_24hr": 0.1,
      "snowfall_48hr": 0.1,
      "snowfall_7day": 0.8,
      "forecast_text": "0.1\" expected in next 24 hours",
      "last_updated": "2026-01-05T13:04:03.689Z"
    },
    {
      "name": "Kirkwood",
      "lat": 38.6867,
      "lng": -120.0656,
      "snowfall_24hr": 0.4,
      "snowfall_48hr": 0.4,
      "snowfall_7day": 1,
      "forecast_text": "0.4\" expected in next 24 hours",
      "last_updated": "2026-01-05T13:04:03.918Z"
    },
    {
      "name": "Northstar",
      "lat": 39.2733,
      "lng": -120.1211,
      "snowfall_24hr": 0.2,
      "snowfall_48hr": 0.2,
      "snowfall_7day": 1.3,
      "forecast_text": "0.2\" expected in next 24 hours",
      "last_updated": "2026-01-05T13:04:04.148Z"
    },
    {
      "name": "Homewood",
      "lat": 39.0833,
      "lng": -120.1667,
      "snowfall_24hr": 0.3,
      "snowfall_48hr": 0.3,
      "snowfall_7day": 1.4,
      "forecast_text": "0.3\" expected in next 24 hours",
      "last_updated": "2026-01-05T13:04:04.380Z"
    },
    {
      "name": "Mt. Rose",
      "lat": 39.3397,
      "lng": -119.8894,
      "snowfall_24hr": 0,
      "snowfall_48hr": 0,
      "snowfall_7day": 0.8,
      "forecast_text": "0.0\" expected in next 24 hours",
      "last_updated": "2026-01-05T13:04:04.610Z"
    },
    {
      "name": "Diamond Peak",
      "lat": 39.2525,
      "lng": -119.9169,
      "snowfall_24hr": 0,
      "snowfall_48hr": 0,
      "snowfall_7day": 0.8,
      "forecast_text": "0.8\" expected in next 7 days",
      "last_updated": "2026-01-05T13:04:04.840Z"
    },
    {
      "name": "June Mountain",
      "lat": 37.7853,
      "lng": -119.0781,
      "snowfall_24hr": 0,
      "snowfall_48hr": 0,
      "snowfall_7day": 0,
      "forecast_text": "No snow expected",
      "last_updated": "2026-01-05T13:04:05.071Z"
    },
    {
      "name": "Bear Mountain",
      "lat": 34.235,
      "lng": -116.865,
      "snowfall_24hr": 0.2,
      "snowfall_48hr": 0.2,
      "snowfall_7day": 0.2,
      "forecast_text": "0.2\" expected in next 24 hours",
      "last_updated": "2026-01-05T13:04:05.301Z"
    },
    {
      "name": "Snow Summit",
      "lat": 34.2306,
      "lng": -116.8886,
      "snowfall_24hr": 0.3,
      "snowfall_48hr": 0.3,
      "snowfall_7day": 0.3,
      "forecast_text": "0.3\" expected in next 24 hours",
      "last_updated": "2026-01-05T13:04:05.532Z"
    },
    {
      "name": "Mountain High",
      "lat": 34.3811,
      "lng": -117.6881,
      "snowfall_24hr": 0,
      "snowfall_48hr": 0.7,
      "snowfall_7day": 0.7,
      "forecast_text": "0.0\" expected in next 24 hours",
      "last_updated": "2026-01-05T13:04:05.762Z"
    },
    {
      "name": "Ski Santa Fe",
      "lat": 35.7869,
      "lng": -105.7961,
      "snowfall_24hr": 0,
      "snowfall_48hr": 0,
      "snowfall_7day": 1.3,
      "forecast_text": "1.3\" expected in next 7 days",
      "last_updated": "2026-01-05T13:04:05.992Z"
    },
    {
      "name": "Angel Fire",
      "lat": 36.3975,
      "lng": -105.2886,
      "snowfall_24hr": 0,
      "snowfall_48hr": 0,
      "snowfall_7day": 0.4,
      "forecast_text": "0.4\" expected in next 7 days",
      "last_updated": "2026-01-05T13:04:06.221Z"
    },
    {
      "name": "Whiteface Mountain",
      "lat": 44.3659,
      "lng": -73.9024,
      "snowfall_24hr": 1,
      "snowfall_48hr": 1.4,
      "snowfall_7day": 2.1,
      "forecast_text": "1.0\" expected in next 24 hours",
      "last_updated": "2026-01-05T13:04:06.454Z"
    },
    {
      "name": "Bristol Mountain",
      "lat": 42.7455,
      "lng": -77.4016,
      "snowfall_24hr": 0,
      "snowfall_48hr": 0,
      "snowfall_7day": 0.2,
      "forecast_text": "0.0\" expected in next 24 hours",
      "last_updated": "2026-01-05T13:04:07.090Z"
    },
    {
      "name": "Revelstoke Mountain Resort",
      "lat": 50.9981,
      "lng": -118.1958,
      "snowfall_24hr": 0.4,
      "snowfall_48hr": 1.7,
      "snowfall_7day": 5.5,
      "forecast_text": "0.4\" expected in next 24 hours",
      "last_updated": "2026-01-05T13:04:07.326Z"
    },
    {
      "name": "Big White Ski Resort",
      "lat": 49.7308,
      "lng": -118.9357,
      "snowfall_24hr": 0.8,
      "snowfall_48hr": 2.7,
      "snowfall_7day": 3.2,
      "forecast_text": "0.8\" expected in next 24 hours",
      "last_updated": "2026-01-05T13:04:07.561Z"
    },
    {
      "name": "Sun Peaks Resort",
      "lat": 50.8847,
      "lng": -119.8892,
      "snowfall_24hr": 0,
      "snowfall_48hr": 0.1,
      "snowfall_7day": 1.8,
      "forecast_text": "0.1\" expected in next 48 hours",
      "last_updated": "2026-01-05T13:04:07.797Z"
    },
    {
      "name": "Fernie Alpine Resort",
      "lat": 49.4651,
      "lng": -115.0764,
      "snowfall_24hr": 0.6,
      "snowfall_48hr": 1.5,
      "snowfall_7day": 3.9,
      "forecast_text": "0.6\" expected in next 24 hours",
      "last_updated": "2026-01-05T13:04:08.033Z"
    },
    {
      "name": "Kicking Horse Mountain Resort",
      "lat": 51.2983,
      "lng": -116.955,
      "snowfall_24hr": 0,
      "snowfall_48hr": 0.1,
      "snowfall_7day": 0.6,
      "forecast_text": "0.1\" expected in next 48 hours",
      "last_updated": "2026-01-05T13:04:08.270Z"
    },
    {
      "name": "Panorama Mountain Resort",
      "lat": 50.9806,
      "lng": -116.0972,
      "snowfall_24hr": 0.1,
      "snowfall_48hr": 1,
      "snowfall_7day": 1.2,
      "forecast_text": "0.1\" expected in next 24 hours",
      "last_updated": "2026-01-05T13:04:08.506Z"
    },
    {
      "name": "RED Mountain Resort",
      "lat": 49.0878,
      "lng": -117.8197,
      "snowfall_24hr": 0.1,
      "snowfall_48hr": 1.1,
      "snowfall_7day": 1.9,
      "forecast_text": "0.1\" expected in next 24 hours",
      "last_updated": "2026-01-05T13:04:08.741Z"
    },
    {
      "name": "SilverStar Mountain Resort",
      "lat": 50.4,
      "lng": -119.0833,
      "snowfall_24hr": 0.3,
      "snowfall_48hr": 2.8,
      "snowfall_7day": 3.5,
      "forecast_text": "0.3\" expected in next 24 hours",
      "last_updated": "2026-01-05T13:04:08.977Z"
    },
    {
      "name": "Lake Louise Ski Resort",
      "lat": 51.4254,
      "lng": -116.1773,
      "snowfall_24hr": 0,
      "snowfall_48hr": 0.2,
      "snowfall_7day": 0.6,
      "forecast_text": "0.2\" expected in next 48 hours",
      "last_updated": "2026-01-05T13:04:09.212Z"
    },
    {
      "name": "Sunshine Village",
      "lat": 51.1128,
      "lng": -115.7631,
      "snowfall_24hr": 0,
      "snowfall_48hr": 0.8,
      "snowfall_7day": 1.1,
      "forecast_text": "0.8\" expected in next 48 hours",
      "last_updated": "2026-01-05T13:04:09.448Z"
    },
    {
      "name": "Mount Norquay",
      "lat": 51.2094,
      "lng": -115.5797,
      "snowfall_24hr": 0,
      "snowfall_48hr": 0.3,
      "snowfall_7day": 0.4,
      "forecast_text": "0.3\" expected in next 48 hours",
      "last_updated": "2026-01-05T13:04:09.684Z"
    },
    {
      "name": "Nakiska Ski Area",
      "lat": 50.9042,
      "lng": -115.0856,
      "snowfall_24hr": 1.2,
      "snowfall_48hr": 1.5,
      "snowfall_7day": 1.5,
      "forecast_text": "1.2\" expected in next 24 hours",
      "last_updated": "2026-01-05T13:04:09.920Z"
    },
    {
      "name": "Le Massif de Charlevoix",
      "lat": 47.3389,
      "lng": -70.6375,
      "snowfall_24hr": 0,
      "snowfall_48hr": 0,
      "snowfall_7day": 2.8,
      "forecast_text": "2.8\" expected in next 7 days",
      "last_updated": "2026-01-05T13:04:10.157Z"
    },
    {
      "name": "Blue Mountain Resort",
      "lat": 44.5067,
      "lng": -80.3158,
      "snowfall_24hr": 1.1,
      "snowfall_48hr": 1.1,
      "snowfall_7day": 1.4,
      "forecast_text": "1.1\" expected in next 24 hours",
      "last_updated": "2026-01-05T13:04:10.409Z"
    }
  ]
}