{
  "generated_at": "2026-01-05T18:45:10.966Z",
  "total_resorts": 115,
  "data_source": "Open-Meteo",
  "resorts": [
    {
      "name": "Whistler Blackcomb",
      "lat": 50.1163,
      "lng": -122.9574,
      "snowfall_24hr": 0.4,
      "snowfall_48hr": 5.2,
      "snowfall_7day": 14.8,
      "forecast_text": "0.4\" expected in next 24 hours",
      "last_updated": "2026-01-05T18:44:43.077Z"
    },
    {
      "name": "Vail",
      "lat": 39.6403,
      "lng": -106.3742,
      "snowfall_24hr": 0.8,
      "snowfall_48hr": 0.9,
      "snowfall_7day": 3.1,
      "forecast_text": "0.8\" expected in next 24 hours",
      "last_updated": "2026-01-05T18:44:43.315Z"
    },
    {
      "name": "Park City",
      "lat": 40.6514,
      "lng": -111.5079,
      "snowfall_24hr": 3.4,
      "snowfall_48hr": 3.4,
      "snowfall_7day": 8.3,
      "forecast_text": "3.4\" expected in next 24 hours",
      "last_updated": "2026-01-05T18:44:43.552Z"
    },
    {
      "name": "Breckenridge",
      "lat": 39.4817,
      "lng": -106.0384,
      "snowfall_24hr": 0.9,
      "snowfall_48hr": 1.1,
      "snowfall_7day": 2.6,
      "forecast_text": "0.9\" expected in next 24 hours",
      "last_updated": "2026-01-05T18:44:43.788Z"
    },
    {
      "name": "Heavenly",
      "lat": 38.935,
      "lng": -119.9403,
      "snowfall_24hr": 0,
      "snowfall_48hr": 0,
      "snowfall_7day": 0.1,
      "forecast_text": "0.0\" expected in next 24 hours",
      "last_updated": "2026-01-05T18:44:44.026Z"
    },
    {
      "name": "Aspen Snowmass",
      "lat": 39.1911,
      "lng": -106.8175,
      "snowfall_24hr": 1.8,
      "snowfall_48hr": 1.8,
      "snowfall_7day": 4.1,
      "forecast_text": "1.8\" expected in next 24 hours",
      "last_updated": "2026-01-05T18:44:44.266Z"
    },
    {
      "name": "Jackson Hole",
      "lat": 43.5875,
      "lng": -110.8278,
      "snowfall_24hr": 0.7,
      "snowfall_48hr": 1.2,
      "snowfall_7day": 5.1,
      "forecast_text": "0.7\" expected in next 24 hours",
      "last_updated": "2026-01-05T18:44:44.507Z"
    },
    {
      "name": "Banff Sunshine",
      "lat": 51.1158,
      "lng": -115.7631,
      "snowfall_24hr": 0.1,
      "snowfall_48hr": 1.2,
      "snowfall_7day": 1.3,
      "forecast_text": "0.1\" expected in next 24 hours",
      "last_updated": "2026-01-05T18:44:44.744Z"
    },
    {
      "name": "Lake Louise",
      "lat": 51.4254,
      "lng": -116.1773,
      "snowfall_24hr": 0,
      "snowfall_48hr": 0.6,
      "snowfall_7day": 0.7,
      "forecast_text": "0.6\" expected in next 48 hours",
      "last_updated": "2026-01-05T18:44:44.983Z"
    },
    {
      "name": "Big Sky",
      "lat": 45.2846,
      "lng": -111.4008,
      "snowfall_24hr": 0.1,
      "snowfall_48hr": 0.1,
      "snowfall_7day": 1.9,
      "forecast_text": "0.1\" expected in next 24 hours",
      "last_updated": "2026-01-05T18:44:45.219Z"
    },
    {
      "name": "Steamboat",
      "lat": 40.458,
      "lng": -106.8047,
      "snowfall_24hr": 0.4,
      "snowfall_48hr": 0.4,
      "snowfall_7day": 2.7,
      "forecast_text": "0.4\" expected in next 24 hours",
      "last_updated": "2026-01-05T18:44:45.455Z"
    },
    {
      "name": "Mammoth Mountain",
      "lat": 37.6308,
      "lng": -119.0326,
      "snowfall_24hr": 0,
      "snowfall_48hr": 0,
      "snowfall_7day": 0,
      "forecast_text": "No snow expected",
      "last_updated": "2026-01-05T18:44:45.692Z"
    },
    {
      "name": "Squaw Valley",
      "lat": 39.197,
      "lng": -120.2356,
      "snowfall_24hr": 0.7,
      "snowfall_48hr": 0.7,
      "snowfall_7day": 1.5,
      "forecast_text": "0.7\" expected in next 24 hours",
      "last_updated": "2026-01-05T18:44:45.928Z"
    },
    {
      "name": "Telluride",
      "lat": 37.9375,
      "lng": -107.8123,
      "snowfall_24hr": 0.1,
      "snowfall_48hr": 0.1,
      "snowfall_7day": 3.6,
      "forecast_text": "0.1\" expected in next 24 hours",
      "last_updated": "2026-01-05T18:44:46.165Z"
    },
    {
      "name": "Sun Valley",
      "lat": 43.6966,
      "lng": -114.3553,
      "snowfall_24hr": 0.3,
      "snowfall_48hr": 0.8,
      "snowfall_7day": 1.5,
      "forecast_text": "0.3\" expected in next 24 hours",
      "last_updated": "2026-01-05T18:44:46.400Z"
    },
    {
      "name": "Deer Valley",
      "lat": 40.6374,
      "lng": -111.4783,
      "snowfall_24hr": 4.2,
      "snowfall_48hr": 4.2,
      "snowfall_7day": 6.9,
      "forecast_text": "4.2\" expected in next 24 hours",
      "last_updated": "2026-01-05T18:44:46.636Z"
    },
    {
      "name": "Killington",
      "lat": 43.6046,
      "lng": -72.822,
      "snowfall_24hr": 1.3,
      "snowfall_48hr": 2,
      "snowfall_7day": 4.7,
      "forecast_text": "1.3\" expected in next 24 hours",
      "last_updated": "2026-01-05T18:44:46.873Z"
    },
    {
      "name": "Stowe",
      "lat": 44.5303,
      "lng": -72.7817,
      "snowfall_24hr": 1.1,
      "snowfall_48hr": 1.7,
      "snowfall_7day": 5.4,
      "forecast_text": "1.1\" expected in next 24 hours",
      "last_updated": "2026-01-05T18:44:47.108Z"
    },
    {
      "name": "Alta",
      "lat": 40.5885,
      "lng": -111.6376,
      "snowfall_24hr": 3.9,
      "snowfall_48hr": 3.9,
      "snowfall_7day": 9.6,
      "forecast_text": "3.9\" expected in next 24 hours",
      "last_updated": "2026-01-05T18:44:47.344Z"
    },
    {
      "name": "Snowbird",
      "lat": 40.5803,
      "lng": -111.6573,
      "snowfall_24hr": 2.9,
      "snowfall_48hr": 2.9,
      "snowfall_7day": 8.5,
      "forecast_text": "2.9\" expected in next 24 hours",
      "last_updated": "2026-01-05T18:44:47.581Z"
    },
    {
      "name": "Taos",
      "lat": 36.5924,
      "lng": -105.4467,
      "snowfall_24hr": 0,
      "snowfall_48hr": 0,
      "snowfall_7day": 1.1,
      "forecast_text": "1.1\" expected in next 7 days",
      "last_updated": "2026-01-05T18:44:47.823Z"
    },
    {
      "name": "Copper Mountain",
      "lat": 39.5022,
      "lng": -106.1506,
      "snowfall_24hr": 1,
      "snowfall_48hr": 1.2,
      "snowfall_7day": 3.1,
      "forecast_text": "1.0\" expected in next 24 hours",
      "last_updated": "2026-01-05T18:44:48.059Z"
    },
    {
      "name": "Winter Park",
      "lat": 39.8868,
      "lng": -105.7625,
      "snowfall_24hr": 1.1,
      "snowfall_48hr": 1.2,
      "snowfall_7day": 3.3,
      "forecast_text": "1.1\" expected in next 24 hours",
      "last_updated": "2026-01-05T18:44:48.294Z"
    },
    {
      "name": "Keystone",
      "lat": 39.605,
      "lng": -105.9347,
      "snowfall_24hr": 0.4,
      "snowfall_48hr": 0.6,
      "snowfall_7day": 2.3,
      "forecast_text": "0.4\" expected in next 24 hours",
      "last_updated": "2026-01-05T18:44:48.530Z"
    },
    {
      "name": "Arapahoe Basin",
      "lat": 39.6426,
      "lng": -105.8717,
      "snowfall_24hr": 0.5,
      "snowfall_48hr": 0.7,
      "snowfall_7day": 2.7,
      "forecast_text": "0.5\" expected in next 24 hours",
      "last_updated": "2026-01-05T18:44:48.764Z"
    },
    {
      "name": "Crested Butte",
      "lat": 38.8997,
      "lng": -106.9653,
      "snowfall_24hr": 0.8,
      "snowfall_48hr": 0.9,
      "snowfall_7day": 3.4,
      "forecast_text": "0.8\" expected in next 24 hours",
      "last_updated": "2026-01-05T18:44:49.001Z"
    },
    {
      "name": "Loveland",
      "lat": 39.6803,
      "lng": -105.8978,
      "snowfall_24hr": 0.7,
      "snowfall_48hr": 0.8,
      "snowfall_7day": 2.6,
      "forecast_text": "0.7\" expected in next 24 hours",
      "last_updated": "2026-01-05T18:44:49.236Z"
    },
    {
      "name": "Mt. Bachelor",
      "lat": 43.979,
      "lng": -121.688,
      "snowfall_24hr": 0.2,
      "snowfall_48hr": 3.3,
      "snowfall_7day": 14.4,
      "forecast_text": "0.2\" expected in next 24 hours",
      "last_updated": "2026-01-05T18:44:49.471Z"
    },
    {
      "name": "Crystal Mountain",
      "lat": 46.9358,
      "lng": -121.4742,
      "snowfall_24hr": 0.2,
      "snowfall_48hr": 6.4,
      "snowfall_7day": 13.7,
      "forecast_text": "0.2\" expected in next 24 hours",
      "last_updated": "2026-01-05T18:44:49.706Z"
    },
    {
      "name": "Stevens Pass",
      "lat": 47.7453,
      "lng": -121.0892,
      "snowfall_24hr": 2,
      "snowfall_48hr": 12.4,
      "snowfall_7day": 23,
      "forecast_text": "2.0\" expected in next 24 hours",
      "last_updated": "2026-01-05T18:44:49.941Z"
    },
    {
      "name": "Mt. Baker",
      "lat": 48.8597,
      "lng": -121.6686,
      "snowfall_24hr": 1.2,
      "snowfall_48hr": 9.8,
      "snowfall_7day": 22.7,
      "forecast_text": "1.2\" expected in next 24 hours",
      "last_updated": "2026-01-05T18:44:50.177Z"
    },
    {
      "name": "Schweitzer",
      "lat": 48.3642,
      "lng": -116.6228,
      "snowfall_24hr": 0.1,
      "snowfall_48hr": 4.7,
      "snowfall_7day": 8.4,
      "forecast_text": "0.1\" expected in next 24 hours",
      "last_updated": "2026-01-05T18:44:50.412Z"
    },
    {
      "name": "Sun Peaks",
      "lat": 50.8817,
      "lng": -119.8847,
      "snowfall_24hr": 0,
      "snowfall_48hr": 0,
      "snowfall_7day": 0.9,
      "forecast_text": "0.9\" expected in next 7 days",
      "last_updated": "2026-01-05T18:44:50.648Z"
    },
    {
      "name": "Revelstoke",
      "lat": 50.9981,
      "lng": -118.1956,
      "snowfall_24hr": 0.4,
      "snowfall_48hr": 2.4,
      "snowfall_7day": 7.1,
      "forecast_text": "0.4\" expected in next 24 hours",
      "last_updated": "2026-01-05T18:44:50.884Z"
    },
    {
      "name": "Fernie",
      "lat": 49.4653,
      "lng": -115.0636,
      "snowfall_24hr": 0,
      "snowfall_48hr": 0.5,
      "snowfall_7day": 4.2,
      "forecast_text": "0.5\" expected in next 48 hours",
      "last_updated": "2026-01-05T18:44:51.120Z"
    },
    {
      "name": "Big White",
      "lat": 49.7311,
      "lng": -118.935,
      "snowfall_24hr": 0.3,
      "snowfall_48hr": 1.6,
      "snowfall_7day": 2,
      "forecast_text": "0.3\" expected in next 24 hours",
      "last_updated": "2026-01-05T18:44:51.357Z"
    },
    {
      "name": "Kicking Horse",
      "lat": 51.2514,
      "lng": -117.0492,
      "snowfall_24hr": 0.1,
      "snowfall_48hr": 1.3,
      "snowfall_7day": 2,
      "forecast_text": "0.1\" expected in next 24 hours",
      "last_updated": "2026-01-05T18:44:51.592Z"
    },
    {
      "name": "Mont Tremblant",
      "lat": 46.2094,
      "lng": -74.5847,
      "snowfall_24hr": 0.4,
      "snowfall_48hr": 0.4,
      "snowfall_7day": 1,
      "forecast_text": "0.4\" expected in next 24 hours",
      "last_updated": "2026-01-05T18:44:51.827Z"
    },
    {
      "name": "Blue Mountain",
      "lat": 44.5075,
      "lng": -80.3231,
      "snowfall_24hr": 1.5,
      "snowfall_48hr": 2.4,
      "snowfall_7day": 2.7,
      "forecast_text": "1.5\" expected in next 24 hours",
      "last_updated": "2026-01-05T18:44:52.063Z"
    },
    {
      "name": "Sugarloaf",
      "lat": 45.0314,
      "lng": -70.3139,
      "snowfall_24hr": 0.5,
      "snowfall_48hr": 0.6,
      "snowfall_7day": 2.6,
      "forecast_text": "0.5\" expected in next 24 hours",
      "last_updated": "2026-01-05T18:44:52.300Z"
    },
    {
      "name": "Sunday River",
      "lat": 44.4697,
      "lng": -70.8561,
      "snowfall_24hr": 0.6,
      "snowfall_48hr": 0.6,
      "snowfall_7day": 2.8,
      "forecast_text": "0.6\" expected in next 24 hours",
      "last_updated": "2026-01-05T18:44:52.535Z"
    },
    {
      "name": "Sugarbush",
      "lat": 44.135,
      "lng": -72.9017,
      "snowfall_24hr": 1,
      "snowfall_48hr": 1.5,
      "snowfall_7day": 3.7,
      "forecast_text": "1.0\" expected in next 24 hours",
      "last_updated": "2026-01-05T18:44:52.771Z"
    },
    {
      "name": "Stratton",
      "lat": 43.1133,
      "lng": -72.9083,
      "snowfall_24hr": 1.1,
      "snowfall_48hr": 2.3,
      "snowfall_7day": 5.5,
      "forecast_text": "1.1\" expected in next 24 hours",
      "last_updated": "2026-01-05T18:44:53.010Z"
    },
    {
      "name": "Okemo",
      "lat": 43.4017,
      "lng": -72.7167,
      "snowfall_24hr": 1,
      "snowfall_48hr": 1.6,
      "snowfall_7day": 3.7,
      "forecast_text": "1.0\" expected in next 24 hours",
      "last_updated": "2026-01-05T18:44:53.246Z"
    },
    {
      "name": "Jay Peak",
      "lat": 44.9378,
      "lng": -72.5036,
      "snowfall_24hr": 0.7,
      "snowfall_48hr": 0.9,
      "snowfall_7day": 4.6,
      "forecast_text": "0.7\" expected in next 24 hours",
      "last_updated": "2026-01-05T18:44:53.484Z"
    },
    {
      "name": "Smugglers' Notch",
      "lat": 44.5458,
      "lng": -72.7872,
      "snowfall_24hr": 1.2,
      "snowfall_48hr": 1.9,
      "snowfall_7day": 5.6,
      "forecast_text": "1.2\" expected in next 24 hours",
      "last_updated": "2026-01-05T18:44:53.719Z"
    },
    {
      "name": "Loon Mountain",
      "lat": 44.0369,
      "lng": -71.6206,
      "snowfall_24hr": 0.7,
      "snowfall_48hr": 1.2,
      "snowfall_7day": 3.6,
      "forecast_text": "0.7\" expected in next 24 hours",
      "last_updated": "2026-01-05T18:44:53.954Z"
    },
    {
      "name": "Cannon Mountain",
      "lat": 44.1572,
      "lng": -71.6978,
      "snowfall_24hr": 0.8,
      "snowfall_48hr": 1.2,
      "snowfall_7day": 4.1,
      "forecast_text": "0.8\" expected in next 24 hours",
      "last_updated": "2026-01-05T18:44:54.192Z"
    },
    {
      "name": "Wildcat Mountain",
      "lat": 44.2636,
      "lng": -71.2328,
      "snowfall_24hr": 0.6,
      "snowfall_48hr": 0.8,
      "snowfall_7day": 3.5,
      "forecast_text": "0.6\" expected in next 24 hours",
      "last_updated": "2026-01-05T18:44:54.428Z"
    },
    {
      "name": "Bretton Woods",
      "lat": 44.2633,
      "lng": -71.4439,
      "snowfall_24hr": 0.4,
      "snowfall_48hr": 0.5,
      "snowfall_7day": 3.4,
      "forecast_text": "0.4\" expected in next 24 hours",
      "last_updated": "2026-01-05T18:44:54.665Z"
    },
    {
      "name": "Snowbasin",
      "lat": 41.2156,
      "lng": -111.8567,
      "snowfall_24hr": 1.2,
      "snowfall_48hr": 1.2,
      "snowfall_7day": 3.5,
      "forecast_text": "1.2\" expected in next 24 hours",
      "last_updated": "2026-01-05T18:44:54.901Z"
    },
    {
      "name": "Powder Mountain",
      "lat": 41.3814,
      "lng": -111.7806,
      "snowfall_24hr": 3,
      "snowfall_48hr": 3,
      "snowfall_7day": 6.7,
      "forecast_text": "3.0\" expected in next 24 hours",
      "last_updated": "2026-01-05T18:44:55.136Z"
    },
    {
      "name": "Solitude",
      "lat": 40.62,
      "lng": -111.5917,
      "snowfall_24hr": 2.8,
      "snowfall_48hr": 2.8,
      "snowfall_7day": 7.1,
      "forecast_text": "2.8\" expected in next 24 hours",
      "last_updated": "2026-01-05T18:44:55.372Z"
    },
    {
      "name": "Brighton",
      "lat": 40.5981,
      "lng": -111.5831,
      "snowfall_24hr": 4.6,
      "snowfall_48hr": 4.6,
      "snowfall_7day": 8.9,
      "forecast_text": "4.6\" expected in next 24 hours",
      "last_updated": "2026-01-05T18:44:55.607Z"
    },
    {
      "name": "Snowmass",
      "lat": 39.2133,
      "lng": -106.9378,
      "snowfall_24hr": 2,
      "snowfall_48hr": 2,
      "snowfall_7day": 4.3,
      "forecast_text": "2.0\" expected in next 24 hours",
      "last_updated": "2026-01-05T18:44:55.843Z"
    },
    {
      "name": "Aspen Highlands",
      "lat": 39.1825,
      "lng": -106.8553,
      "snowfall_24hr": 1.8,
      "snowfall_48hr": 1.8,
      "snowfall_7day": 4.1,
      "forecast_text": "1.8\" expected in next 24 hours",
      "last_updated": "2026-01-05T18:44:56.077Z"
    },
    {
      "name": "Buttermilk",
      "lat": 39.2078,
      "lng": -106.8608,
      "snowfall_24hr": 1.8,
      "snowfall_48hr": 1.8,
      "snowfall_7day": 4.1,
      "forecast_text": "1.8\" expected in next 24 hours",
      "last_updated": "2026-01-05T18:44:56.313Z"
    },
    {
      "name": "Beaver Creek",
      "lat": 39.6042,
      "lng": -106.5164,
      "snowfall_24hr": 0.6,
      "snowfall_48hr": 0.6,
      "snowfall_7day": 2.3,
      "forecast_text": "0.6\" expected in next 24 hours",
      "last_updated": "2026-01-05T18:44:56.548Z"
    },
    {
      "name": "Purgatory",
      "lat": 37.6303,
      "lng": -107.8139,
      "snowfall_24hr": 0.2,
      "snowfall_48hr": 0.2,
      "snowfall_7day": 0.5,
      "forecast_text": "0.2\" expected in next 24 hours",
      "last_updated": "2026-01-05T18:44:56.784Z"
    },
    {
      "name": "Wolf Creek",
      "lat": 37.4722,
      "lng": -106.7931,
      "snowfall_24hr": 0.4,
      "snowfall_48hr": 0.4,
      "snowfall_7day": 2,
      "forecast_text": "0.4\" expected in next 24 hours",
      "last_updated": "2026-01-05T18:44:57.019Z"
    },
    {
      "name": "Monarch Mountain",
      "lat": 38.5117,
      "lng": -106.3317,
      "snowfall_24hr": 0.1,
      "snowfall_48hr": 0.1,
      "snowfall_7day": 0.5,
      "forecast_text": "0.1\" expected in next 24 hours",
      "last_updated": "2026-01-05T18:44:57.252Z"
    },
    {
      "name": "Eldora",
      "lat": 39.9372,
      "lng": -105.5828,
      "snowfall_24hr": 1.7,
      "snowfall_48hr": 1.9,
      "snowfall_7day": 4,
      "forecast_text": "1.7\" expected in next 24 hours",
      "last_updated": "2026-01-05T18:44:57.487Z"
    },
    {
      "name": "Grand Targhee",
      "lat": 43.7886,
      "lng": -110.9586,
      "snowfall_24hr": 1.7,
      "snowfall_48hr": 2.3,
      "snowfall_7day": 6.5,
      "forecast_text": "1.7\" expected in next 24 hours",
      "last_updated": "2026-01-05T18:44:57.720Z"
    },
    {
      "name": "Snow King",
      "lat": 43.4783,
      "lng": -110.7628,
      "snowfall_24hr": 0.7,
      "snowfall_48hr": 1.1,
      "snowfall_7day": 2.9,
      "forecast_text": "0.7\" expected in next 24 hours",
      "last_updated": "2026-01-05T18:44:57.955Z"
    },
    {
      "name": "Bridger Bowl",
      "lat": 45.8167,
      "lng": -110.8969,
      "snowfall_24hr": 0,
      "snowfall_48hr": 0,
      "snowfall_7day": 1.6,
      "forecast_text": "1.6\" expected in next 7 days",
      "last_updated": "2026-01-05T18:44:58.190Z"
    },
    {
      "name": "Big Mountain",
      "lat": 48.4928,
      "lng": -114.3483,
      "snowfall_24hr": 0.2,
      "snowfall_48hr": 3.2,
      "snowfall_7day": 6.8,
      "forecast_text": "0.2\" expected in next 24 hours",
      "last_updated": "2026-01-05T18:44:58.426Z"
    },
    {
      "name": "Snowbowl",
      "lat": 46.9417,
      "lng": -113.9492,
      "snowfall_24hr": 0.3,
      "snowfall_48hr": 0.3,
      "snowfall_7day": 1.2,
      "forecast_text": "0.3\" expected in next 24 hours",
      "last_updated": "2026-01-05T18:44:58.662Z"
    },
    {
      "name": "Bogus Basin",
      "lat": 43.7725,
      "lng": -116.0939,
      "snowfall_24hr": 0.2,
      "snowfall_48hr": 3.3,
      "snowfall_7day": 5.1,
      "forecast_text": "0.2\" expected in next 24 hours",
      "last_updated": "2026-01-05T18:44:58.897Z"
    },
    {
      "name": "Tamarack",
      "lat": 44.6922,
      "lng": -116.1344,
      "snowfall_24hr": 0.8,
      "snowfall_48hr": 4.7,
      "snowfall_7day": 8.5,
      "forecast_text": "0.8\" expected in next 24 hours",
      "last_updated": "2026-01-05T18:44:59.133Z"
    },
    {
      "name": "Silver Mountain",
      "lat": 47.6764,
      "lng": -116.0703,
      "snowfall_24hr": 0,
      "snowfall_48hr": 2.8,
      "snowfall_7day": 6.7,
      "forecast_text": "2.8\" expected in next 48 hours",
      "last_updated": "2026-01-05T18:44:59.369Z"
    },
    {
      "name": "Mt. Hood Meadows",
      "lat": 45.3319,
      "lng": -121.6653,
      "snowfall_24hr": 0,
      "snowfall_48hr": 11.7,
      "snowfall_7day": 25.1,
      "forecast_text": "11.7\" expected in next 48 hours",
      "last_updated": "2026-01-05T18:44:59.604Z"
    },
    {
      "name": "Timberline",
      "lat": 45.3306,
      "lng": -121.7108,
      "snowfall_24hr": 0,
      "snowfall_48hr": 13,
      "snowfall_7day": 27.4,
      "forecast_text": "13.0\" expected in next 48 hours",
      "last_updated": "2026-01-05T18:44:59.840Z"
    },
    {
      "name": "Willamette Pass",
      "lat": 43.6006,
      "lng": -122.0336,
      "snowfall_24hr": 0.6,
      "snowfall_48hr": 0.9,
      "snowfall_7day": 11,
      "forecast_text": "0.6\" expected in next 24 hours",
      "last_updated": "2026-01-05T18:45:00.075Z"
    },
    {
      "name": "Mission Ridge",
      "lat": 47.2917,
      "lng": -120.3997,
      "snowfall_24hr": 0,
      "snowfall_48hr": 3.9,
      "snowfall_7day": 4.2,
      "forecast_text": "3.9\" expected in next 48 hours",
      "last_updated": "2026-01-05T18:45:00.353Z"
    },
    {
      "name": "Snoqualmie",
      "lat": 47.4219,
      "lng": -121.4136,
      "snowfall_24hr": 0.6,
      "snowfall_48hr": 6.4,
      "snowfall_7day": 17.9,
      "forecast_text": "0.6\" expected in next 24 hours",
      "last_updated": "2026-01-05T18:45:00.629Z"
    },
    {
      "name": "Mt. Spokane",
      "lat": 47.9208,
      "lng": -117.0856,
      "snowfall_24hr": 0.1,
      "snowfall_48hr": 4.5,
      "snowfall_7day": 7,
      "forecast_text": "0.1\" expected in next 24 hours",
      "last_updated": "2026-01-05T18:45:00.881Z"
    },
    {
      "name": "White Pass",
      "lat": 46.6394,
      "lng": -121.3908,
      "snowfall_24hr": 0.1,
      "snowfall_48hr": 8.9,
      "snowfall_7day": 17.8,
      "forecast_text": "0.1\" expected in next 24 hours",
      "last_updated": "2026-01-05T18:45:01.138Z"
    },
    {
      "name": "49 Degrees North",
      "lat": 48.7511,
      "lng": -117.6369,
      "snowfall_24hr": 0,
      "snowfall_48hr": 0.2,
      "snowfall_7day": 1.9,
      "forecast_text": "0.2\" expected in next 48 hours",
      "last_updated": "2026-01-05T18:45:01.386Z"
    },
    {
      "name": "Red Mountain",
      "lat": 49.0917,
      "lng": -117.8233,
      "snowfall_24hr": 0,
      "snowfall_48hr": 1.7,
      "snowfall_7day": 2.6,
      "forecast_text": "1.7\" expected in next 48 hours",
      "last_updated": "2026-01-05T18:45:01.625Z"
    },
    {
      "name": "Whitewater",
      "lat": 49.5394,
      "lng": -117.2717,
      "snowfall_24hr": 0,
      "snowfall_48hr": 0.7,
      "snowfall_7day": 2.9,
      "forecast_text": "0.7\" expected in next 48 hours",
      "last_updated": "2026-01-05T18:45:01.864Z"
    },
    {
      "name": "Panorama",
      "lat": 50.8036,
      "lng": -116.0533,
      "snowfall_24hr": 0.2,
      "snowfall_48hr": 1.2,
      "snowfall_7day": 1.6,
      "forecast_text": "0.2\" expected in next 24 hours",
      "last_updated": "2026-01-05T18:45:02.099Z"
    },
    {
      "name": "Marmot Basin",
      "lat": 52.8236,
      "lng": -118.0747,
      "snowfall_24hr": 0,
      "snowfall_48hr": 0.2,
      "snowfall_7day": 0.5,
      "forecast_text": "0.2\" expected in next 48 hours",
      "last_updated": "2026-01-05T18:45:02.338Z"
    },
    {
      "name": "Nakiska",
      "lat": 50.98,
      "lng": -115.0733,
      "snowfall_24hr": 0.3,
      "snowfall_48hr": 1.2,
      "snowfall_7day": 1.4,
      "forecast_text": "0.3\" expected in next 24 hours",
      "last_updated": "2026-01-05T18:45:02.573Z"
    },
    {
      "name": "Castle Mountain",
      "lat": 49.4058,
      "lng": -114.5169,
      "snowfall_24hr": 0.2,
      "snowfall_48hr": 1.9,
      "snowfall_7day": 2.8,
      "forecast_text": "0.2\" expected in next 24 hours",
      "last_updated": "2026-01-05T18:45:02.810Z"
    },
    {
      "name": "Norquay",
      "lat": 51.1967,
      "lng": -115.5531,
      "snowfall_24hr": 0.1,
      "snowfall_48hr": 0.6,
      "snowfall_7day": 0.7,
      "forecast_text": "0.1\" expected in next 24 hours",
      "last_updated": "2026-01-05T18:45:03.045Z"
    },
    {
      "name": "Le Massif",
      "lat": 47.3136,
      "lng": -70.6358,
      "snowfall_24hr": 0,
      "snowfall_48hr": 0,
      "snowfall_7day": 1.9,
      "forecast_text": "1.9\" expected in next 7 days",
      "last_updated": "2026-01-05T18:45:03.283Z"
    },
    {
      "name": "Calabogie",
      "lat": 45.2906,
      "lng": -76.7019,
      "snowfall_24hr": 1,
      "snowfall_48hr": 1.5,
      "snowfall_7day": 1.7,
      "forecast_text": "1.0\" expected in next 24 hours",
      "last_updated": "2026-01-05T18:45:03.518Z"
    },
    {
      "name": "Sierra-at-Tahoe",
      "lat": 38.7986,
      "lng": -120.0828,
      "snowfall_24hr": 0.2,
      "snowfall_48hr": 0.2,
      "snowfall_7day": 0.9,
      "forecast_text": "0.2\" expected in next 24 hours",
      "last_updated": "2026-01-05T18:45:03.753Z"
    },
    {
      "name": "Kirkwood",
      "lat": 38.6867,
      "lng": -120.0656,
      "snowfall_24hr": 0.4,
      "snowfall_48hr": 0.4,
      "snowfall_7day": 1.2,
      "forecast_text": "0.4\" expected in next 24 hours",
      "last_updated": "2026-01-05T18:45:03.988Z"
    },
    {
      "name": "Northstar",
      "lat": 39.2733,
      "lng": -120.1211,
      "snowfall_24hr": 0.2,
      "snowfall_48hr": 0.2,
      "snowfall_7day": 0.5,
      "forecast_text": "0.2\" expected in next 24 hours",
      "last_updated": "2026-01-05T18:45:04.222Z"
    },
    {
      "name": "Homewood",
      "lat": 39.0833,
      "lng": -120.1667,
      "snowfall_24hr": 0.4,
      "snowfall_48hr": 0.4,
      "snowfall_7day": 0.8,
      "forecast_text": "0.4\" expected in next 24 hours",
      "last_updated": "2026-01-05T18:45:04.457Z"
    },
    {
      "name": "Mt. Rose",
      "lat": 39.3397,
      "lng": -119.8894,
      "snowfall_24hr": 0,
      "snowfall_48hr": 0,
      "snowfall_7day": 0.2,
      "forecast_text": "0.0\" expected in next 24 hours",
      "last_updated": "2026-01-05T18:45:04.693Z"
    },
    {
      "name": "Diamond Peak",
      "lat": 39.2525,
      "lng": -119.9169,
      "snowfall_24hr": 0,
      "snowfall_48hr": 0,
      "snowfall_7day": 0.2,
      "forecast_text": "0.2\" expected in next 7 days",
      "last_updated": "2026-01-05T18:45:04.928Z"
    },
    {
      "name": "June Mountain",
      "lat": 37.7853,
      "lng": -119.0781,
      "snowfall_24hr": 0,
      "snowfall_48hr": 0,
      "snowfall_7day": 0,
      "forecast_text": "No snow expected",
      "last_updated": "2026-01-05T18:45:05.163Z"
    },
    {
      "name": "Bear Mountain",
      "lat": 34.235,
      "lng": -116.865,
      "snowfall_24hr": 0.2,
      "snowfall_48hr": 0.2,
      "snowfall_7day": 0.2,
      "forecast_text": "0.2\" expected in next 24 hours",
      "last_updated": "2026-01-05T18:45:05.399Z"
    },
    {
      "name": "Snow Summit",
      "lat": 34.2306,
      "lng": -116.8886,
      "snowfall_24hr": 0.3,
      "snowfall_48hr": 0.3,
      "snowfall_7day": 0.3,
      "forecast_text": "0.3\" expected in next 24 hours",
      "last_updated": "2026-01-05T18:45:05.634Z"
    },
    {
      "name": "Mountain High",
      "lat": 34.3811,
      "lng": -117.6881,
      "snowfall_24hr": 0,
      "snowfall_48hr": 0,
      "snowfall_7day": 0,
      "forecast_text": "0.0\" expected in next 24 hours",
      "last_updated": "2026-01-05T18:45:05.870Z"
    },
    {
      "name": "Ski Santa Fe",
      "lat": 35.7869,
      "lng": -105.7961,
      "snowfall_24hr": 0,
      "snowfall_48hr": 0,
      "snowfall_7day": 1.7,
      "forecast_text": "1.7\" expected in next 7 days",
      "last_updated": "2026-01-05T18:45:06.105Z"
    },
    {
      "name": "Angel Fire",
      "lat": 36.3975,
      "lng": -105.2886,
      "snowfall_24hr": 0,
      "snowfall_48hr": 0,
      "snowfall_7day": 0.4,
      "forecast_text": "0.4\" expected in next 7 days",
      "last_updated": "2026-01-05T18:45:06.340Z"
    },
    {
      "name": "Whiteface Mountain",
      "lat": 44.3659,
      "lng": -73.9024,
      "snowfall_24hr": 0.7,
      "snowfall_48hr": 1.4,
      "snowfall_7day": 2.9,
      "forecast_text": "0.7\" expected in next 24 hours",
      "last_updated": "2026-01-05T18:45:06.578Z"
    },
    {
      "name": "Bristol Mountain",
      "lat": 42.7455,
      "lng": -77.4016,
      "snowfall_24hr": 0.2,
      "snowfall_48hr": 0.2,
      "snowfall_7day": 0.7,
      "forecast_text": "0.2\" expected in next 24 hours",
      "last_updated": "2026-01-05T18:45:07.202Z"
    },
    {
      "name": "Revelstoke Mountain Resort",
      "lat": 50.9981,
      "lng": -118.1958,
      "snowfall_24hr": 0.4,
      "snowfall_48hr": 2.4,
      "snowfall_7day": 7.1,
      "forecast_text": "0.4\" expected in next 24 hours",
      "last_updated": "2026-01-05T18:45:07.435Z"
    },
    {
      "name": "Big White Ski Resort",
      "lat": 49.7308,
      "lng": -118.9357,
      "snowfall_24hr": 0.3,
      "snowfall_48hr": 1.6,
      "snowfall_7day": 2,
      "forecast_text": "0.3\" expected in next 24 hours",
      "last_updated": "2026-01-05T18:45:07.668Z"
    },
    {
      "name": "Sun Peaks Resort",
      "lat": 50.8847,
      "lng": -119.8892,
      "snowfall_24hr": 0,
      "snowfall_48hr": 0,
      "snowfall_7day": 0.9,
      "forecast_text": "0.9\" expected in next 7 days",
      "last_updated": "2026-01-05T18:45:07.902Z"
    },
    {
      "name": "Fernie Alpine Resort",
      "lat": 49.4651,
      "lng": -115.0764,
      "snowfall_24hr": 0,
      "snowfall_48hr": 0.5,
      "snowfall_7day": 4.2,
      "forecast_text": "0.5\" expected in next 48 hours",
      "last_updated": "2026-01-05T18:45:08.135Z"
    },
    {
      "name": "Kicking Horse Mountain Resort",
      "lat": 51.2983,
      "lng": -116.955,
      "snowfall_24hr": 0,
      "snowfall_48hr": 0.7,
      "snowfall_7day": 1.1,
      "forecast_text": "0.7\" expected in next 48 hours",
      "last_updated": "2026-01-05T18:45:08.368Z"
    },
    {
      "name": "Panorama Mountain Resort",
      "lat": 50.9806,
      "lng": -116.0972,
      "snowfall_24hr": 0,
      "snowfall_48hr": 0.6,
      "snowfall_7day": 1,
      "forecast_text": "0.0\" expected in next 24 hours",
      "last_updated": "2026-01-05T18:45:08.601Z"
    },
    {
      "name": "RED Mountain Resort",
      "lat": 49.0878,
      "lng": -117.8197,
      "snowfall_24hr": 0,
      "snowfall_48hr": 1.8,
      "snowfall_7day": 2.6,
      "forecast_text": "1.8\" expected in next 48 hours",
      "last_updated": "2026-01-05T18:45:08.833Z"
    },
    {
      "name": "SilverStar Mountain Resort",
      "lat": 50.4,
      "lng": -119.0833,
      "snowfall_24hr": 0.2,
      "snowfall_48hr": 1.4,
      "snowfall_7day": 1.9,
      "forecast_text": "0.2\" expected in next 24 hours",
      "last_updated": "2026-01-05T18:45:09.066Z"
    },
    {
      "name": "Lake Louise Ski Resort",
      "lat": 51.4254,
      "lng": -116.1773,
      "snowfall_24hr": 0,
      "snowfall_48hr": 0.6,
      "snowfall_7day": 0.7,
      "forecast_text": "0.6\" expected in next 48 hours",
      "last_updated": "2026-01-05T18:45:09.636Z"
    },
    {
      "name": "Sunshine Village",
      "lat": 51.1128,
      "lng": -115.7631,
      "snowfall_24hr": 0.1,
      "snowfall_48hr": 1.2,
      "snowfall_7day": 1.3,
      "forecast_text": "0.1\" expected in next 24 hours",
      "last_updated": "2026-01-05T18:45:09.869Z"
    },
    {
      "name": "Mount Norquay",
      "lat": 51.2094,
      "lng": -115.5797,
      "snowfall_24hr": 0.2,
      "snowfall_48hr": 0.7,
      "snowfall_7day": 0.8,
      "forecast_text": "0.2\" expected in next 24 hours",
      "last_updated": "2026-01-05T18:45:10.101Z"
    },
    {
      "name": "Nakiska Ski Area",
      "lat": 50.9042,
      "lng": -115.0856,
      "snowfall_24hr": 0.6,
      "snowfall_48hr": 1.4,
      "snowfall_7day": 2,
      "forecast_text": "0.6\" expected in next 24 hours",
      "last_updated": "2026-01-05T18:45:10.399Z"
    },
    {
      "name": "Le Massif de Charlevoix",
      "lat": 47.3389,
      "lng": -70.6375,
      "snowfall_24hr": 0,
      "snowfall_48hr": 0,
      "snowfall_7day": 2,
      "forecast_text": "2.0\" expected in next 7 days",
      "last_updated": "2026-01-05T18:45:10.633Z"
    },
    {
      "name": "Blue Mountain Resort",
      "lat": 44.5067,
      "lng": -80.3158,
      "snowfall_24hr": 1.5,
      "snowfall_48hr": 2.4,
      "snowfall_7day": 2.7,
      "forecast_text": "1.5\" expected in next 24 hours",
      "last_updated": "2026-01-05T18:45:10.866Z"
    }
  ]
}