{
  "generated_at": "2025-11-11T01:33:04.563Z",
  "total_resorts": 100,
  "resorts": [
    {
      "name": "Whistler Blackcomb",
      "lat": 50.1163,
      "lng": -122.9574,
      "snowfall_7day": 0,
      "forecast_text": "Data unavailable",
      "last_updated": "2025-11-11T01:24:37.935Z",
      "error": "Point API failed: 404"
    },
    {
      "name": "Vail",
      "lat": 39.6403,
      "lng": -106.3742,
      "snowfall_7day": 0,
      "forecast_text": "Mostly clear, with a low around 29. Northwest wind around 5 mph.",
      "last_updated": "2025-11-11T01:24:39.386Z"
    },
    {
      "name": "Park City",
      "lat": 40.6514,
      "lng": -111.5079,
      "snowfall_7day": 0,
      "forecast_text": "Partly cloudy. Low around 37, with temperatures rising to around 39 overnight. North northwest wind around 2 mph.",
      "last_updated": "2025-11-11T01:24:40.235Z"
    },
    {
      "name": "Breckenridge",
      "lat": 39.4817,
      "lng": -106.0384,
      "snowfall_7day": 0,
      "forecast_text": "Mostly clear, with a low around 28. North northwest wind 7 to 10 mph, with gusts as high as 16 mph.",
      "last_updated": "2025-11-11T01:24:41.109Z"
    },
    {
      "name": "Heavenly",
      "lat": 38.935,
      "lng": -119.9403,
      "snowfall_7day": 0,
      "forecast_text": "Mostly sunny, with a high near 62. West wind around 0 mph.",
      "last_updated": "2025-11-11T01:24:55.475Z"
    },
    {
      "name": "Aspen Snowmass",
      "lat": 39.1911,
      "lng": -106.8175,
      "snowfall_7day": 0,
      "forecast_text": "Partly cloudy, with a low around 32. South wind around 5 mph.",
      "last_updated": "2025-11-11T01:24:58.454Z"
    },
    {
      "name": "Jackson Hole",
      "lat": 43.5875,
      "lng": -110.8278,
      "snowfall_7day": 0,
      "forecast_text": "Partly cloudy, with a low around 31. Southwest wind 3 to 7 mph.",
      "last_updated": "2025-11-11T01:24:59.384Z"
    },
    {
      "name": "Banff Sunshine",
      "lat": 51.1158,
      "lng": -115.7631,
      "snowfall_7day": 0,
      "forecast_text": "Data unavailable",
      "last_updated": "2025-11-11T01:25:01.615Z",
      "error": "Point API failed: 404"
    },
    {
      "name": "Lake Louise",
      "lat": 51.4254,
      "lng": -116.1773,
      "snowfall_7day": 0,
      "forecast_text": "Data unavailable",
      "last_updated": "2025-11-11T01:25:05.386Z",
      "error": "Point API failed: 404"
    },
    {
      "name": "Big Sky",
      "lat": 45.2846,
      "lng": -111.4008,
      "snowfall_7day": 0,
      "forecast_text": "Mostly cloudy, with a low around 32. West southwest wind 8 to 12 mph, with gusts as high as 26 mph.",
      "last_updated": "2025-11-11T01:25:14.503Z"
    },
    {
      "name": "Steamboat",
      "lat": 40.458,
      "lng": -106.8047,
      "snowfall_7day": 0,
      "forecast_text": "Partly cloudy, with a low around 30. East southeast wind 0 to 5 mph.",
      "last_updated": "2025-11-11T01:25:21.985Z"
    },
    {
      "name": "Mammoth Mountain",
      "lat": 37.6308,
      "lng": -119.0326,
      "snowfall_7day": 0,
      "forecast_text": "Mostly sunny. High near 52, with temperatures falling to around 44 in the afternoon. West southwest wind around 5 mph.",
      "last_updated": "2025-11-11T01:25:23.277Z"
    },
    {
      "name": "Squaw Valley",
      "lat": 39.197,
      "lng": -120.2356,
      "snowfall_7day": 0,
      "forecast_text": "Mostly sunny. High near 66, with temperatures falling to around 57 in the afternoon. West wind around 0 mph.",
      "last_updated": "2025-11-11T01:25:25.699Z"
    },
    {
      "name": "Telluride",
      "lat": 37.9375,
      "lng": -107.8123,
      "snowfall_7day": 0,
      "forecast_text": "Mostly clear, with a low around 28. Southeast wind 0 to 5 mph.",
      "last_updated": "2025-11-11T01:25:27.738Z"
    },
    {
      "name": "Sun Valley",
      "lat": 43.6966,
      "lng": -114.3553,
      "snowfall_7day": 0,
      "forecast_text": "Partly cloudy, with a low around 32. North northwest wind 2 to 7 mph.",
      "last_updated": "2025-11-11T01:25:34.829Z"
    },
    {
      "name": "Deer Valley",
      "lat": 40.6374,
      "lng": -111.4783,
      "snowfall_7day": 0,
      "forecast_text": "Partly cloudy. Low around 35, with temperatures rising to around 37 overnight. East southeast wind around 5 mph.",
      "last_updated": "2025-11-11T01:25:49.583Z"
    },
    {
      "name": "Killington",
      "lat": 43.6046,
      "lng": -72.822,
      "snowfall_7day": 0,
      "forecast_text": "A chance of snow before 11pm, then a slight chance of snow showers between 1am and 2am. Mostly cloudy, with a low around 19. West wind 18 to 23 mph. Chance of precipitation is 70%. New snow accumulation of 1 to 2 inches possible.",
      "last_updated": "2025-11-11T01:25:55.575Z"
    },
    {
      "name": "Stowe",
      "lat": 44.5303,
      "lng": -72.7817,
      "snowfall_7day": 0,
      "forecast_text": "Snow before midnight, then a chance of snow showers. Mostly cloudy, with a low around 20. West wind 10 to 16 mph. Chance of precipitation is 100%. New snow accumulation of 2 to 4 inches possible.",
      "last_updated": "2025-11-11T01:26:00.458Z"
    },
    {
      "name": "Alta",
      "lat": 40.5885,
      "lng": -111.6376,
      "snowfall_7day": 0,
      "forecast_text": "Partly cloudy, with a low around 35. West wind around 3 mph.",
      "last_updated": "2025-11-11T01:26:06.263Z"
    },
    {
      "name": "Snowbird",
      "lat": 40.5803,
      "lng": -111.6573,
      "snowfall_7day": 0,
      "forecast_text": "Partly cloudy, with a low around 35. West southwest wind around 6 mph.",
      "last_updated": "2025-11-11T01:26:08.856Z"
    },
    {
      "name": "Taos",
      "lat": 36.5924,
      "lng": -105.4467,
      "snowfall_7day": 0,
      "forecast_text": "Partly cloudy, with a low around 31. West wind 5 to 10 mph.",
      "last_updated": "2025-11-11T01:26:14.489Z"
    },
    {
      "name": "Copper Mountain",
      "lat": 39.5022,
      "lng": -106.1506,
      "snowfall_7day": 0,
      "forecast_text": "Mostly clear, with a low around 25. South southwest wind 6 to 12 mph, with gusts as high as 18 mph.",
      "last_updated": "2025-11-11T01:26:16.050Z"
    },
    {
      "name": "Winter Park",
      "lat": 39.8868,
      "lng": -105.7625,
      "snowfall_7day": 0,
      "forecast_text": "Partly cloudy, with a low around 30. Northwest wind 6 to 14 mph, with gusts as high as 22 mph.",
      "last_updated": "2025-11-11T01:26:19.259Z"
    },
    {
      "name": "Keystone",
      "lat": 39.605,
      "lng": -105.9347,
      "snowfall_7day": 0,
      "forecast_text": "Mostly clear, with a low around 28. West southwest wind 7 to 10 mph, with gusts as high as 16 mph.",
      "last_updated": "2025-11-11T01:26:27.462Z"
    },
    {
      "name": "Arapahoe Basin",
      "lat": 39.6426,
      "lng": -105.8717,
      "snowfall_7day": 0,
      "forecast_text": "Mostly clear, with a low around 29. West wind 10 to 22 mph, with gusts as high as 35 mph.",
      "last_updated": "2025-11-11T01:26:36.395Z"
    },
    {
      "name": "Crested Butte",
      "lat": 38.8997,
      "lng": -106.9653,
      "snowfall_7day": 0,
      "forecast_text": "Partly cloudy, with a low around 27. Northwest wind 0 to 5 mph.",
      "last_updated": "2025-11-11T01:26:42.132Z"
    },
    {
      "name": "Loveland",
      "lat": 39.6803,
      "lng": -105.8978,
      "snowfall_7day": 0,
      "forecast_text": "Mostly clear, with a low around 27. West wind 12 to 24 mph, with gusts as high as 37 mph.",
      "last_updated": "2025-11-11T01:26:43.244Z"
    },
    {
      "name": "Mt. Bachelor",
      "lat": 43.979,
      "lng": -121.688,
      "snowfall_7day": 0,
      "forecast_text": "A chance of rain. Mostly sunny. High near 49, with temperatures falling to around 38 in the afternoon. West wind around 6 mph. Chance of precipitation is 30%.",
      "last_updated": "2025-11-11T01:26:44.323Z"
    },
    {
      "name": "Crystal Mountain",
      "lat": 46.9358,
      "lng": -121.4742,
      "snowfall_7day": 0,
      "forecast_text": "Mostly sunny. High near 43, with temperatures falling to around 37 in the afternoon. West northwest wind around 8 mph. New rainfall amounts less than a tenth of an inch possible.",
      "last_updated": "2025-11-11T01:27:05.161Z"
    },
    {
      "name": "Stevens Pass",
      "lat": 47.7453,
      "lng": -121.0892,
      "snowfall_7day": 0,
      "forecast_text": "A chance of rain. Mostly cloudy. High near 43, with temperatures falling to around 39 in the afternoon. West wind around 6 mph. Chance of precipitation is 50%. New rainfall amounts less than a tenth of an inch possible.",
      "last_updated": "2025-11-11T01:27:07.791Z"
    },
    {
      "name": "Mt. Baker",
      "lat": 48.8597,
      "lng": -121.6686,
      "snowfall_7day": 0,
      "forecast_text": "A chance of rain and snow. Mostly cloudy. High near 43, with temperatures falling to around 37 in the afternoon. West southwest wind around 8 mph. Chance of precipitation is 50%. New rainfall amounts less than a tenth of an inch possible.",
      "last_updated": "2025-11-11T01:27:09.892Z"
    },
    {
      "name": "Schweitzer",
      "lat": 48.3642,
      "lng": -116.6228,
      "snowfall_7day": 0,
      "forecast_text": "Partly sunny. High near 39, with temperatures falling to around 37 in the afternoon. West wind around 6 mph. New rainfall amounts less than a tenth of an inch possible.",
      "last_updated": "2025-11-11T01:27:12.051Z"
    },
    {
      "name": "Sun Peaks",
      "lat": 50.8817,
      "lng": -119.8847,
      "snowfall_7day": 0,
      "forecast_text": "Data unavailable",
      "last_updated": "2025-11-11T01:27:12.343Z",
      "error": "Point API failed: 404"
    },
    {
      "name": "Revelstoke",
      "lat": 50.9981,
      "lng": -118.1956,
      "snowfall_7day": 0,
      "forecast_text": "Data unavailable",
      "last_updated": "2025-11-11T01:27:16.173Z",
      "error": "Point API failed: 404"
    },
    {
      "name": "Fernie",
      "lat": 49.4653,
      "lng": -115.0636,
      "snowfall_7day": 0,
      "forecast_text": "Data unavailable",
      "last_updated": "2025-11-11T01:27:16.482Z",
      "error": "Point API failed: 404"
    },
    {
      "name": "Big White",
      "lat": 49.7311,
      "lng": -118.935,
      "snowfall_7day": 0,
      "forecast_text": "Data unavailable",
      "last_updated": "2025-11-11T01:27:17.100Z",
      "error": "Point API failed: 404"
    },
    {
      "name": "Kicking Horse",
      "lat": 51.2514,
      "lng": -117.0492,
      "snowfall_7day": 0,
      "forecast_text": "Data unavailable",
      "last_updated": "2025-11-11T01:27:17.523Z",
      "error": "Point API failed: 404"
    },
    {
      "name": "Mont Tremblant",
      "lat": 46.2094,
      "lng": -74.5847,
      "snowfall_7day": 0,
      "forecast_text": "Data unavailable",
      "last_updated": "2025-11-11T01:27:17.846Z",
      "error": "Point API failed: 404"
    },
    {
      "name": "Blue Mountain",
      "lat": 44.5075,
      "lng": -80.3231,
      "snowfall_7day": 0,
      "forecast_text": "Data unavailable",
      "last_updated": "2025-11-11T01:27:19.495Z",
      "error": "Point API failed: 404"
    },
    {
      "name": "Sugarloaf",
      "lat": 45.0314,
      "lng": -70.3139,
      "snowfall_7day": 0,
      "forecast_text": "Rain and isolated thunderstorms before midnight, then a slight chance of sleet between midnight and 1am. Mostly cloudy, with a low around 27. West wind 10 to 15 mph, with gusts as high as 30 mph. Chance of precipitation is 90%. New rainfall amounts between a quarter and half of an inch possible.",
      "last_updated": "2025-11-11T01:27:20.837Z"
    },
    {
      "name": "Sunday River",
      "lat": 44.4697,
      "lng": -70.8561,
      "snowfall_7day": 0,
      "forecast_text": "Rain and isolated thunderstorms before midnight. Mostly cloudy, with a low around 31. Northwest wind 5 to 10 mph, with gusts as high as 30 mph. Chance of precipitation is 90%. New rainfall amounts between a quarter and half of an inch possible.",
      "last_updated": "2025-11-11T01:27:27.095Z"
    },
    {
      "name": "Sugarbush",
      "lat": 44.135,
      "lng": -72.9017,
      "snowfall_7day": 0,
      "forecast_text": "Snow likely before 11pm, then a slight chance of snow showers between midnight and 5am. Mostly cloudy, with a low around 20. West wind 9 to 15 mph. Chance of precipitation is 90%. New snow accumulation of 1 to 2 inches possible.",
      "last_updated": "2025-11-11T01:27:30.680Z"
    },
    {
      "name": "Stratton",
      "lat": 43.1133,
      "lng": -72.9083,
      "snowfall_7day": 0,
      "forecast_text": "A chance of snow showers before 10pm. Mostly cloudy, with a low around 23. West wind around 10 mph, with gusts as high as 24 mph. Chance of precipitation is 30%. New snow accumulation of less than one inch possible.",
      "last_updated": "2025-11-11T01:27:32.975Z"
    },
    {
      "name": "Okemo",
      "lat": 43.4017,
      "lng": -72.7167,
      "snowfall_7day": 0,
      "forecast_text": "A chance of snow before 10pm. Mostly cloudy, with a low around 23. West wind 10 to 17 mph. Chance of precipitation is 70%. New snow accumulation of less than half an inch possible.",
      "last_updated": "2025-11-11T01:27:38.601Z"
    },
    {
      "name": "Jay Peak",
      "lat": 44.9378,
      "lng": -72.5036,
      "snowfall_7day": 0,
      "forecast_text": "Snow before midnight, then a chance of snow showers. Cloudy, with a low around 20. West wind 9 to 17 mph. Chance of precipitation is 100%. New snow accumulation of 3 to 7 inches possible.",
      "last_updated": "2025-11-11T01:27:41.599Z"
    },
    {
      "name": "Smugglers' Notch",
      "lat": 44.5458,
      "lng": -72.7872,
      "snowfall_7day": 0,
      "forecast_text": "Snow before midnight, then a chance of snow showers. Cloudy, with a low around 20. West wind 10 to 15 mph. Chance of precipitation is 100%. New snow accumulation of 2 to 4 inches possible.",
      "last_updated": "2025-11-11T01:27:45.873Z"
    },
    {
      "name": "Loon Mountain",
      "lat": 44.0369,
      "lng": -71.6206,
      "snowfall_7day": 0,
      "forecast_text": "Rain before 9pm, then sleet likely between 9pm and 10pm, then a chance of snow between 10pm and midnight. Mostly cloudy, with a low around 24. Northwest wind 5 to 15 mph, with gusts as high as 25 mph. Chance of precipitation is 80%. New snow accumulation of less than half an inch possible.",
      "last_updated": "2025-11-11T01:27:47.322Z"
    },
    {
      "name": "Cannon Mountain",
      "lat": 44.1572,
      "lng": -71.6978,
      "snowfall_7day": 0,
      "forecast_text": "Sleet before 10pm, then a chance of snow between 10pm and midnight. Cloudy, with a low around 21. Northwest wind 10 to 20 mph, with gusts as high as 35 mph. Chance of precipitation is 80%. New snow accumulation of 1 to 2 inches possible.",
      "last_updated": "2025-11-11T01:27:48.697Z"
    },
    {
      "name": "Wildcat Mountain",
      "lat": 44.2636,
      "lng": -71.2328,
      "snowfall_7day": 0,
      "forecast_text": "Rain and isolated thunderstorms before midnight. Mostly cloudy, with a low around 29. Northwest wind 5 to 10 mph. Chance of precipitation is 90%. New rainfall amounts between a tenth and quarter of an inch possible.",
      "last_updated": "2025-11-11T01:27:49.680Z"
    },
    {
      "name": "Bretton Woods",
      "lat": 44.2633,
      "lng": -71.4439,
      "snowfall_7day": 0,
      "forecast_text": "Rain before 9pm, then sleet and rain between 9pm and 10pm, then a chance of snow between 10pm and 1am. Mostly cloudy, with a low around 26. Northwest wind around 5 mph. Chance of precipitation is 90%. New snow accumulation of less than one inch possible.",
      "last_updated": "2025-11-11T01:28:01.740Z"
    },
    {
      "name": "Snowbasin",
      "lat": 41.2156,
      "lng": -111.8567,
      "snowfall_7day": 0,
      "forecast_text": "Partly cloudy. Low around 36, with temperatures rising to around 38 overnight. West southwest wind around 5 mph.",
      "last_updated": "2025-11-11T01:28:03.452Z"
    },
    {
      "name": "Powder Mountain",
      "lat": 41.3814,
      "lng": -111.7806,
      "snowfall_7day": 0,
      "forecast_text": "Partly cloudy. Low around 34, with temperatures rising to around 36 overnight. West southwest wind around 5 mph.",
      "last_updated": "2025-11-11T01:28:09.016Z"
    },
    {
      "name": "Solitude",
      "lat": 40.62,
      "lng": -111.5917,
      "snowfall_7day": 0,
      "forecast_text": "Partly cloudy. Low around 35, with temperatures rising to around 38 overnight. West wind around 6 mph.",
      "last_updated": "2025-11-11T01:28:15.642Z"
    },
    {
      "name": "Brighton",
      "lat": 40.5981,
      "lng": -111.5831,
      "snowfall_7day": 0,
      "forecast_text": "Mostly sunny. High near 52, with temperatures falling to around 46 in the afternoon. West wind around 3 mph.",
      "last_updated": "2025-11-11T01:28:16.224Z"
    },
    {
      "name": "Snowmass",
      "lat": 39.2133,
      "lng": -106.9378,
      "snowfall_7day": 0,
      "forecast_text": "Partly cloudy, with a low around 32. Southwest wind around 5 mph.",
      "last_updated": "2025-11-11T01:28:17.822Z"
    },
    {
      "name": "Aspen Highlands",
      "lat": 39.1825,
      "lng": -106.8553,
      "snowfall_7day": 0,
      "forecast_text": "Partly cloudy, with a low around 31. South southwest wind around 5 mph.",
      "last_updated": "2025-11-11T01:28:20.197Z"
    },
    {
      "name": "Buttermilk",
      "lat": 39.2078,
      "lng": -106.8608,
      "snowfall_7day": 0,
      "forecast_text": "Partly cloudy, with a low around 30. South wind around 5 mph.",
      "last_updated": "2025-11-11T01:28:29.838Z"
    },
    {
      "name": "Beaver Creek",
      "lat": 39.6042,
      "lng": -106.5164,
      "snowfall_7day": 0,
      "forecast_text": "Mostly clear, with a low around 29. West wind around 5 mph.",
      "last_updated": "2025-11-11T01:28:33.045Z"
    },
    {
      "name": "Purgatory",
      "lat": 37.6303,
      "lng": -107.8139,
      "snowfall_7day": 0,
      "forecast_text": "Mostly clear, with a low around 30. North northwest wind around 5 mph.",
      "last_updated": "2025-11-11T01:28:47.837Z"
    },
    {
      "name": "Wolf Creek",
      "lat": 37.4722,
      "lng": -106.7931,
      "snowfall_7day": 0,
      "forecast_text": "Partly cloudy, with a low around 29. West southwest wind 5 to 10 mph.",
      "last_updated": "2025-11-11T01:28:53.776Z"
    },
    {
      "name": "Monarch Mountain",
      "lat": 38.5117,
      "lng": -106.3317,
      "snowfall_7day": 0,
      "forecast_text": "Partly cloudy, with a low around 27. West wind 15 to 20 mph.",
      "last_updated": "2025-11-11T01:28:56.853Z"
    },
    {
      "name": "Eldora",
      "lat": 39.9372,
      "lng": -105.5828,
      "snowfall_7day": 0,
      "forecast_text": "Partly cloudy, with a low around 32. West wind 16 to 26 mph, with gusts as high as 40 mph.",
      "last_updated": "2025-11-11T01:29:19.801Z"
    },
    {
      "name": "Grand Targhee",
      "lat": 43.7886,
      "lng": -110.9586,
      "snowfall_7day": 0,
      "forecast_text": "Partly cloudy, with a low around 24. South southwest wind around 12 mph.",
      "last_updated": "2025-11-11T01:29:21.833Z"
    },
    {
      "name": "Snow King",
      "lat": 43.4783,
      "lng": -110.7628,
      "snowfall_7day": 0,
      "forecast_text": "Partly cloudy, with a low around 30. South wind 5 to 8 mph.",
      "last_updated": "2025-11-11T01:29:27.138Z"
    },
    {
      "name": "Bridger Bowl",
      "lat": 45.8167,
      "lng": -110.8969,
      "snowfall_7day": 0,
      "forecast_text": "Partly cloudy, with a low around 37. West southwest wind around 10 mph, with gusts as high as 24 mph.",
      "last_updated": "2025-11-11T01:29:33.841Z"
    },
    {
      "name": "Big Mountain",
      "lat": 48.4928,
      "lng": -114.3483,
      "snowfall_7day": 0,
      "forecast_text": "Mostly cloudy, with a low around 29. Southwest wind around 8 mph.",
      "last_updated": "2025-11-11T01:29:40.135Z"
    },
    {
      "name": "Snowbowl",
      "lat": 46.9417,
      "lng": -113.9492,
      "snowfall_7day": 0,
      "forecast_text": "Rain likely between 7pm and midnight. Cloudy, with a low around 39. West wind around 9 mph, with gusts as high as 20 mph. Chance of precipitation is 60%. New rainfall amounts less than a tenth of an inch possible.",
      "last_updated": "2025-11-11T01:29:48.309Z"
    },
    {
      "name": "Bogus Basin",
      "lat": 43.7725,
      "lng": -116.0939,
      "snowfall_7day": 0,
      "forecast_text": "Partly cloudy, with a low around 36. West northwest wind around 5 mph.",
      "last_updated": "2025-11-11T01:29:57.446Z"
    },
    {
      "name": "Tamarack",
      "lat": 44.6922,
      "lng": -116.1344,
      "snowfall_7day": 0,
      "forecast_text": "Partly cloudy, with a low around 33. West wind around 3 mph.",
      "last_updated": "2025-11-11T01:30:08.550Z"
    },
    {
      "name": "Silver Mountain",
      "lat": 47.6764,
      "lng": -116.0703,
      "snowfall_7day": 0,
      "forecast_text": "Rain likely. Cloudy. High near 51, with temperatures falling to around 44 in the afternoon. Southwest wind around 3 mph. Chance of precipitation is 70%. New rainfall amounts less than a tenth of an inch possible.",
      "last_updated": "2025-11-11T01:30:19.957Z"
    },
    {
      "name": "Mt. Hood Meadows",
      "lat": 45.3319,
      "lng": -121.6653,
      "snowfall_7day": 0,
      "forecast_text": "A chance of rain showers. Mostly cloudy. High near 50, with temperatures falling to around 43 in the afternoon. West wind around 3 mph. Chance of precipitation is 40%.",
      "last_updated": "2025-11-11T01:30:21.440Z"
    },
    {
      "name": "Timberline",
      "lat": 45.3306,
      "lng": -121.7108,
      "snowfall_7day": 0,
      "forecast_text": "A chance of rain showers. Mostly cloudy. High near 45, with temperatures falling to around 41 in the afternoon. West wind around 6 mph. Chance of precipitation is 50%.",
      "last_updated": "2025-11-11T01:30:22.136Z"
    },
    {
      "name": "Willamette Pass",
      "lat": 43.6006,
      "lng": -122.0336,
      "snowfall_7day": 0,
      "forecast_text": "Sunny. High near 55, with temperatures falling to around 46 in the afternoon. West wind around 8 mph.",
      "last_updated": "2025-11-11T01:30:23.095Z"
    },
    {
      "name": "Mission Ridge",
      "lat": 47.2917,
      "lng": -120.3997,
      "snowfall_7day": 0,
      "forecast_text": "Mostly sunny. High near 45, with temperatures falling to around 38 in the afternoon. West wind around 10 mph.",
      "last_updated": "2025-11-11T01:30:24.273Z"
    },
    {
      "name": "Snoqualmie",
      "lat": 47.4219,
      "lng": -121.4136,
      "snowfall_7day": 0,
      "forecast_text": "Rain likely. Cloudy. High near 46, with temperatures falling to around 43 in the afternoon. West wind around 3 mph. Chance of precipitation is 60%. New rainfall amounts less than a tenth of an inch possible.",
      "last_updated": "2025-11-11T01:30:32.508Z"
    },
    {
      "name": "Mt. Spokane",
      "lat": 47.9208,
      "lng": -117.0856,
      "snowfall_7day": 0,
      "forecast_text": "A slight chance of rain. Mostly sunny. High near 43, with temperatures falling to around 39 in the afternoon. Southwest wind around 6 mph. Chance of precipitation is 20%. New rainfall amounts less than a tenth of an inch possible.",
      "last_updated": "2025-11-11T01:30:39.789Z"
    },
    {
      "name": "White Pass",
      "lat": 46.6394,
      "lng": -121.3908,
      "snowfall_7day": 0,
      "forecast_text": "A chance of rain. Mostly cloudy. High near 47, with temperatures falling to around 40 in the afternoon. West wind around 6 mph. Chance of precipitation is 30%. New rainfall amounts less than a tenth of an inch possible.",
      "last_updated": "2025-11-11T01:30:43.597Z"
    },
    {
      "name": "49 Degrees North",
      "lat": 48.7511,
      "lng": -117.6369,
      "snowfall_7day": 0,
      "forecast_text": "Mostly sunny. High near 46, with temperatures falling to around 41 in the afternoon. South wind around 2 mph.",
      "last_updated": "2025-11-11T01:30:50.970Z"
    },
    {
      "name": "Red Mountain",
      "lat": 49.0917,
      "lng": -117.8233,
      "snowfall_7day": 0,
      "forecast_text": "Data unavailable",
      "last_updated": "2025-11-11T01:30:51.503Z",
      "error": "Point API failed: 404"
    },
    {
      "name": "Whitewater",
      "lat": 49.5394,
      "lng": -117.2717,
      "snowfall_7day": 0,
      "forecast_text": "Data unavailable",
      "last_updated": "2025-11-11T01:30:52.136Z",
      "error": "Point API failed: 404"
    },
    {
      "name": "Panorama",
      "lat": 50.8036,
      "lng": -116.0533,
      "snowfall_7day": 0,
      "forecast_text": "Data unavailable",
      "last_updated": "2025-11-11T01:30:52.610Z",
      "error": "Point API failed: 404"
    },
    {
      "name": "Marmot Basin",
      "lat": 52.8236,
      "lng": -118.0747,
      "snowfall_7day": 0,
      "forecast_text": "Data unavailable",
      "last_updated": "2025-11-11T01:30:52.965Z",
      "error": "Point API failed: 404"
    },
    {
      "name": "Nakiska",
      "lat": 50.98,
      "lng": -115.0733,
      "snowfall_7day": 0,
      "forecast_text": "Data unavailable",
      "last_updated": "2025-11-11T01:30:53.361Z",
      "error": "Point API failed: 404"
    },
    {
      "name": "Castle Mountain",
      "lat": 49.4058,
      "lng": -114.5169,
      "snowfall_7day": 0,
      "forecast_text": "Data unavailable",
      "last_updated": "2025-11-11T01:30:53.672Z",
      "error": "Point API failed: 404"
    },
    {
      "name": "Norquay",
      "lat": 51.1967,
      "lng": -115.5531,
      "snowfall_7day": 0,
      "forecast_text": "Data unavailable",
      "last_updated": "2025-11-11T01:31:02.714Z",
      "error": "Point API failed: 404"
    },
    {
      "name": "Le Massif",
      "lat": 47.3136,
      "lng": -70.6358,
      "snowfall_7day": 0,
      "forecast_text": "Data unavailable",
      "last_updated": "2025-11-11T01:31:03.044Z",
      "error": "Point API failed: 404"
    },
    {
      "name": "Calabogie",
      "lat": 45.2906,
      "lng": -76.7019,
      "snowfall_7day": 0,
      "forecast_text": "Data unavailable",
      "last_updated": "2025-11-11T01:31:03.351Z",
      "error": "Point API failed: 404"
    },
    {
      "name": "Sierra-at-Tahoe",
      "lat": 38.7986,
      "lng": -120.0828,
      "snowfall_7day": 0,
      "forecast_text": "Partly sunny, with a high near 60. Southwest wind around 0 mph.",
      "last_updated": "2025-11-11T01:31:09.834Z"
    },
    {
      "name": "Kirkwood",
      "lat": 38.6867,
      "lng": -120.0656,
      "snowfall_7day": 0,
      "forecast_text": "Partly sunny. High near 59, with temperatures falling to around 50 in the afternoon. West southwest wind around 2 mph.",
      "last_updated": "2025-11-11T01:31:14.299Z"
    },
    {
      "name": "Northstar",
      "lat": 39.2733,
      "lng": -120.1211,
      "snowfall_7day": 0,
      "forecast_text": "Mostly sunny. High near 66, with temperatures falling to around 58 in the afternoon. West wind around 0 mph.",
      "last_updated": "2025-11-11T01:31:17.600Z"
    },
    {
      "name": "Homewood",
      "lat": 39.0833,
      "lng": -120.1667,
      "snowfall_7day": 0,
      "forecast_text": "Mostly sunny, with a high near 61. West wind around 0 mph.",
      "last_updated": "2025-11-11T01:31:18.288Z"
    },
    {
      "name": "Mt. Rose",
      "lat": 39.3397,
      "lng": -119.8894,
      "snowfall_7day": 0,
      "forecast_text": "Mostly sunny. High near 58, with temperatures falling to around 49 in the afternoon. West wind around 5 mph.",
      "last_updated": "2025-11-11T01:31:21.043Z"
    },
    {
      "name": "Diamond Peak",
      "lat": 39.2525,
      "lng": -119.9169,
      "snowfall_7day": 0,
      "forecast_text": "Mostly sunny, with a high near 61. West wind around 0 mph.",
      "last_updated": "2025-11-11T01:31:44.163Z"
    },
    {
      "name": "June Mountain",
      "lat": 37.7853,
      "lng": -119.0781,
      "snowfall_7day": 0,
      "forecast_text": "Mostly sunny. High near 67, with temperatures falling to around 59 in the afternoon. North wind around 0 mph.",
      "last_updated": "2025-11-11T01:31:52.211Z"
    },
    {
      "name": "Bear Mountain",
      "lat": 34.235,
      "lng": -116.865,
      "snowfall_7day": 0,
      "forecast_text": "Mostly sunny, with a high near 69. Southwest wind around 0 mph.",
      "last_updated": "2025-11-11T01:32:17.715Z"
    },
    {
      "name": "Snow Summit",
      "lat": 34.2306,
      "lng": -116.8886,
      "snowfall_7day": 0,
      "forecast_text": "Mostly sunny, with a high near 65. West wind around 0 mph.",
      "last_updated": "2025-11-11T01:32:28.803Z"
    },
    {
      "name": "Mountain High",
      "lat": 34.3811,
      "lng": -117.6881,
      "snowfall_7day": 0,
      "forecast_text": "Sunny, with a high near 65. Wind around 0 mph.",
      "last_updated": "2025-11-11T01:32:39.434Z"
    },
    {
      "name": "Ski Santa Fe",
      "lat": 35.7869,
      "lng": -105.7961,
      "snowfall_7day": 0,
      "forecast_text": "Mostly clear, with a low around 31. North wind 5 to 15 mph.",
      "last_updated": "2025-11-11T01:32:53.785Z"
    },
    {
      "name": "Angel Fire",
      "lat": 36.3975,
      "lng": -105.2886,
      "snowfall_7day": 0,
      "forecast_text": "Partly cloudy, with a low around 32. West wind 5 to 10 mph.",
      "last_updated": "2025-11-11T01:32:54.902Z"
    },
    {
      "name": "Whiteface Mountain",
      "lat": 44.3659,
      "lng": -73.9024,
      "snowfall_7day": 0,
      "forecast_text": "A chance of snow before 10pm. Mostly cloudy, with a low around 15. Wind chill values as low as 0. West wind 16 to 23 mph. Chance of precipitation is 60%. New snow accumulation of 1 to 2 inches possible.",
      "last_updated": "2025-11-11T01:33:04.363Z"
    }
  ]
}