{
  "generated_at": "2025-11-15T12:56:21.065Z",
  "total_resorts": 100,
  "resorts": [
    {
      "name": "Whistler Blackcomb",
      "lat": 50.1163,
      "lng": -122.9574,
      "snowfall_24hr": 0,
      "snowfall_48hr": 0,
      "snowfall_7day": 0,
      "forecast_text": "Data unavailable",
      "last_updated": "2025-11-15T12:50:19.548Z",
      "error": "Point API failed: 404"
    },
    {
      "name": "Vail",
      "lat": 39.6403,
      "lng": -106.3742,
      "snowfall_24hr": 0,
      "snowfall_48hr": 0.6,
      "snowfall_7day": 1.1,
      "forecast_text": "Partly cloudy, with a low around 30. Northwest wind around 5 mph.",
      "last_updated": "2025-11-15T12:50:20.657Z"
    },
    {
      "name": "Park City",
      "lat": 40.6514,
      "lng": -111.5079,
      "snowfall_24hr": 0,
      "snowfall_48hr": 0,
      "snowfall_7day": 0.9,
      "forecast_text": "Partly cloudy. Low around 39, with temperatures rising to around 41 overnight. South wind around 2 mph.",
      "last_updated": "2025-11-15T12:50:30.964Z"
    },
    {
      "name": "Breckenridge",
      "lat": 39.4817,
      "lng": -106.0384,
      "snowfall_24hr": 0,
      "snowfall_48hr": 0.5,
      "snowfall_7day": 1.2,
      "forecast_text": "Partly cloudy. Low around 29, with temperatures rising to around 31 overnight. West northwest wind around 8 mph.",
      "last_updated": "2025-11-15T12:50:32.311Z"
    },
    {
      "name": "Heavenly",
      "lat": 38.935,
      "lng": -119.9403,
      "snowfall_24hr": 0,
      "snowfall_48hr": 0.7,
      "snowfall_7day": 3.4,
      "forecast_text": "Mostly cloudy, with a low around 40. East wind around 0 mph.",
      "last_updated": "2025-11-15T12:50:33.583Z"
    },
    {
      "name": "Aspen Snowmass",
      "lat": 39.1911,
      "lng": -106.8175,
      "snowfall_24hr": 0,
      "snowfall_48hr": 0.1,
      "snowfall_7day": 0.3,
      "forecast_text": "Mostly cloudy, with a low around 35. South wind around 5 mph.",
      "last_updated": "2025-11-15T12:50:38.705Z"
    },
    {
      "name": "Jackson Hole",
      "lat": 43.5875,
      "lng": -110.8278,
      "snowfall_24hr": 0,
      "snowfall_48hr": 0,
      "snowfall_7day": 0.1,
      "forecast_text": "Mostly cloudy, with a low around 37. South southwest wind around 5 mph.",
      "last_updated": "2025-11-15T12:50:39.620Z"
    },
    {
      "name": "Banff Sunshine",
      "lat": 51.1158,
      "lng": -115.7631,
      "snowfall_24hr": 0,
      "snowfall_48hr": 0,
      "snowfall_7day": 0,
      "forecast_text": "Data unavailable",
      "last_updated": "2025-11-15T12:50:41.224Z",
      "error": "Point API failed: 404"
    },
    {
      "name": "Lake Louise",
      "lat": 51.4254,
      "lng": -116.1773,
      "snowfall_24hr": 0,
      "snowfall_48hr": 0,
      "snowfall_7day": 0,
      "forecast_text": "Data unavailable",
      "last_updated": "2025-11-15T12:50:41.680Z",
      "error": "Point API failed: 404"
    },
    {
      "name": "Big Sky",
      "lat": 45.2846,
      "lng": -111.4008,
      "snowfall_24hr": 0,
      "snowfall_48hr": 0,
      "snowfall_7day": 2.9,
      "forecast_text": "Mostly cloudy, with a low around 33. West wind around 9 mph, with gusts as high as 20 mph.",
      "last_updated": "2025-11-15T12:50:50.325Z"
    },
    {
      "name": "Steamboat",
      "lat": 40.458,
      "lng": -106.8047,
      "snowfall_24hr": 0,
      "snowfall_48hr": 0.1,
      "snowfall_7day": 0.5,
      "forecast_text": "Partly cloudy, with a low around 33. East northeast wind around 0 mph.",
      "last_updated": "2025-11-15T12:50:57.864Z"
    },
    {
      "name": "Mammoth Mountain",
      "lat": 37.6308,
      "lng": -119.0326,
      "snowfall_24hr": 6.2,
      "snowfall_48hr": 12.2,
      "snowfall_7day": 32.6,
      "forecast_text": "A chance of snow. Cloudy. Low around 31, with temperatures rising to around 36 overnight. Wind chill values as low as 26. Northeast wind around 15 mph, with gusts as high as 25 mph. Chance of precipitation is 30%. New rainfall amounts less than a tenth of an inch possible.",
      "last_updated": "2025-11-15T12:50:58.838Z"
    },
    {
      "name": "Squaw Valley",
      "lat": 39.197,
      "lng": -120.2356,
      "snowfall_24hr": 0.4,
      "snowfall_48hr": 1.8,
      "snowfall_7day": 6.6,
      "forecast_text": "Mostly cloudy, with a low around 34. Northeast wind around 5 mph.",
      "last_updated": "2025-11-15T12:51:06.776Z"
    },
    {
      "name": "Telluride",
      "lat": 37.9375,
      "lng": -107.8123,
      "snowfall_24hr": 0,
      "snowfall_48hr": 1.9,
      "snowfall_7day": 4.8,
      "forecast_text": "Mostly clear, with a low around 29. East southeast wind around 0 mph.",
      "last_updated": "2025-11-15T12:51:08.617Z"
    },
    {
      "name": "Sun Valley",
      "lat": 43.6966,
      "lng": -114.3553,
      "snowfall_24hr": 0,
      "snowfall_48hr": 0,
      "snowfall_7day": 0,
      "forecast_text": "Mostly cloudy, with a low around 29. North wind around 6 mph.",
      "last_updated": "2025-11-15T12:51:10.326Z"
    },
    {
      "name": "Deer Valley",
      "lat": 40.6374,
      "lng": -111.4783,
      "snowfall_24hr": 0,
      "snowfall_48hr": 0.3,
      "snowfall_7day": 1.9,
      "forecast_text": "Partly cloudy. Low around 37, with temperatures rising to around 39 overnight. South wind around 3 mph.",
      "last_updated": "2025-11-15T12:51:11.354Z"
    },
    {
      "name": "Killington",
      "lat": 43.6046,
      "lng": -72.822,
      "snowfall_24hr": 0.9,
      "snowfall_48hr": 1.9,
      "snowfall_7day": 1.9,
      "forecast_text": "A chance of snow after 5pm. Mostly cloudy, with a high near 31. West wind 6 to 9 mph. Chance of precipitation is 30%. New snow accumulation of less than half an inch possible. Little or no ice accumulation expected.",
      "last_updated": "2025-11-15T12:51:13.714Z"
    },
    {
      "name": "Stowe",
      "lat": 44.5303,
      "lng": -72.7817,
      "snowfall_24hr": 1.5,
      "snowfall_48hr": 9.1,
      "snowfall_7day": 10.6,
      "forecast_text": "A chance of snow and a chance of freezing rain after 5pm. Partly sunny, with a high near 30. West wind 2 to 6 mph. Chance of precipitation is 30%. Little or no ice accumulation expected.",
      "last_updated": "2025-11-15T12:51:18.306Z"
    },
    {
      "name": "Alta",
      "lat": 40.5885,
      "lng": -111.6376,
      "snowfall_24hr": 0.4,
      "snowfall_48hr": 5.7,
      "snowfall_7day": 15.1,
      "forecast_text": "Partly cloudy, with a low around 36. West southwest wind around 6 mph.",
      "last_updated": "2025-11-15T12:51:23.855Z"
    },
    {
      "name": "Snowbird",
      "lat": 40.5803,
      "lng": -111.6573,
      "snowfall_24hr": 0,
      "snowfall_48hr": 3.4,
      "snowfall_7day": 11.2,
      "forecast_text": "Partly cloudy. Low around 36, with temperatures rising to around 38 overnight. South wind around 6 mph.",
      "last_updated": "2025-11-15T12:51:27.473Z"
    },
    {
      "name": "Taos",
      "lat": 36.5924,
      "lng": -105.4467,
      "snowfall_24hr": 0,
      "snowfall_48hr": 0.6,
      "snowfall_7day": 3.3,
      "forecast_text": "Mostly cloudy, with a low around 32. West wind around 10 mph.",
      "last_updated": "2025-11-15T12:51:30.039Z"
    },
    {
      "name": "Copper Mountain",
      "lat": 39.5022,
      "lng": -106.1506,
      "snowfall_24hr": 0,
      "snowfall_48hr": 1.1,
      "snowfall_7day": 2.1,
      "forecast_text": "Partly cloudy. Low around 24, with temperatures rising to around 26 overnight. West southwest wind around 10 mph, with gusts as high as 16 mph.",
      "last_updated": "2025-11-15T12:51:32.788Z"
    },
    {
      "name": "Winter Park",
      "lat": 39.8868,
      "lng": -105.7625,
      "snowfall_24hr": 0,
      "snowfall_48hr": 1.2,
      "snowfall_7day": 2.8,
      "forecast_text": "Partly cloudy. Low around 29, with temperatures rising to around 31 overnight. West northwest wind around 15 mph, with gusts as high as 24 mph.",
      "last_updated": "2025-11-15T12:51:35.969Z"
    },
    {
      "name": "Keystone",
      "lat": 39.605,
      "lng": -105.9347,
      "snowfall_24hr": 0,
      "snowfall_48hr": 0.8,
      "snowfall_7day": 1.7,
      "forecast_text": "Partly cloudy. Low around 28, with temperatures rising to around 30 overnight. West wind around 9 mph.",
      "last_updated": "2025-11-15T12:51:40.711Z"
    },
    {
      "name": "Arapahoe Basin",
      "lat": 39.6426,
      "lng": -105.8717,
      "snowfall_24hr": 0,
      "snowfall_48hr": 1.9,
      "snowfall_7day": 4.6,
      "forecast_text": "Partly cloudy. Low around 30, with temperatures rising to around 32 overnight. West wind around 17 mph, with gusts as high as 28 mph.",
      "last_updated": "2025-11-15T12:51:46.196Z"
    },
    {
      "name": "Crested Butte",
      "lat": 38.8997,
      "lng": -106.9653,
      "snowfall_24hr": 0,
      "snowfall_48hr": 1.5,
      "snowfall_7day": 2.1,
      "forecast_text": "Partly cloudy, with a low around 28. Northwest wind around 0 mph.",
      "last_updated": "2025-11-15T12:51:48.232Z"
    },
    {
      "name": "Loveland",
      "lat": 39.6803,
      "lng": -105.8978,
      "snowfall_24hr": 0,
      "snowfall_48hr": 2.2,
      "snowfall_7day": 4,
      "forecast_text": "Partly cloudy. Low around 29, with temperatures rising to around 31 overnight. West wind around 18 mph, with gusts as high as 30 mph.",
      "last_updated": "2025-11-15T12:51:51.294Z"
    },
    {
      "name": "Mt. Bachelor",
      "lat": 43.979,
      "lng": -121.688,
      "snowfall_24hr": 0,
      "snowfall_48hr": 0.6,
      "snowfall_7day": 4.6,
      "forecast_text": "Mostly cloudy. Low around 31, with temperatures rising to around 34 overnight. West wind around 10 mph.",
      "last_updated": "2025-11-15T12:51:52.401Z"
    },
    {
      "name": "Crystal Mountain",
      "lat": 46.9358,
      "lng": -121.4742,
      "snowfall_24hr": 0,
      "snowfall_48hr": 0,
      "snowfall_7day": 5.9,
      "forecast_text": "Rain. Cloudy. Low around 37, with temperatures rising to around 39 overnight. Southwest wind around 13 mph, with gusts as high as 26 mph. Chance of precipitation is 90%. New rainfall amounts less than a tenth of an inch possible.",
      "last_updated": "2025-11-15T12:51:53.701Z"
    },
    {
      "name": "Stevens Pass",
      "lat": 47.7453,
      "lng": -121.0892,
      "snowfall_24hr": 0,
      "snowfall_48hr": 0,
      "snowfall_7day": 5.1,
      "forecast_text": "Rain. Cloudy. Low around 39, with temperatures rising to around 41 overnight. West southwest wind around 8 mph. Chance of precipitation is 90%. New rainfall amounts between a tenth and quarter of an inch possible.",
      "last_updated": "2025-11-15T12:52:14.847Z"
    },
    {
      "name": "Mt. Baker",
      "lat": 48.8597,
      "lng": -121.6686,
      "snowfall_24hr": 0,
      "snowfall_48hr": 0,
      "snowfall_7day": 6.2,
      "forecast_text": "Rain. Cloudy. Low around 34, with temperatures rising to around 39 overnight. South wind around 7 mph. Chance of precipitation is 90%. New rainfall amounts less than a tenth of an inch possible.",
      "last_updated": "2025-11-15T12:52:19.045Z"
    },
    {
      "name": "Schweitzer",
      "lat": 48.3642,
      "lng": -116.6228,
      "snowfall_24hr": 0,
      "snowfall_48hr": 0,
      "snowfall_7day": 1.3,
      "forecast_text": "Rain likely. Cloudy, with a low around 38. West wind around 15 mph, with gusts as high as 25 mph. Chance of precipitation is 70%. New rainfall amounts less than a tenth of an inch possible.",
      "last_updated": "2025-11-15T12:52:20.571Z"
    },
    {
      "name": "Sun Peaks",
      "lat": 50.8817,
      "lng": -119.8847,
      "snowfall_24hr": 0,
      "snowfall_48hr": 0,
      "snowfall_7day": 0,
      "forecast_text": "Data unavailable",
      "last_updated": "2025-11-15T12:52:20.839Z",
      "error": "Point API failed: 404"
    },
    {
      "name": "Revelstoke",
      "lat": 50.9981,
      "lng": -118.1956,
      "snowfall_24hr": 0,
      "snowfall_48hr": 0,
      "snowfall_7day": 0,
      "forecast_text": "Data unavailable",
      "last_updated": "2025-11-15T12:52:21.834Z",
      "error": "Point API failed: 404"
    },
    {
      "name": "Fernie",
      "lat": 49.4653,
      "lng": -115.0636,
      "snowfall_24hr": 0,
      "snowfall_48hr": 0,
      "snowfall_7day": 0,
      "forecast_text": "Data unavailable",
      "last_updated": "2025-11-15T12:52:22.665Z",
      "error": "Point API failed: 404"
    },
    {
      "name": "Big White",
      "lat": 49.7311,
      "lng": -118.935,
      "snowfall_24hr": 0,
      "snowfall_48hr": 0,
      "snowfall_7day": 0,
      "forecast_text": "Data unavailable",
      "last_updated": "2025-11-15T12:52:23.796Z",
      "error": "Point API failed: 404"
    },
    {
      "name": "Kicking Horse",
      "lat": 51.2514,
      "lng": -117.0492,
      "snowfall_24hr": 0,
      "snowfall_48hr": 0,
      "snowfall_7day": 0,
      "forecast_text": "Data unavailable",
      "last_updated": "2025-11-15T12:52:25.167Z",
      "error": "Point API failed: 404"
    },
    {
      "name": "Mont Tremblant",
      "lat": 46.2094,
      "lng": -74.5847,
      "snowfall_24hr": 0,
      "snowfall_48hr": 0,
      "snowfall_7day": 0,
      "forecast_text": "Data unavailable",
      "last_updated": "2025-11-15T12:52:25.686Z",
      "error": "Point API failed: 404"
    },
    {
      "name": "Blue Mountain",
      "lat": 44.5075,
      "lng": -80.3231,
      "snowfall_24hr": 0,
      "snowfall_48hr": 0,
      "snowfall_7day": 0,
      "forecast_text": "Data unavailable",
      "last_updated": "2025-11-15T12:52:25.993Z",
      "error": "Point API failed: 404"
    },
    {
      "name": "Sugarloaf",
      "lat": 45.0314,
      "lng": -70.3139,
      "snowfall_24hr": 2.5,
      "snowfall_48hr": 3.8,
      "snowfall_7day": 4,
      "forecast_text": "Sunny, with a high near 27. Northwest wind 10 to 20 mph, with gusts as high as 35 mph.",
      "last_updated": "2025-11-15T12:52:27.498Z"
    },
    {
      "name": "Sunday River",
      "lat": 44.4697,
      "lng": -70.8561,
      "snowfall_24hr": 1.8,
      "snowfall_48hr": 2.7,
      "snowfall_7day": 2.7,
      "forecast_text": "Sunny, with a high near 35. Northwest wind 5 to 10 mph, with gusts as high as 25 mph.",
      "last_updated": "2025-11-15T12:52:28.691Z"
    },
    {
      "name": "Sugarbush",
      "lat": 44.135,
      "lng": -72.9017,
      "snowfall_24hr": 1.4,
      "snowfall_48hr": 3.8,
      "snowfall_7day": 3.9,
      "forecast_text": "A chance of snow after 5pm. Partly sunny, with a high near 30. West wind around 5 mph. Chance of precipitation is 30%. New snow accumulation of less than half an inch possible. Little or no ice accumulation expected.",
      "last_updated": "2025-11-15T12:52:40.532Z"
    },
    {
      "name": "Stratton",
      "lat": 43.1133,
      "lng": -72.9083,
      "snowfall_24hr": 0,
      "snowfall_48hr": 1.4,
      "snowfall_7day": 1.4,
      "forecast_text": "A chance of rain showers after 5pm. Partly sunny, with a high near 35. West wind around 3 mph. Chance of precipitation is 40%. New rainfall amounts less than a tenth of an inch possible.",
      "last_updated": "2025-11-15T12:52:49.978Z"
    },
    {
      "name": "Okemo",
      "lat": 43.4017,
      "lng": -72.7167,
      "snowfall_24hr": 0,
      "snowfall_48hr": 0.3,
      "snowfall_7day": 0.3,
      "forecast_text": "A chance of sleet and a chance of rain and snow after 5pm. Partly sunny, with a high near 38. West wind around 5 mph. Chance of precipitation is 40%. New rainfall amounts less than a tenth of an inch possible.",
      "last_updated": "2025-11-15T12:52:51.292Z"
    },
    {
      "name": "Jay Peak",
      "lat": 44.9378,
      "lng": -72.5036,
      "snowfall_24hr": 1.9,
      "snowfall_48hr": 9.6,
      "snowfall_7day": 11.9,
      "forecast_text": "A chance of snow and a chance of freezing rain after 5pm. Partly sunny, with a high near 28. West wind around 3 mph. Chance of precipitation is 30%. Little or no ice accumulation expected.",
      "last_updated": "2025-11-15T12:52:54.036Z"
    },
    {
      "name": "Smugglers' Notch",
      "lat": 44.5458,
      "lng": -72.7872,
      "snowfall_24hr": 1.8,
      "snowfall_48hr": 9.8,
      "snowfall_7day": 11.4,
      "forecast_text": "A chance of snow and a chance of freezing rain after 5pm. Partly sunny, with a high near 30. West wind around 6 mph. Chance of precipitation is 30%. Little or no ice accumulation expected.",
      "last_updated": "2025-11-15T12:52:59.633Z"
    },
    {
      "name": "Loon Mountain",
      "lat": 44.0369,
      "lng": -71.6206,
      "snowfall_24hr": 0.9,
      "snowfall_48hr": 2.8,
      "snowfall_7day": 2.8,
      "forecast_text": "Mostly sunny, with a high near 30. Northwest wind 5 to 10 mph.",
      "last_updated": "2025-11-15T12:53:09.400Z"
    },
    {
      "name": "Cannon Mountain",
      "lat": 44.1572,
      "lng": -71.6978,
      "snowfall_24hr": 1.2,
      "snowfall_48hr": 3.6,
      "snowfall_7day": 4,
      "forecast_text": "Partly sunny, with a high near 26. Wind chill values as low as 0. Northwest wind 15 to 20 mph, with gusts as high as 40 mph.",
      "last_updated": "2025-11-15T12:53:10.905Z"
    },
    {
      "name": "Wildcat Mountain",
      "lat": 44.2636,
      "lng": -71.2328,
      "snowfall_24hr": 1.1,
      "snowfall_48hr": 4.6,
      "snowfall_7day": 5.1,
      "forecast_text": "Mostly sunny, with a high near 33. Northwest wind 0 to 10 mph, with gusts as high as 25 mph.",
      "last_updated": "2025-11-15T12:53:14.526Z"
    },
    {
      "name": "Bretton Woods",
      "lat": 44.2633,
      "lng": -71.4439,
      "snowfall_24hr": 0.5,
      "snowfall_48hr": 2.6,
      "snowfall_7day": 3,
      "forecast_text": "Mostly sunny, with a high near 32. Northwest wind 0 to 5 mph.",
      "last_updated": "2025-11-15T12:53:19.482Z"
    },
    {
      "name": "Snowbasin",
      "lat": 41.2156,
      "lng": -111.8567,
      "snowfall_24hr": 0,
      "snowfall_48hr": 0,
      "snowfall_7day": 0.4,
      "forecast_text": "Partly cloudy. Low around 41, with temperatures rising to around 43 overnight. South wind around 5 mph.",
      "last_updated": "2025-11-15T12:53:29.171Z"
    },
    {
      "name": "Powder Mountain",
      "lat": 41.3814,
      "lng": -111.7806,
      "snowfall_24hr": 0,
      "snowfall_48hr": 2.7,
      "snowfall_7day": 5.5,
      "forecast_text": "Partly cloudy. Low around 38, with temperatures rising to around 40 overnight. Southwest wind around 6 mph.",
      "last_updated": "2025-11-15T12:53:30.528Z"
    },
    {
      "name": "Solitude",
      "lat": 40.62,
      "lng": -111.5917,
      "snowfall_24hr": 0,
      "snowfall_48hr": 2.6,
      "snowfall_7day": 9.4,
      "forecast_text": "Partly cloudy. Low around 36, with temperatures rising to around 39 overnight. Southwest wind around 5 mph.",
      "last_updated": "2025-11-15T12:53:31.928Z"
    },
    {
      "name": "Brighton",
      "lat": 40.5981,
      "lng": -111.5831,
      "snowfall_24hr": 0,
      "snowfall_48hr": 3.1,
      "snowfall_7day": 10.6,
      "forecast_text": "Partly cloudy. Low around 36, with temperatures rising to around 38 overnight. Southwest wind around 5 mph.",
      "last_updated": "2025-11-15T12:53:32.645Z"
    },
    {
      "name": "Snowmass",
      "lat": 39.2133,
      "lng": -106.9378,
      "snowfall_24hr": 0,
      "snowfall_48hr": 0.7,
      "snowfall_7day": 1.1,
      "forecast_text": "Mostly cloudy, with a low around 35. South southwest wind around 0 mph.",
      "last_updated": "2025-11-15T12:53:33.953Z"
    },
    {
      "name": "Aspen Highlands",
      "lat": 39.1825,
      "lng": -106.8553,
      "snowfall_24hr": 0,
      "snowfall_48hr": 0.2,
      "snowfall_7day": 0.5,
      "forecast_text": "Mostly cloudy, with a low around 33. South wind around 5 mph.",
      "last_updated": "2025-11-15T12:53:37.754Z"
    },
    {
      "name": "Buttermilk",
      "lat": 39.2078,
      "lng": -106.8608,
      "snowfall_24hr": 0,
      "snowfall_48hr": 0,
      "snowfall_7day": 0.1,
      "forecast_text": "Mostly cloudy, with a low around 33. South wind around 5 mph.",
      "last_updated": "2025-11-15T12:53:40.689Z"
    },
    {
      "name": "Beaver Creek",
      "lat": 39.6042,
      "lng": -106.5164,
      "snowfall_24hr": 0,
      "snowfall_48hr": 0.3,
      "snowfall_7day": 0.9,
      "forecast_text": "Partly cloudy, with a low around 31. West northwest wind around 5 mph.",
      "last_updated": "2025-11-15T12:53:44.073Z"
    },
    {
      "name": "Purgatory",
      "lat": 37.6303,
      "lng": -107.8139,
      "snowfall_24hr": 0,
      "snowfall_48hr": 1.7,
      "snowfall_7day": 9.9,
      "forecast_text": "Partly cloudy, with a low around 32. North wind around 0 mph.",
      "last_updated": "2025-11-15T12:53:50.255Z"
    },
    {
      "name": "Wolf Creek",
      "lat": 37.4722,
      "lng": -106.7931,
      "snowfall_24hr": 0,
      "snowfall_48hr": 6.4,
      "snowfall_7day": 15.8,
      "forecast_text": "Mostly clear, with a low around 32. Southwest wind around 5 mph.",
      "last_updated": "2025-11-15T12:53:51.068Z"
    },
    {
      "name": "Monarch Mountain",
      "lat": 38.5117,
      "lng": -106.3317,
      "snowfall_24hr": 0,
      "snowfall_48hr": 2,
      "snowfall_7day": 3,
      "forecast_text": "Partly cloudy, with a low around 31. West wind around 15 mph.",
      "last_updated": "2025-11-15T12:53:53.274Z"
    },
    {
      "name": "Eldora",
      "lat": 39.9372,
      "lng": -105.5828,
      "snowfall_24hr": 0,
      "snowfall_48hr": 1.2,
      "snowfall_7day": 2.4,
      "forecast_text": "Mostly cloudy. Low around 34, with temperatures rising to around 37 overnight. West wind around 12 mph, with gusts as high as 18 mph.",
      "last_updated": "2025-11-15T12:53:59.594Z"
    },
    {
      "name": "Grand Targhee",
      "lat": 43.7886,
      "lng": -110.9586,
      "snowfall_24hr": 0,
      "snowfall_48hr": 2.2,
      "snowfall_7day": 5.3,
      "forecast_text": "Mostly cloudy, with a low around 30. West southwest wind around 10 mph.",
      "last_updated": "2025-11-15T12:54:01.977Z"
    },
    {
      "name": "Snow King",
      "lat": 43.4783,
      "lng": -110.7628,
      "snowfall_24hr": 0,
      "snowfall_48hr": 0,
      "snowfall_7day": 0.1,
      "forecast_text": "Mostly cloudy. Low around 35, with temperatures rising to around 39 overnight. South wind around 7 mph.",
      "last_updated": "2025-11-15T12:54:02.969Z"
    },
    {
      "name": "Bridger Bowl",
      "lat": 45.8167,
      "lng": -110.8969,
      "snowfall_24hr": 0,
      "snowfall_48hr": 0,
      "snowfall_7day": 1.2,
      "forecast_text": "Partly cloudy, with a low around 36. West southwest wind around 9 mph, with gusts as high as 22 mph.",
      "last_updated": "2025-11-15T12:54:03.642Z"
    },
    {
      "name": "Big Mountain",
      "lat": 48.4928,
      "lng": -114.3483,
      "snowfall_24hr": 0,
      "snowfall_48hr": 0,
      "snowfall_7day": 0.7,
      "forecast_text": "Rain and snow. Cloudy, with a low around 33. Southwest wind around 17 mph. Chance of precipitation is 90%. New rainfall amounts less than a tenth of an inch possible.",
      "last_updated": "2025-11-15T12:54:09.972Z"
    },
    {
      "name": "Snowbowl",
      "lat": 46.9417,
      "lng": -113.9492,
      "snowfall_24hr": 0,
      "snowfall_48hr": 0,
      "snowfall_7day": 0,
      "forecast_text": "A chance of rain. Cloudy, with a low around 40. West wind around 12 mph. Chance of precipitation is 50%.",
      "last_updated": "2025-11-15T12:54:13.268Z"
    },
    {
      "name": "Bogus Basin",
      "lat": 43.7725,
      "lng": -116.0939,
      "snowfall_24hr": 0,
      "snowfall_48hr": 0,
      "snowfall_7day": 0.5,
      "forecast_text": "Partly cloudy, with a low around 36. West wind around 7 mph.",
      "last_updated": "2025-11-15T12:54:14.422Z"
    },
    {
      "name": "Tamarack",
      "lat": 44.6922,
      "lng": -116.1344,
      "snowfall_24hr": 0,
      "snowfall_48hr": 0,
      "snowfall_7day": 1.1,
      "forecast_text": "Mostly cloudy, with a low around 33. Southwest wind around 6 mph.",
      "last_updated": "2025-11-15T12:54:19.552Z"
    },
    {
      "name": "Silver Mountain",
      "lat": 47.6764,
      "lng": -116.0703,
      "snowfall_24hr": 0,
      "snowfall_48hr": 0,
      "snowfall_7day": 0,
      "forecast_text": "Rain. Cloudy, with a low around 43. Southwest wind around 9 mph, with gusts as high as 22 mph. Chance of precipitation is 90%. New rainfall amounts less than a tenth of an inch possible.",
      "last_updated": "2025-11-15T12:54:29.279Z"
    },
    {
      "name": "Mt. Hood Meadows",
      "lat": 45.3319,
      "lng": -121.6653,
      "snowfall_24hr": 0,
      "snowfall_48hr": 0,
      "snowfall_7day": 5.1,
      "forecast_text": "Rain likely. Mostly cloudy. Low around 38, with temperatures rising to around 40 overnight. West wind around 8 mph, with gusts as high as 23 mph. Chance of precipitation is 60%.",
      "last_updated": "2025-11-15T12:54:30.252Z"
    },
    {
      "name": "Timberline",
      "lat": 45.3306,
      "lng": -121.7108,
      "snowfall_24hr": 0,
      "snowfall_48hr": 0.3,
      "snowfall_7day": 7.9,
      "forecast_text": "Rain likely. Mostly cloudy. Low around 34, with temperatures rising to around 39 overnight. West wind around 13 mph, with gusts as high as 23 mph. Chance of precipitation is 70%. New rainfall amounts less than a tenth of an inch possible.",
      "last_updated": "2025-11-15T12:54:30.976Z"
    },
    {
      "name": "Willamette Pass",
      "lat": 43.6006,
      "lng": -122.0336,
      "snowfall_24hr": 0,
      "snowfall_48hr": 0,
      "snowfall_7day": 2.2,
      "forecast_text": "Mostly cloudy, with a low around 34. North wind around 5 mph.",
      "last_updated": "2025-11-15T12:54:33.577Z"
    },
    {
      "name": "Mission Ridge",
      "lat": 47.2917,
      "lng": -120.3997,
      "snowfall_24hr": 0,
      "snowfall_48hr": 0,
      "snowfall_7day": 2,
      "forecast_text": "A chance of rain. Mostly cloudy. Low around 38, with temperatures rising to around 41 overnight. West wind around 10 mph. Chance of precipitation is 30%. New rainfall amounts less than a tenth of an inch possible.",
      "last_updated": "2025-11-15T12:54:40.144Z"
    },
    {
      "name": "Snoqualmie",
      "lat": 47.4219,
      "lng": -121.4136,
      "snowfall_24hr": 0,
      "snowfall_48hr": 0,
      "snowfall_7day": 0.3,
      "forecast_text": "Rain. Cloudy. Low around 41, with temperatures rising to around 43 overnight. West wind around 2 mph. Chance of precipitation is 100%. New rainfall amounts between a quarter and half of an inch possible.",
      "last_updated": "2025-11-15T12:54:42.595Z"
    },
    {
      "name": "Mt. Spokane",
      "lat": 47.9208,
      "lng": -117.0856,
      "snowfall_24hr": 0,
      "snowfall_48hr": 0,
      "snowfall_7day": 0.5,
      "forecast_text": "A chance of rain. Cloudy, with a low around 40. Southwest wind around 14 mph, with gusts as high as 25 mph. Chance of precipitation is 40%. New rainfall amounts less than a tenth of an inch possible.",
      "last_updated": "2025-11-15T12:54:45.328Z"
    },
    {
      "name": "White Pass",
      "lat": 46.6394,
      "lng": -121.3908,
      "snowfall_24hr": 0,
      "snowfall_48hr": 0,
      "snowfall_7day": 3.1,
      "forecast_text": "Rain. Cloudy. Low around 38, with temperatures rising to around 40 overnight. West wind around 8 mph, with gusts as high as 22 mph. Chance of precipitation is 80%. New rainfall amounts between a tenth and quarter of an inch possible.",
      "last_updated": "2025-11-15T12:54:50.719Z"
    },
    {
      "name": "49 Degrees North",
      "lat": 48.7511,
      "lng": -117.6369,
      "snowfall_24hr": 0,
      "snowfall_48hr": 0,
      "snowfall_7day": 0.1,
      "forecast_text": "A chance of rain and patchy fog. Cloudy, with a low around 41. South wind around 3 mph. Chance of precipitation is 50%. New rainfall amounts less than a tenth of an inch possible.",
      "last_updated": "2025-11-15T12:54:52.349Z"
    },
    {
      "name": "Red Mountain",
      "lat": 49.0917,
      "lng": -117.8233,
      "snowfall_24hr": 0,
      "snowfall_48hr": 0,
      "snowfall_7day": 0,
      "forecast_text": "Data unavailable",
      "last_updated": "2025-11-15T12:54:52.688Z",
      "error": "Point API failed: 404"
    },
    {
      "name": "Whitewater",
      "lat": 49.5394,
      "lng": -117.2717,
      "snowfall_24hr": 0,
      "snowfall_48hr": 0,
      "snowfall_7day": 0,
      "forecast_text": "Data unavailable",
      "last_updated": "2025-11-15T12:54:52.965Z",
      "error": "Point API failed: 404"
    },
    {
      "name": "Panorama",
      "lat": 50.8036,
      "lng": -116.0533,
      "snowfall_24hr": 0,
      "snowfall_48hr": 0,
      "snowfall_7day": 0,
      "forecast_text": "Data unavailable",
      "last_updated": "2025-11-15T12:54:57.844Z",
      "error": "Point API failed: 404"
    },
    {
      "name": "Marmot Basin",
      "lat": 52.8236,
      "lng": -118.0747,
      "snowfall_24hr": 0,
      "snowfall_48hr": 0,
      "snowfall_7day": 0,
      "forecast_text": "Data unavailable",
      "last_updated": "2025-11-15T12:55:00.053Z",
      "error": "Point API failed: 404"
    },
    {
      "name": "Nakiska",
      "lat": 50.98,
      "lng": -115.0733,
      "snowfall_24hr": 0,
      "snowfall_48hr": 0,
      "snowfall_7day": 0,
      "forecast_text": "Data unavailable",
      "last_updated": "2025-11-15T12:55:00.306Z",
      "error": "Point API failed: 404"
    },
    {
      "name": "Castle Mountain",
      "lat": 49.4058,
      "lng": -114.5169,
      "snowfall_24hr": 0,
      "snowfall_48hr": 0,
      "snowfall_7day": 0,
      "forecast_text": "Data unavailable",
      "last_updated": "2025-11-15T12:55:00.901Z",
      "error": "Point API failed: 404"
    },
    {
      "name": "Norquay",
      "lat": 51.1967,
      "lng": -115.5531,
      "snowfall_24hr": 0,
      "snowfall_48hr": 0,
      "snowfall_7day": 0,
      "forecast_text": "Data unavailable",
      "last_updated": "2025-11-15T12:55:03.884Z",
      "error": "Point API failed: 404"
    },
    {
      "name": "Le Massif",
      "lat": 47.3136,
      "lng": -70.6358,
      "snowfall_24hr": 0,
      "snowfall_48hr": 0,
      "snowfall_7day": 0,
      "forecast_text": "Data unavailable",
      "last_updated": "2025-11-15T12:55:04.161Z",
      "error": "Point API failed: 404"
    },
    {
      "name": "Calabogie",
      "lat": 45.2906,
      "lng": -76.7019,
      "snowfall_24hr": 0,
      "snowfall_48hr": 0,
      "snowfall_7day": 0,
      "forecast_text": "Data unavailable",
      "last_updated": "2025-11-15T12:55:05.312Z",
      "error": "Point API failed: 404"
    },
    {
      "name": "Sierra-at-Tahoe",
      "lat": 38.7986,
      "lng": -120.0828,
      "snowfall_24hr": 0.9,
      "snowfall_48hr": 5.5,
      "snowfall_7day": 17.1,
      "forecast_text": "A slight chance of rain showers. Mostly cloudy, with a low around 38. Northeast wind around 5 mph. Chance of precipitation is 20%.",
      "last_updated": "2025-11-15T12:55:07.843Z"
    },
    {
      "name": "Kirkwood",
      "lat": 38.6867,
      "lng": -120.0656,
      "snowfall_24hr": 4.1,
      "snowfall_48hr": 13.9,
      "snowfall_7day": 32.9,
      "forecast_text": "A slight chance of rain showers. Mostly cloudy, with a low around 33. East wind around 14 mph, with gusts as high as 24 mph. Chance of precipitation is 20%.",
      "last_updated": "2025-11-15T12:55:08.904Z"
    },
    {
      "name": "Northstar",
      "lat": 39.2733,
      "lng": -120.1211,
      "snowfall_24hr": 0,
      "snowfall_48hr": 0.9,
      "snowfall_7day": 3.7,
      "forecast_text": "Mostly cloudy, with a low around 39. East wind around 5 mph.",
      "last_updated": "2025-11-15T12:55:14.673Z"
    },
    {
      "name": "Homewood",
      "lat": 39.0833,
      "lng": -120.1667,
      "snowfall_24hr": 0,
      "snowfall_48hr": 1.1,
      "snowfall_7day": 5.6,
      "forecast_text": "Mostly cloudy, with a low around 38. East wind around 5 mph.",
      "last_updated": "2025-11-15T12:55:29.291Z"
    },
    {
      "name": "Mt. Rose",
      "lat": 39.3397,
      "lng": -119.8894,
      "snowfall_24hr": 1.6,
      "snowfall_48hr": 5.3,
      "snowfall_7day": 11.3,
      "forecast_text": "Mostly cloudy, with a low around 35. Northeast wind around 5 mph.",
      "last_updated": "2025-11-15T12:55:35.653Z"
    },
    {
      "name": "Diamond Peak",
      "lat": 39.2525,
      "lng": -119.9169,
      "snowfall_24hr": 0.2,
      "snowfall_48hr": 1.8,
      "snowfall_7day": 5.3,
      "forecast_text": "Mostly cloudy, with a low around 39. Northeast wind around 5 mph.",
      "last_updated": "2025-11-15T12:55:37.299Z"
    },
    {
      "name": "June Mountain",
      "lat": 37.7853,
      "lng": -119.0781,
      "snowfall_24hr": 0.4,
      "snowfall_48hr": 2.8,
      "snowfall_7day": 10.2,
      "forecast_text": "A chance of rain. Cloudy, with a low around 38. North wind around 5 mph. Chance of precipitation is 30%.",
      "last_updated": "2025-11-15T12:55:56.667Z"
    },
    {
      "name": "Bear Mountain",
      "lat": 34.235,
      "lng": -116.865,
      "snowfall_24hr": 0,
      "snowfall_48hr": 0,
      "snowfall_7day": 2.5,
      "forecast_text": "Rain. Cloudy, with a low around 35. South wind 5 to 10 mph. Chance of precipitation is 100%. New rainfall amounts between a quarter and half of an inch possible.",
      "last_updated": "2025-11-15T12:55:59.142Z"
    },
    {
      "name": "Snow Summit",
      "lat": 34.2306,
      "lng": -116.8886,
      "snowfall_24hr": 1.2,
      "snowfall_48hr": 1.6,
      "snowfall_7day": 11.4,
      "forecast_text": "Rain. Cloudy, with a low around 37. Southeast wind 5 to 10 mph. Chance of precipitation is 100%. New rainfall amounts between a quarter and half of an inch possible.",
      "last_updated": "2025-11-15T12:56:05.477Z"
    },
    {
      "name": "Mountain High",
      "lat": 34.3811,
      "lng": -117.6881,
      "snowfall_24hr": 1.5,
      "snowfall_48hr": 1.5,
      "snowfall_7day": 3.1,
      "forecast_text": "Showers and thunderstorms. Cloudy, with a low around 45. South southeast wind around 5 mph. Chance of precipitation is 100%. New rainfall amounts between 1 and 2 inches possible.",
      "last_updated": "2025-11-15T12:56:12.488Z"
    },
    {
      "name": "Ski Santa Fe",
      "lat": 35.7869,
      "lng": -105.7961,
      "snowfall_24hr": 0,
      "snowfall_48hr": 0,
      "snowfall_7day": 3.1,
      "forecast_text": "Partly cloudy, with a low around 34. North wind around 15 mph.",
      "last_updated": "2025-11-15T12:56:17.674Z"
    },
    {
      "name": "Angel Fire",
      "lat": 36.3975,
      "lng": -105.2886,
      "snowfall_24hr": 0,
      "snowfall_48hr": 0,
      "snowfall_7day": 0.3,
      "forecast_text": "Mostly cloudy, with a low around 34. Southwest wind around 5 mph.",
      "last_updated": "2025-11-15T12:56:19.251Z"
    },
    {
      "name": "Whiteface Mountain",
      "lat": 44.3659,
      "lng": -73.9024,
      "snowfall_24hr": 2,
      "snowfall_48hr": 3.8,
      "snowfall_7day": 4,
      "forecast_text": "A slight chance of snow between 3pm and 5pm, then a chance of freezing rain. Mostly cloudy, with a high near 32. Southwest wind around 6 mph. Chance of precipitation is 50%. New snow accumulation of less than half an inch possible. Little or no ice accumulation expected.",
      "last_updated": "2025-11-15T12:56:20.864Z"
    }
  ]
}