{
  "generated_at": "2025-12-01T18:45:56.144Z",
  "total_resorts": 115,
  "data_source": "Open-Meteo",
  "resorts": [
    {
      "name": "Whistler Blackcomb",
      "lat": 50.1163,
      "lng": -122.9574,
      "snowfall_24hr": 0,
      "snowfall_48hr": 0,
      "snowfall_7day": 6.4,
      "forecast_text": "6.4\" expected in next 7 days",
      "last_updated": "2025-12-01T18:45:33.301Z"
    },
    {
      "name": "Vail",
      "lat": 39.6403,
      "lng": -106.3742,
      "snowfall_24hr": 0,
      "snowfall_48hr": 1.4,
      "snowfall_7day": 5.2,
      "forecast_text": "1.4\" expected in next 48 hours",
      "last_updated": "2025-12-01T18:45:33.499Z"
    },
    {
      "name": "Park City",
      "lat": 40.6514,
      "lng": -111.5079,
      "snowfall_24hr": 0,
      "snowfall_48hr": 0.8,
      "snowfall_7day": 6.1,
      "forecast_text": "0.8\" expected in next 48 hours",
      "last_updated": "2025-12-01T18:45:33.697Z"
    },
    {
      "name": "Breckenridge",
      "lat": 39.4817,
      "lng": -106.0384,
      "snowfall_24hr": 0,
      "snowfall_48hr": 0,
      "snowfall_7day": 4.5,
      "forecast_text": "0.0\" expected in next 24 hours",
      "last_updated": "2025-12-01T18:45:33.894Z"
    },
    {
      "name": "Heavenly",
      "lat": 38.935,
      "lng": -119.9403,
      "snowfall_24hr": 0,
      "snowfall_48hr": 0,
      "snowfall_7day": 0,
      "forecast_text": "No snow expected",
      "last_updated": "2025-12-01T18:45:34.090Z"
    },
    {
      "name": "Aspen Snowmass",
      "lat": 39.1911,
      "lng": -106.8175,
      "snowfall_24hr": 0.2,
      "snowfall_48hr": 1.3,
      "snowfall_7day": 4,
      "forecast_text": "0.2\" expected in next 24 hours",
      "last_updated": "2025-12-01T18:45:34.286Z"
    },
    {
      "name": "Jackson Hole",
      "lat": 43.5875,
      "lng": -110.8278,
      "snowfall_24hr": 0,
      "snowfall_48hr": 0,
      "snowfall_7day": 8.1,
      "forecast_text": "8.1\" expected in next 7 days",
      "last_updated": "2025-12-01T18:45:34.483Z"
    },
    {
      "name": "Banff Sunshine",
      "lat": 51.1158,
      "lng": -115.7631,
      "snowfall_24hr": 0,
      "snowfall_48hr": 0,
      "snowfall_7day": 0.5,
      "forecast_text": "0.5\" expected in next 7 days",
      "last_updated": "2025-12-01T18:45:34.681Z"
    },
    {
      "name": "Lake Louise",
      "lat": 51.4254,
      "lng": -116.1773,
      "snowfall_24hr": 0,
      "snowfall_48hr": 0,
      "snowfall_7day": 0.1,
      "forecast_text": "0.1\" expected in next 7 days",
      "last_updated": "2025-12-01T18:45:34.878Z"
    },
    {
      "name": "Big Sky",
      "lat": 45.2846,
      "lng": -111.4008,
      "snowfall_24hr": 0.4,
      "snowfall_48hr": 1.4,
      "snowfall_7day": 3.8,
      "forecast_text": "0.4\" expected in next 24 hours",
      "last_updated": "2025-12-01T18:45:35.075Z"
    },
    {
      "name": "Steamboat",
      "lat": 40.458,
      "lng": -106.8047,
      "snowfall_24hr": 0.1,
      "snowfall_48hr": 1.5,
      "snowfall_7day": 6.9,
      "forecast_text": "0.1\" expected in next 24 hours",
      "last_updated": "2025-12-01T18:45:35.272Z"
    },
    {
      "name": "Mammoth Mountain",
      "lat": 37.6308,
      "lng": -119.0326,
      "snowfall_24hr": 0,
      "snowfall_48hr": 0,
      "snowfall_7day": 0,
      "forecast_text": "No snow expected",
      "last_updated": "2025-12-01T18:45:35.469Z"
    },
    {
      "name": "Squaw Valley",
      "lat": 39.197,
      "lng": -120.2356,
      "snowfall_24hr": 0,
      "snowfall_48hr": 0,
      "snowfall_7day": 0,
      "forecast_text": "No snow expected",
      "last_updated": "2025-12-01T18:45:35.665Z"
    },
    {
      "name": "Telluride",
      "lat": 37.9375,
      "lng": -107.8123,
      "snowfall_24hr": 0.3,
      "snowfall_48hr": 0.5,
      "snowfall_7day": 2.2,
      "forecast_text": "0.3\" expected in next 24 hours",
      "last_updated": "2025-12-01T18:45:35.862Z"
    },
    {
      "name": "Sun Valley",
      "lat": 43.6966,
      "lng": -114.3553,
      "snowfall_24hr": 0,
      "snowfall_48hr": 0,
      "snowfall_7day": 0.1,
      "forecast_text": "0.1\" expected in next 7 days",
      "last_updated": "2025-12-01T18:45:36.060Z"
    },
    {
      "name": "Deer Valley",
      "lat": 40.6374,
      "lng": -111.4783,
      "snowfall_24hr": 0,
      "snowfall_48hr": 0.8,
      "snowfall_7day": 7.1,
      "forecast_text": "0.8\" expected in next 48 hours",
      "last_updated": "2025-12-01T18:45:36.256Z"
    },
    {
      "name": "Killington",
      "lat": 43.6046,
      "lng": -72.822,
      "snowfall_24hr": 0,
      "snowfall_48hr": 2.6,
      "snowfall_7day": 3.1,
      "forecast_text": "2.6\" expected in next 48 hours",
      "last_updated": "2025-12-01T18:45:36.454Z"
    },
    {
      "name": "Stowe",
      "lat": 44.5303,
      "lng": -72.7817,
      "snowfall_24hr": 0,
      "snowfall_48hr": 1.6,
      "snowfall_7day": 2.8,
      "forecast_text": "0.0\" expected in next 24 hours",
      "last_updated": "2025-12-01T18:45:36.650Z"
    },
    {
      "name": "Alta",
      "lat": 40.5885,
      "lng": -111.6376,
      "snowfall_24hr": 0,
      "snowfall_48hr": 1.2,
      "snowfall_7day": 9.8,
      "forecast_text": "1.2\" expected in next 48 hours",
      "last_updated": "2025-12-01T18:45:36.847Z"
    },
    {
      "name": "Snowbird",
      "lat": 40.5803,
      "lng": -111.6573,
      "snowfall_24hr": 0,
      "snowfall_48hr": 0.9,
      "snowfall_7day": 9.5,
      "forecast_text": "0.9\" expected in next 48 hours",
      "last_updated": "2025-12-01T18:45:37.043Z"
    },
    {
      "name": "Taos",
      "lat": 36.5924,
      "lng": -105.4467,
      "snowfall_24hr": 0.2,
      "snowfall_48hr": 0.2,
      "snowfall_7day": 2.6,
      "forecast_text": "0.2\" expected in next 24 hours",
      "last_updated": "2025-12-01T18:45:37.241Z"
    },
    {
      "name": "Copper Mountain",
      "lat": 39.5022,
      "lng": -106.1506,
      "snowfall_24hr": 0,
      "snowfall_48hr": 0.9,
      "snowfall_7day": 5.4,
      "forecast_text": "0.0\" expected in next 24 hours",
      "last_updated": "2025-12-01T18:45:37.437Z"
    },
    {
      "name": "Winter Park",
      "lat": 39.8868,
      "lng": -105.7625,
      "snowfall_24hr": 0,
      "snowfall_48hr": 0.9,
      "snowfall_7day": 3.4,
      "forecast_text": "0.9\" expected in next 48 hours",
      "last_updated": "2025-12-01T18:45:37.632Z"
    },
    {
      "name": "Keystone",
      "lat": 39.605,
      "lng": -105.9347,
      "snowfall_24hr": 0,
      "snowfall_48hr": 0,
      "snowfall_7day": 3.8,
      "forecast_text": "3.8\" expected in next 7 days",
      "last_updated": "2025-12-01T18:45:37.829Z"
    },
    {
      "name": "Arapahoe Basin",
      "lat": 39.6426,
      "lng": -105.8717,
      "snowfall_24hr": 0,
      "snowfall_48hr": 0.2,
      "snowfall_7day": 2.9,
      "forecast_text": "0.2\" expected in next 48 hours",
      "last_updated": "2025-12-01T18:45:38.026Z"
    },
    {
      "name": "Crested Butte",
      "lat": 38.8997,
      "lng": -106.9653,
      "snowfall_24hr": 0,
      "snowfall_48hr": 0.3,
      "snowfall_7day": 3.6,
      "forecast_text": "0.3\" expected in next 48 hours",
      "last_updated": "2025-12-01T18:45:38.224Z"
    },
    {
      "name": "Loveland",
      "lat": 39.6803,
      "lng": -105.8978,
      "snowfall_24hr": 0,
      "snowfall_48hr": 0.2,
      "snowfall_7day": 3.6,
      "forecast_text": "0.2\" expected in next 48 hours",
      "last_updated": "2025-12-01T18:45:38.420Z"
    },
    {
      "name": "Mt. Bachelor",
      "lat": 43.979,
      "lng": -121.688,
      "snowfall_24hr": 0,
      "snowfall_48hr": 0,
      "snowfall_7day": 0.2,
      "forecast_text": "0.2\" expected in next 7 days",
      "last_updated": "2025-12-01T18:45:38.616Z"
    },
    {
      "name": "Crystal Mountain",
      "lat": 46.9358,
      "lng": -121.4742,
      "snowfall_24hr": 0,
      "snowfall_48hr": 0.2,
      "snowfall_7day": 0.5,
      "forecast_text": "0.2\" expected in next 48 hours",
      "last_updated": "2025-12-01T18:45:38.812Z"
    },
    {
      "name": "Stevens Pass",
      "lat": 47.7453,
      "lng": -121.0892,
      "snowfall_24hr": 0.5,
      "snowfall_48hr": 0.9,
      "snowfall_7day": 8.7,
      "forecast_text": "0.5\" expected in next 24 hours",
      "last_updated": "2025-12-01T18:45:39.008Z"
    },
    {
      "name": "Mt. Baker",
      "lat": 48.8597,
      "lng": -121.6686,
      "snowfall_24hr": 1.9,
      "snowfall_48hr": 2.3,
      "snowfall_7day": 13.7,
      "forecast_text": "1.9\" expected in next 24 hours",
      "last_updated": "2025-12-01T18:45:39.204Z"
    },
    {
      "name": "Schweitzer",
      "lat": 48.3642,
      "lng": -116.6228,
      "snowfall_24hr": 0.3,
      "snowfall_48hr": 0.7,
      "snowfall_7day": 3.3,
      "forecast_text": "0.3\" expected in next 24 hours",
      "last_updated": "2025-12-01T18:45:39.401Z"
    },
    {
      "name": "Sun Peaks",
      "lat": 50.8817,
      "lng": -119.8847,
      "snowfall_24hr": 0,
      "snowfall_48hr": 0,
      "snowfall_7day": 3.2,
      "forecast_text": "3.2\" expected in next 7 days",
      "last_updated": "2025-12-01T18:45:39.596Z"
    },
    {
      "name": "Revelstoke",
      "lat": 50.9981,
      "lng": -118.1956,
      "snowfall_24hr": 0.1,
      "snowfall_48hr": 0.1,
      "snowfall_7day": 4.2,
      "forecast_text": "0.1\" expected in next 24 hours",
      "last_updated": "2025-12-01T18:45:39.792Z"
    },
    {
      "name": "Fernie",
      "lat": 49.4653,
      "lng": -115.0636,
      "snowfall_24hr": 0,
      "snowfall_48hr": 0,
      "snowfall_7day": 0.8,
      "forecast_text": "0.8\" expected in next 7 days",
      "last_updated": "2025-12-01T18:45:39.988Z"
    },
    {
      "name": "Big White",
      "lat": 49.7311,
      "lng": -118.935,
      "snowfall_24hr": 3.1,
      "snowfall_48hr": 5.6,
      "snowfall_7day": 10.8,
      "forecast_text": "3.1\" expected in next 24 hours",
      "last_updated": "2025-12-01T18:45:40.184Z"
    },
    {
      "name": "Kicking Horse",
      "lat": 51.2514,
      "lng": -117.0492,
      "snowfall_24hr": 0,
      "snowfall_48hr": 0,
      "snowfall_7day": 0.6,
      "forecast_text": "0.6\" expected in next 7 days",
      "last_updated": "2025-12-01T18:45:40.380Z"
    },
    {
      "name": "Mont Tremblant",
      "lat": 46.2094,
      "lng": -74.5847,
      "snowfall_24hr": 0.1,
      "snowfall_48hr": 0.1,
      "snowfall_7day": 1.4,
      "forecast_text": "0.1\" expected in next 24 hours",
      "last_updated": "2025-12-01T18:45:40.577Z"
    },
    {
      "name": "Blue Mountain",
      "lat": 44.5075,
      "lng": -80.3231,
      "snowfall_24hr": 0,
      "snowfall_48hr": 0.2,
      "snowfall_7day": 1.4,
      "forecast_text": "0.0\" expected in next 24 hours",
      "last_updated": "2025-12-01T18:45:40.773Z"
    },
    {
      "name": "Sugarloaf",
      "lat": 45.0314,
      "lng": -70.3139,
      "snowfall_24hr": 0,
      "snowfall_48hr": 2.6,
      "snowfall_7day": 3.7,
      "forecast_text": "0.0\" expected in next 24 hours",
      "last_updated": "2025-12-01T18:45:40.969Z"
    },
    {
      "name": "Sunday River",
      "lat": 44.4697,
      "lng": -70.8561,
      "snowfall_24hr": 0,
      "snowfall_48hr": 2.8,
      "snowfall_7day": 3,
      "forecast_text": "2.8\" expected in next 48 hours",
      "last_updated": "2025-12-01T18:45:41.167Z"
    },
    {
      "name": "Sugarbush",
      "lat": 44.135,
      "lng": -72.9017,
      "snowfall_24hr": 0.1,
      "snowfall_48hr": 2,
      "snowfall_7day": 2.9,
      "forecast_text": "0.1\" expected in next 24 hours",
      "last_updated": "2025-12-01T18:45:41.363Z"
    },
    {
      "name": "Stratton",
      "lat": 43.1133,
      "lng": -72.9083,
      "snowfall_24hr": 0,
      "snowfall_48hr": 4,
      "snowfall_7day": 4.4,
      "forecast_text": "4.0\" expected in next 48 hours",
      "last_updated": "2025-12-01T18:45:41.560Z"
    },
    {
      "name": "Okemo",
      "lat": 43.4017,
      "lng": -72.7167,
      "snowfall_24hr": 0,
      "snowfall_48hr": 3.3,
      "snowfall_7day": 3.4,
      "forecast_text": "3.3\" expected in next 48 hours",
      "last_updated": "2025-12-01T18:45:41.757Z"
    },
    {
      "name": "Jay Peak",
      "lat": 44.9378,
      "lng": -72.5036,
      "snowfall_24hr": 0.2,
      "snowfall_48hr": 1.9,
      "snowfall_7day": 2.9,
      "forecast_text": "0.2\" expected in next 24 hours",
      "last_updated": "2025-12-01T18:45:41.953Z"
    },
    {
      "name": "Smugglers' Notch",
      "lat": 44.5458,
      "lng": -72.7872,
      "snowfall_24hr": 0.1,
      "snowfall_48hr": 2.1,
      "snowfall_7day": 3.1,
      "forecast_text": "0.1\" expected in next 24 hours",
      "last_updated": "2025-12-01T18:45:42.149Z"
    },
    {
      "name": "Loon Mountain",
      "lat": 44.0369,
      "lng": -71.6206,
      "snowfall_24hr": 0,
      "snowfall_48hr": 2.8,
      "snowfall_7day": 3.6,
      "forecast_text": "2.8\" expected in next 48 hours",
      "last_updated": "2025-12-01T18:45:42.345Z"
    },
    {
      "name": "Cannon Mountain",
      "lat": 44.1572,
      "lng": -71.6978,
      "snowfall_24hr": 0,
      "snowfall_48hr": 2.8,
      "snowfall_7day": 4.6,
      "forecast_text": "0.0\" expected in next 24 hours",
      "last_updated": "2025-12-01T18:45:42.541Z"
    },
    {
      "name": "Wildcat Mountain",
      "lat": 44.2636,
      "lng": -71.2328,
      "snowfall_24hr": 0,
      "snowfall_48hr": 3.4,
      "snowfall_7day": 4,
      "forecast_text": "3.4\" expected in next 48 hours",
      "last_updated": "2025-12-01T18:45:42.739Z"
    },
    {
      "name": "Bretton Woods",
      "lat": 44.2633,
      "lng": -71.4439,
      "snowfall_24hr": 0,
      "snowfall_48hr": 1.7,
      "snowfall_7day": 3,
      "forecast_text": "1.7\" expected in next 48 hours",
      "last_updated": "2025-12-01T18:45:42.935Z"
    },
    {
      "name": "Snowbasin",
      "lat": 41.2156,
      "lng": -111.8567,
      "snowfall_24hr": 0,
      "snowfall_48hr": 0.6,
      "snowfall_7day": 6.1,
      "forecast_text": "0.6\" expected in next 48 hours",
      "last_updated": "2025-12-01T18:45:43.131Z"
    },
    {
      "name": "Powder Mountain",
      "lat": 41.3814,
      "lng": -111.7806,
      "snowfall_24hr": 0,
      "snowfall_48hr": 0.4,
      "snowfall_7day": 5,
      "forecast_text": "0.4\" expected in next 48 hours",
      "last_updated": "2025-12-01T18:45:43.327Z"
    },
    {
      "name": "Solitude",
      "lat": 40.62,
      "lng": -111.5917,
      "snowfall_24hr": 0,
      "snowfall_48hr": 1.2,
      "snowfall_7day": 8.4,
      "forecast_text": "1.2\" expected in next 48 hours",
      "last_updated": "2025-12-01T18:45:43.523Z"
    },
    {
      "name": "Brighton",
      "lat": 40.5981,
      "lng": -111.5831,
      "snowfall_24hr": 0,
      "snowfall_48hr": 1.2,
      "snowfall_7day": 9.8,
      "forecast_text": "1.2\" expected in next 48 hours",
      "last_updated": "2025-12-01T18:45:43.719Z"
    },
    {
      "name": "Snowmass",
      "lat": 39.2133,
      "lng": -106.9378,
      "snowfall_24hr": 0.2,
      "snowfall_48hr": 1.2,
      "snowfall_7day": 3.6,
      "forecast_text": "0.2\" expected in next 24 hours",
      "last_updated": "2025-12-01T18:45:43.915Z"
    },
    {
      "name": "Aspen Highlands",
      "lat": 39.1825,
      "lng": -106.8553,
      "snowfall_24hr": 0.3,
      "snowfall_48hr": 1.3,
      "snowfall_7day": 3.9,
      "forecast_text": "0.3\" expected in next 24 hours",
      "last_updated": "2025-12-01T18:45:44.112Z"
    },
    {
      "name": "Buttermilk",
      "lat": 39.2078,
      "lng": -106.8608,
      "snowfall_24hr": 0.2,
      "snowfall_48hr": 1.3,
      "snowfall_7day": 4,
      "forecast_text": "0.2\" expected in next 24 hours",
      "last_updated": "2025-12-01T18:45:44.307Z"
    },
    {
      "name": "Beaver Creek",
      "lat": 39.6042,
      "lng": -106.5164,
      "snowfall_24hr": 0,
      "snowfall_48hr": 1.4,
      "snowfall_7day": 4.2,
      "forecast_text": "1.4\" expected in next 48 hours",
      "last_updated": "2025-12-01T18:45:44.503Z"
    },
    {
      "name": "Purgatory",
      "lat": 37.6303,
      "lng": -107.8139,
      "snowfall_24hr": 0,
      "snowfall_48hr": 0,
      "snowfall_7day": 0.8,
      "forecast_text": "0.8\" expected in next 7 days",
      "last_updated": "2025-12-01T18:45:44.699Z"
    },
    {
      "name": "Wolf Creek",
      "lat": 37.4722,
      "lng": -106.7931,
      "snowfall_24hr": 0,
      "snowfall_48hr": 0,
      "snowfall_7day": 0.8,
      "forecast_text": "0.8\" expected in next 7 days",
      "last_updated": "2025-12-01T18:45:44.896Z"
    },
    {
      "name": "Monarch Mountain",
      "lat": 38.5117,
      "lng": -106.3317,
      "snowfall_24hr": 0,
      "snowfall_48hr": 0.9,
      "snowfall_7day": 3.1,
      "forecast_text": "0.9\" expected in next 48 hours",
      "last_updated": "2025-12-01T18:45:45.092Z"
    },
    {
      "name": "Eldora",
      "lat": 39.9372,
      "lng": -105.5828,
      "snowfall_24hr": 0,
      "snowfall_48hr": 0.2,
      "snowfall_7day": 2.1,
      "forecast_text": "0.2\" expected in next 48 hours",
      "last_updated": "2025-12-01T18:45:45.289Z"
    },
    {
      "name": "Grand Targhee",
      "lat": 43.7886,
      "lng": -110.9586,
      "snowfall_24hr": 0.3,
      "snowfall_48hr": 1.9,
      "snowfall_7day": 8.5,
      "forecast_text": "0.3\" expected in next 24 hours",
      "last_updated": "2025-12-01T18:45:45.485Z"
    },
    {
      "name": "Snow King",
      "lat": 43.4783,
      "lng": -110.7628,
      "snowfall_24hr": 0,
      "snowfall_48hr": 0.3,
      "snowfall_7day": 8.4,
      "forecast_text": "0.3\" expected in next 48 hours",
      "last_updated": "2025-12-01T18:45:45.681Z"
    },
    {
      "name": "Bridger Bowl",
      "lat": 45.8167,
      "lng": -110.8969,
      "snowfall_24hr": 0,
      "snowfall_48hr": 1.8,
      "snowfall_7day": 7.7,
      "forecast_text": "1.8\" expected in next 48 hours",
      "last_updated": "2025-12-01T18:45:45.878Z"
    },
    {
      "name": "Big Mountain",
      "lat": 48.4928,
      "lng": -114.3483,
      "snowfall_24hr": 0.3,
      "snowfall_48hr": 1.7,
      "snowfall_7day": 6.5,
      "forecast_text": "0.3\" expected in next 24 hours",
      "last_updated": "2025-12-01T18:45:46.074Z"
    },
    {
      "name": "Snowbowl",
      "lat": 46.9417,
      "lng": -113.9492,
      "snowfall_24hr": 0,
      "snowfall_48hr": 0.8,
      "snowfall_7day": 4.2,
      "forecast_text": "0.8\" expected in next 48 hours",
      "last_updated": "2025-12-01T18:45:46.271Z"
    },
    {
      "name": "Bogus Basin",
      "lat": 43.7725,
      "lng": -116.0939,
      "snowfall_24hr": 0,
      "snowfall_48hr": 0.2,
      "snowfall_7day": 0.5,
      "forecast_text": "0.2\" expected in next 48 hours",
      "last_updated": "2025-12-01T18:45:46.468Z"
    },
    {
      "name": "Tamarack",
      "lat": 44.6922,
      "lng": -116.1344,
      "snowfall_24hr": 0,
      "snowfall_48hr": 0.1,
      "snowfall_7day": 1.6,
      "forecast_text": "0.1\" expected in next 48 hours",
      "last_updated": "2025-12-01T18:45:46.665Z"
    },
    {
      "name": "Silver Mountain",
      "lat": 47.6764,
      "lng": -116.0703,
      "snowfall_24hr": 0.1,
      "snowfall_48hr": 0.9,
      "snowfall_7day": 4.8,
      "forecast_text": "0.1\" expected in next 24 hours",
      "last_updated": "2025-12-01T18:45:46.861Z"
    },
    {
      "name": "Mt. Hood Meadows",
      "lat": 45.3319,
      "lng": -121.6653,
      "snowfall_24hr": 0,
      "snowfall_48hr": 0,
      "snowfall_7day": 0.3,
      "forecast_text": "0.3\" expected in next 7 days",
      "last_updated": "2025-12-01T18:45:47.057Z"
    },
    {
      "name": "Timberline",
      "lat": 45.3306,
      "lng": -121.7108,
      "snowfall_24hr": 0,
      "snowfall_48hr": 0,
      "snowfall_7day": 0.3,
      "forecast_text": "0.3\" expected in next 7 days",
      "last_updated": "2025-12-01T18:45:47.252Z"
    },
    {
      "name": "Willamette Pass",
      "lat": 43.6006,
      "lng": -122.0336,
      "snowfall_24hr": 0,
      "snowfall_48hr": 0,
      "snowfall_7day": 0,
      "forecast_text": "No snow expected",
      "last_updated": "2025-12-01T18:45:47.449Z"
    },
    {
      "name": "Mission Ridge",
      "lat": 47.2917,
      "lng": -120.3997,
      "snowfall_24hr": 0,
      "snowfall_48hr": 0,
      "snowfall_7day": 0,
      "forecast_text": "0.0\" expected in next 7 days",
      "last_updated": "2025-12-01T18:45:47.646Z"
    },
    {
      "name": "Snoqualmie",
      "lat": 47.4219,
      "lng": -121.4136,
      "snowfall_24hr": 0,
      "snowfall_48hr": 0,
      "snowfall_7day": 0.2,
      "forecast_text": "0.0\" expected in next 48 hours",
      "last_updated": "2025-12-01T18:45:47.844Z"
    },
    {
      "name": "Mt. Spokane",
      "lat": 47.9208,
      "lng": -117.0856,
      "snowfall_24hr": 0.2,
      "snowfall_48hr": 0.4,
      "snowfall_7day": 1.9,
      "forecast_text": "0.2\" expected in next 24 hours",
      "last_updated": "2025-12-01T18:45:48.041Z"
    },
    {
      "name": "White Pass",
      "lat": 46.6394,
      "lng": -121.3908,
      "snowfall_24hr": 0,
      "snowfall_48hr": 0,
      "snowfall_7day": 2.8,
      "forecast_text": "2.8\" expected in next 7 days",
      "last_updated": "2025-12-01T18:45:48.237Z"
    },
    {
      "name": "49 Degrees North",
      "lat": 48.7511,
      "lng": -117.6369,
      "snowfall_24hr": 0.3,
      "snowfall_48hr": 0.4,
      "snowfall_7day": 2.1,
      "forecast_text": "0.3\" expected in next 24 hours",
      "last_updated": "2025-12-01T18:45:48.433Z"
    },
    {
      "name": "Red Mountain",
      "lat": 49.0917,
      "lng": -117.8233,
      "snowfall_24hr": 1.5,
      "snowfall_48hr": 1.6,
      "snowfall_7day": 4.6,
      "forecast_text": "1.5\" expected in next 24 hours",
      "last_updated": "2025-12-01T18:45:48.629Z"
    },
    {
      "name": "Whitewater",
      "lat": 49.5394,
      "lng": -117.2717,
      "snowfall_24hr": 1.5,
      "snowfall_48hr": 1.9,
      "snowfall_7day": 4.9,
      "forecast_text": "1.5\" expected in next 24 hours",
      "last_updated": "2025-12-01T18:45:48.825Z"
    },
    {
      "name": "Panorama",
      "lat": 50.8036,
      "lng": -116.0533,
      "snowfall_24hr": 0,
      "snowfall_48hr": 0.1,
      "snowfall_7day": 0.5,
      "forecast_text": "0.1\" expected in next 48 hours",
      "last_updated": "2025-12-01T18:45:49.022Z"
    },
    {
      "name": "Marmot Basin",
      "lat": 52.8236,
      "lng": -118.0747,
      "snowfall_24hr": 0,
      "snowfall_48hr": 0,
      "snowfall_7day": 0.1,
      "forecast_text": "0.1\" expected in next 7 days",
      "last_updated": "2025-12-01T18:45:49.221Z"
    },
    {
      "name": "Nakiska",
      "lat": 50.98,
      "lng": -115.0733,
      "snowfall_24hr": 0,
      "snowfall_48hr": 0,
      "snowfall_7day": 0,
      "forecast_text": "No snow expected",
      "last_updated": "2025-12-01T18:45:49.419Z"
    },
    {
      "name": "Castle Mountain",
      "lat": 49.4058,
      "lng": -114.5169,
      "snowfall_24hr": 0,
      "snowfall_48hr": 0,
      "snowfall_7day": 0,
      "forecast_text": "No snow expected",
      "last_updated": "2025-12-01T18:45:49.618Z"
    },
    {
      "name": "Norquay",
      "lat": 51.1967,
      "lng": -115.5531,
      "snowfall_24hr": 0,
      "snowfall_48hr": 0,
      "snowfall_7day": 0,
      "forecast_text": "No snow expected",
      "last_updated": "2025-12-01T18:45:49.815Z"
    },
    {
      "name": "Le Massif",
      "lat": 47.3136,
      "lng": -70.6358,
      "snowfall_24hr": 0.1,
      "snowfall_48hr": 0.1,
      "snowfall_7day": 0.8,
      "forecast_text": "0.1\" expected in next 24 hours",
      "last_updated": "2025-12-01T18:45:50.015Z"
    },
    {
      "name": "Calabogie",
      "lat": 45.2906,
      "lng": -76.7019,
      "snowfall_24hr": 0,
      "snowfall_48hr": 0.1,
      "snowfall_7day": 0.1,
      "forecast_text": "0.1\" expected in next 48 hours",
      "last_updated": "2025-12-01T18:45:50.212Z"
    },
    {
      "name": "Sierra-at-Tahoe",
      "lat": 38.7986,
      "lng": -120.0828,
      "snowfall_24hr": 0,
      "snowfall_48hr": 0,
      "snowfall_7day": 0,
      "forecast_text": "No snow expected",
      "last_updated": "2025-12-01T18:45:50.409Z"
    },
    {
      "name": "Kirkwood",
      "lat": 38.6867,
      "lng": -120.0656,
      "snowfall_24hr": 0,
      "snowfall_48hr": 0,
      "snowfall_7day": 0,
      "forecast_text": "No snow expected",
      "last_updated": "2025-12-01T18:45:50.605Z"
    },
    {
      "name": "Northstar",
      "lat": 39.2733,
      "lng": -120.1211,
      "snowfall_24hr": 0,
      "snowfall_48hr": 0,
      "snowfall_7day": 0,
      "forecast_text": "No snow expected",
      "last_updated": "2025-12-01T18:45:50.801Z"
    },
    {
      "name": "Homewood",
      "lat": 39.0833,
      "lng": -120.1667,
      "snowfall_24hr": 0,
      "snowfall_48hr": 0,
      "snowfall_7day": 0,
      "forecast_text": "No snow expected",
      "last_updated": "2025-12-01T18:45:50.997Z"
    },
    {
      "name": "Mt. Rose",
      "lat": 39.3397,
      "lng": -119.8894,
      "snowfall_24hr": 0,
      "snowfall_48hr": 0,
      "snowfall_7day": 0,
      "forecast_text": "No snow expected",
      "last_updated": "2025-12-01T18:45:51.194Z"
    },
    {
      "name": "Diamond Peak",
      "lat": 39.2525,
      "lng": -119.9169,
      "snowfall_24hr": 0,
      "snowfall_48hr": 0,
      "snowfall_7day": 0,
      "forecast_text": "No snow expected",
      "last_updated": "2025-12-01T18:45:51.389Z"
    },
    {
      "name": "June Mountain",
      "lat": 37.7853,
      "lng": -119.0781,
      "snowfall_24hr": 0,
      "snowfall_48hr": 0,
      "snowfall_7day": 0,
      "forecast_text": "No snow expected",
      "last_updated": "2025-12-01T18:45:51.586Z"
    },
    {
      "name": "Bear Mountain",
      "lat": 34.235,
      "lng": -116.865,
      "snowfall_24hr": 0,
      "snowfall_48hr": 0,
      "snowfall_7day": 0,
      "forecast_text": "No snow expected",
      "last_updated": "2025-12-01T18:45:51.783Z"
    },
    {
      "name": "Snow Summit",
      "lat": 34.2306,
      "lng": -116.8886,
      "snowfall_24hr": 0,
      "snowfall_48hr": 0,
      "snowfall_7day": 0,
      "forecast_text": "No snow expected",
      "last_updated": "2025-12-01T18:45:51.979Z"
    },
    {
      "name": "Mountain High",
      "lat": 34.3811,
      "lng": -117.6881,
      "snowfall_24hr": 0,
      "snowfall_48hr": 0,
      "snowfall_7day": 0,
      "forecast_text": "No snow expected",
      "last_updated": "2025-12-01T18:45:52.175Z"
    },
    {
      "name": "Ski Santa Fe",
      "lat": 35.7869,
      "lng": -105.7961,
      "snowfall_24hr": 0.4,
      "snowfall_48hr": 0.4,
      "snowfall_7day": 1.3,
      "forecast_text": "0.4\" expected in next 24 hours",
      "last_updated": "2025-12-01T18:45:52.370Z"
    },
    {
      "name": "Angel Fire",
      "lat": 36.3975,
      "lng": -105.2886,
      "snowfall_24hr": 0.2,
      "snowfall_48hr": 0.2,
      "snowfall_7day": 4.2,
      "forecast_text": "0.2\" expected in next 24 hours",
      "last_updated": "2025-12-01T18:45:52.566Z"
    },
    {
      "name": "Whiteface Mountain",
      "lat": 44.3659,
      "lng": -73.9024,
      "snowfall_24hr": 0.4,
      "snowfall_48hr": 1.9,
      "snowfall_7day": 2.9,
      "forecast_text": "0.4\" expected in next 24 hours",
      "last_updated": "2025-12-01T18:45:52.767Z"
    },
    {
      "name": "Bristol Mountain",
      "lat": 42.7455,
      "lng": -77.4016,
      "snowfall_24hr": 0.1,
      "snowfall_48hr": 1.3,
      "snowfall_7day": 1.7,
      "forecast_text": "0.1\" expected in next 24 hours",
      "last_updated": "2025-12-01T18:45:53.255Z"
    },
    {
      "name": "Revelstoke Mountain Resort",
      "lat": 50.9981,
      "lng": -118.1958,
      "snowfall_24hr": 0.1,
      "snowfall_48hr": 0.1,
      "snowfall_7day": 4.2,
      "forecast_text": "0.1\" expected in next 24 hours",
      "last_updated": "2025-12-01T18:45:53.454Z"
    },
    {
      "name": "Big White Ski Resort",
      "lat": 49.7308,
      "lng": -118.9357,
      "snowfall_24hr": 3.1,
      "snowfall_48hr": 5.6,
      "snowfall_7day": 10.8,
      "forecast_text": "3.1\" expected in next 24 hours",
      "last_updated": "2025-12-01T18:45:53.653Z"
    },
    {
      "name": "Sun Peaks Resort",
      "lat": 50.8847,
      "lng": -119.8892,
      "snowfall_24hr": 0,
      "snowfall_48hr": 0,
      "snowfall_7day": 3.2,
      "forecast_text": "3.2\" expected in next 7 days",
      "last_updated": "2025-12-01T18:45:53.853Z"
    },
    {
      "name": "Fernie Alpine Resort",
      "lat": 49.4651,
      "lng": -115.0764,
      "snowfall_24hr": 0,
      "snowfall_48hr": 0,
      "snowfall_7day": 0.8,
      "forecast_text": "0.8\" expected in next 7 days",
      "last_updated": "2025-12-01T18:45:54.052Z"
    },
    {
      "name": "Kicking Horse Mountain Resort",
      "lat": 51.2983,
      "lng": -116.955,
      "snowfall_24hr": 0,
      "snowfall_48hr": 0,
      "snowfall_7day": 0.6,
      "forecast_text": "0.6\" expected in next 7 days",
      "last_updated": "2025-12-01T18:45:54.252Z"
    },
    {
      "name": "Panorama Mountain Resort",
      "lat": 50.9806,
      "lng": -116.0972,
      "snowfall_24hr": 0,
      "snowfall_48hr": 0,
      "snowfall_7day": 0.5,
      "forecast_text": "0.5\" expected in next 7 days",
      "last_updated": "2025-12-01T18:45:54.450Z"
    },
    {
      "name": "RED Mountain Resort",
      "lat": 49.0878,
      "lng": -117.8197,
      "snowfall_24hr": 1.5,
      "snowfall_48hr": 1.6,
      "snowfall_7day": 4.6,
      "forecast_text": "1.5\" expected in next 24 hours",
      "last_updated": "2025-12-01T18:45:54.649Z"
    },
    {
      "name": "SilverStar Mountain Resort",
      "lat": 50.4,
      "lng": -119.0833,
      "snowfall_24hr": 0.8,
      "snowfall_48hr": 2.1,
      "snowfall_7day": 4.8,
      "forecast_text": "0.8\" expected in next 24 hours",
      "last_updated": "2025-12-01T18:45:54.849Z"
    },
    {
      "name": "Lake Louise Ski Resort",
      "lat": 51.4254,
      "lng": -116.1773,
      "snowfall_24hr": 0,
      "snowfall_48hr": 0,
      "snowfall_7day": 0.1,
      "forecast_text": "0.1\" expected in next 7 days",
      "last_updated": "2025-12-01T18:45:55.047Z"
    },
    {
      "name": "Sunshine Village",
      "lat": 51.1128,
      "lng": -115.7631,
      "snowfall_24hr": 0,
      "snowfall_48hr": 0,
      "snowfall_7day": 0.5,
      "forecast_text": "0.5\" expected in next 7 days",
      "last_updated": "2025-12-01T18:45:55.246Z"
    },
    {
      "name": "Mount Norquay",
      "lat": 51.2094,
      "lng": -115.5797,
      "snowfall_24hr": 0,
      "snowfall_48hr": 0,
      "snowfall_7day": 0,
      "forecast_text": "No snow expected",
      "last_updated": "2025-12-01T18:45:55.445Z"
    },
    {
      "name": "Nakiska Ski Area",
      "lat": 50.9042,
      "lng": -115.0856,
      "snowfall_24hr": 0,
      "snowfall_48hr": 0,
      "snowfall_7day": 0,
      "forecast_text": "0.0\" expected in next 7 days",
      "last_updated": "2025-12-01T18:45:55.645Z"
    },
    {
      "name": "Le Massif de Charlevoix",
      "lat": 47.3389,
      "lng": -70.6375,
      "snowfall_24hr": 0.2,
      "snowfall_48hr": 0.2,
      "snowfall_7day": 0.5,
      "forecast_text": "0.2\" expected in next 24 hours",
      "last_updated": "2025-12-01T18:45:55.844Z"
    },
    {
      "name": "Blue Mountain Resort",
      "lat": 44.5067,
      "lng": -80.3158,
      "snowfall_24hr": 0,
      "snowfall_48hr": 0.2,
      "snowfall_7day": 1,
      "forecast_text": "0.0\" expected in next 24 hours",
      "last_updated": "2025-12-01T18:45:56.043Z"
    }
  ]
}