{
  "generated_at": "2026-01-25T12:59:37.015Z",
  "total_resorts": 115,
  "data_source": "Open-Meteo",
  "resorts": [
    {
      "name": "Whistler Blackcomb",
      "lat": 50.1163,
      "lng": -122.9574,
      "snowfall_24hr": 0,
      "snowfall_48hr": 0,
      "snowfall_7day": 17.4,
      "forecast_text": "17.4\" expected in next 7 days",
      "last_updated": "2026-01-25T12:59:06.763Z"
    },
    {
      "name": "Vail",
      "lat": 39.6403,
      "lng": -106.3742,
      "snowfall_24hr": 0.6,
      "snowfall_48hr": 0.6,
      "snowfall_7day": 0.6,
      "forecast_text": "0.6\" expected in next 24 hours",
      "last_updated": "2026-01-25T12:59:07.029Z"
    },
    {
      "name": "Park City",
      "lat": 40.6514,
      "lng": -111.5079,
      "snowfall_24hr": 0,
      "snowfall_48hr": 0,
      "snowfall_7day": 0,
      "forecast_text": "No snow expected",
      "last_updated": "2026-01-25T12:59:07.290Z"
    },
    {
      "name": "Breckenridge",
      "lat": 39.4817,
      "lng": -106.0384,
      "snowfall_24hr": 0.3,
      "snowfall_48hr": 0.3,
      "snowfall_7day": 0.3,
      "forecast_text": "0.3\" expected in next 24 hours",
      "last_updated": "2026-01-25T12:59:07.551Z"
    },
    {
      "name": "Heavenly",
      "lat": 38.935,
      "lng": -119.9403,
      "snowfall_24hr": 0,
      "snowfall_48hr": 0,
      "snowfall_7day": 0,
      "forecast_text": "No snow expected",
      "last_updated": "2026-01-25T12:59:07.811Z"
    },
    {
      "name": "Aspen Snowmass",
      "lat": 39.1911,
      "lng": -106.8175,
      "snowfall_24hr": 0.2,
      "snowfall_48hr": 0.2,
      "snowfall_7day": 0.2,
      "forecast_text": "0.2\" expected in next 24 hours",
      "last_updated": "2026-01-25T12:59:08.072Z"
    },
    {
      "name": "Jackson Hole",
      "lat": 43.5875,
      "lng": -110.8278,
      "snowfall_24hr": 0,
      "snowfall_48hr": 0,
      "snowfall_7day": 0.7,
      "forecast_text": "0.7\" expected in next 7 days",
      "last_updated": "2026-01-25T12:59:08.333Z"
    },
    {
      "name": "Banff Sunshine",
      "lat": 51.1158,
      "lng": -115.7631,
      "snowfall_24hr": 0,
      "snowfall_48hr": 0,
      "snowfall_7day": 0,
      "forecast_text": "No snow expected",
      "last_updated": "2026-01-25T12:59:08.594Z"
    },
    {
      "name": "Lake Louise",
      "lat": 51.4254,
      "lng": -116.1773,
      "snowfall_24hr": 0,
      "snowfall_48hr": 0,
      "snowfall_7day": 0,
      "forecast_text": "No snow expected",
      "last_updated": "2026-01-25T12:59:08.856Z"
    },
    {
      "name": "Big Sky",
      "lat": 45.2846,
      "lng": -111.4008,
      "snowfall_24hr": 0,
      "snowfall_48hr": 0,
      "snowfall_7day": 0.4,
      "forecast_text": "0.0\" expected in next 24 hours",
      "last_updated": "2026-01-25T12:59:09.117Z"
    },
    {
      "name": "Steamboat",
      "lat": 40.458,
      "lng": -106.8047,
      "snowfall_24hr": 0.2,
      "snowfall_48hr": 0.2,
      "snowfall_7day": 0.2,
      "forecast_text": "0.2\" expected in next 24 hours",
      "last_updated": "2026-01-25T12:59:09.378Z"
    },
    {
      "name": "Mammoth Mountain",
      "lat": 37.6308,
      "lng": -119.0326,
      "snowfall_24hr": 0,
      "snowfall_48hr": 0,
      "snowfall_7day": 0,
      "forecast_text": "No snow expected",
      "last_updated": "2026-01-25T12:59:09.638Z"
    },
    {
      "name": "Squaw Valley",
      "lat": 39.197,
      "lng": -120.2356,
      "snowfall_24hr": 0,
      "snowfall_48hr": 0,
      "snowfall_7day": 0,
      "forecast_text": "No snow expected",
      "last_updated": "2026-01-25T12:59:09.898Z"
    },
    {
      "name": "Telluride",
      "lat": 37.9375,
      "lng": -107.8123,
      "snowfall_24hr": 0,
      "snowfall_48hr": 0,
      "snowfall_7day": 0,
      "forecast_text": "No snow expected",
      "last_updated": "2026-01-25T12:59:10.160Z"
    },
    {
      "name": "Sun Valley",
      "lat": 43.6966,
      "lng": -114.3553,
      "snowfall_24hr": 0,
      "snowfall_48hr": 0,
      "snowfall_7day": 0,
      "forecast_text": "No snow expected",
      "last_updated": "2026-01-25T12:59:10.428Z"
    },
    {
      "name": "Deer Valley",
      "lat": 40.6374,
      "lng": -111.4783,
      "snowfall_24hr": 0,
      "snowfall_48hr": 0,
      "snowfall_7day": 0,
      "forecast_text": "No snow expected",
      "last_updated": "2026-01-25T12:59:10.688Z"
    },
    {
      "name": "Killington",
      "lat": 43.6046,
      "lng": -72.822,
      "snowfall_24hr": 3.6,
      "snowfall_48hr": 6.3,
      "snowfall_7day": 6.6,
      "forecast_text": "3.6\" expected in next 24 hours",
      "last_updated": "2026-01-25T12:59:10.949Z"
    },
    {
      "name": "Stowe",
      "lat": 44.5303,
      "lng": -72.7817,
      "snowfall_24hr": 2.1,
      "snowfall_48hr": 4.7,
      "snowfall_7day": 6.2,
      "forecast_text": "2.1\" expected in next 24 hours",
      "last_updated": "2026-01-25T12:59:11.210Z"
    },
    {
      "name": "Alta",
      "lat": 40.5885,
      "lng": -111.6376,
      "snowfall_24hr": 0,
      "snowfall_48hr": 0,
      "snowfall_7day": 0,
      "forecast_text": "No snow expected",
      "last_updated": "2026-01-25T12:59:11.469Z"
    },
    {
      "name": "Snowbird",
      "lat": 40.5803,
      "lng": -111.6573,
      "snowfall_24hr": 0,
      "snowfall_48hr": 0,
      "snowfall_7day": 0,
      "forecast_text": "No snow expected",
      "last_updated": "2026-01-25T12:59:11.729Z"
    },
    {
      "name": "Taos",
      "lat": 36.5924,
      "lng": -105.4467,
      "snowfall_24hr": 0,
      "snowfall_48hr": 0,
      "snowfall_7day": 0,
      "forecast_text": "No snow expected",
      "last_updated": "2026-01-25T12:59:11.989Z"
    },
    {
      "name": "Copper Mountain",
      "lat": 39.5022,
      "lng": -106.1506,
      "snowfall_24hr": 0.4,
      "snowfall_48hr": 0.4,
      "snowfall_7day": 0.4,
      "forecast_text": "0.4\" expected in next 24 hours",
      "last_updated": "2026-01-25T12:59:12.249Z"
    },
    {
      "name": "Winter Park",
      "lat": 39.8868,
      "lng": -105.7625,
      "snowfall_24hr": 0.3,
      "snowfall_48hr": 0.3,
      "snowfall_7day": 0.3,
      "forecast_text": "0.3\" expected in next 24 hours",
      "last_updated": "2026-01-25T12:59:12.509Z"
    },
    {
      "name": "Keystone",
      "lat": 39.605,
      "lng": -105.9347,
      "snowfall_24hr": 0.5,
      "snowfall_48hr": 0.5,
      "snowfall_7day": 0.5,
      "forecast_text": "0.5\" expected in next 24 hours",
      "last_updated": "2026-01-25T12:59:12.768Z"
    },
    {
      "name": "Arapahoe Basin",
      "lat": 39.6426,
      "lng": -105.8717,
      "snowfall_24hr": 0.8,
      "snowfall_48hr": 0.8,
      "snowfall_7day": 0.8,
      "forecast_text": "0.8\" expected in next 24 hours",
      "last_updated": "2026-01-25T12:59:13.028Z"
    },
    {
      "name": "Crested Butte",
      "lat": 38.8997,
      "lng": -106.9653,
      "snowfall_24hr": 0.7,
      "snowfall_48hr": 0.7,
      "snowfall_7day": 0.7,
      "forecast_text": "0.7\" expected in next 24 hours",
      "last_updated": "2026-01-25T12:59:13.288Z"
    },
    {
      "name": "Loveland",
      "lat": 39.6803,
      "lng": -105.8978,
      "snowfall_24hr": 0.9,
      "snowfall_48hr": 0.9,
      "snowfall_7day": 0.9,
      "forecast_text": "0.9\" expected in next 24 hours",
      "last_updated": "2026-01-25T12:59:13.549Z"
    },
    {
      "name": "Mt. Bachelor",
      "lat": 43.979,
      "lng": -121.688,
      "snowfall_24hr": 0,
      "snowfall_48hr": 0,
      "snowfall_7day": 0.7,
      "forecast_text": "0.7\" expected in next 7 days",
      "last_updated": "2026-01-25T12:59:13.807Z"
    },
    {
      "name": "Crystal Mountain",
      "lat": 46.9358,
      "lng": -121.4742,
      "snowfall_24hr": 0,
      "snowfall_48hr": 0,
      "snowfall_7day": 2.1,
      "forecast_text": "2.1\" expected in next 7 days",
      "last_updated": "2026-01-25T12:59:14.067Z"
    },
    {
      "name": "Stevens Pass",
      "lat": 47.7453,
      "lng": -121.0892,
      "snowfall_24hr": 0,
      "snowfall_48hr": 0,
      "snowfall_7day": 2.3,
      "forecast_text": "2.3\" expected in next 7 days",
      "last_updated": "2026-01-25T12:59:14.328Z"
    },
    {
      "name": "Mt. Baker",
      "lat": 48.8597,
      "lng": -121.6686,
      "snowfall_24hr": 0,
      "snowfall_48hr": 0,
      "snowfall_7day": 9,
      "forecast_text": "9.0\" expected in next 7 days",
      "last_updated": "2026-01-25T12:59:14.587Z"
    },
    {
      "name": "Schweitzer",
      "lat": 48.3642,
      "lng": -116.6228,
      "snowfall_24hr": 0,
      "snowfall_48hr": 0,
      "snowfall_7day": 0.5,
      "forecast_text": "0.5\" expected in next 7 days",
      "last_updated": "2026-01-25T12:59:14.847Z"
    },
    {
      "name": "Sun Peaks",
      "lat": 50.8817,
      "lng": -119.8847,
      "snowfall_24hr": 0,
      "snowfall_48hr": 0,
      "snowfall_7day": 0.2,
      "forecast_text": "0.0\" expected in next 48 hours",
      "last_updated": "2026-01-25T12:59:15.107Z"
    },
    {
      "name": "Revelstoke",
      "lat": 50.9981,
      "lng": -118.1956,
      "snowfall_24hr": 0,
      "snowfall_48hr": 0,
      "snowfall_7day": 2.6,
      "forecast_text": "2.6\" expected in next 7 days",
      "last_updated": "2026-01-25T12:59:15.366Z"
    },
    {
      "name": "Fernie",
      "lat": 49.4653,
      "lng": -115.0636,
      "snowfall_24hr": 0,
      "snowfall_48hr": 0,
      "snowfall_7day": 0.4,
      "forecast_text": "0.4\" expected in next 7 days",
      "last_updated": "2026-01-25T12:59:15.627Z"
    },
    {
      "name": "Big White",
      "lat": 49.7311,
      "lng": -118.935,
      "snowfall_24hr": 0,
      "snowfall_48hr": 0,
      "snowfall_7day": 0,
      "forecast_text": "No snow expected",
      "last_updated": "2026-01-25T12:59:15.886Z"
    },
    {
      "name": "Kicking Horse",
      "lat": 51.2514,
      "lng": -117.0492,
      "snowfall_24hr": 0,
      "snowfall_48hr": 0,
      "snowfall_7day": 0.6,
      "forecast_text": "0.6\" expected in next 7 days",
      "last_updated": "2026-01-25T12:59:16.145Z"
    },
    {
      "name": "Mont Tremblant",
      "lat": 46.2094,
      "lng": -74.5847,
      "snowfall_24hr": 0.6,
      "snowfall_48hr": 2.2,
      "snowfall_7day": 2.6,
      "forecast_text": "0.6\" expected in next 24 hours",
      "last_updated": "2026-01-25T12:59:16.405Z"
    },
    {
      "name": "Blue Mountain",
      "lat": 44.5075,
      "lng": -80.3231,
      "snowfall_24hr": 1.4,
      "snowfall_48hr": 2,
      "snowfall_7day": 5.1,
      "forecast_text": "1.4\" expected in next 24 hours",
      "last_updated": "2026-01-25T12:59:16.666Z"
    },
    {
      "name": "Sugarloaf",
      "lat": 45.0314,
      "lng": -70.3139,
      "snowfall_24hr": 1.3,
      "snowfall_48hr": 3.1,
      "snowfall_7day": 3.1,
      "forecast_text": "1.3\" expected in next 24 hours",
      "last_updated": "2026-01-25T12:59:16.925Z"
    },
    {
      "name": "Sunday River",
      "lat": 44.4697,
      "lng": -70.8561,
      "snowfall_24hr": 2,
      "snowfall_48hr": 3.5,
      "snowfall_7day": 3.7,
      "forecast_text": "2.0\" expected in next 24 hours",
      "last_updated": "2026-01-25T12:59:17.186Z"
    },
    {
      "name": "Sugarbush",
      "lat": 44.135,
      "lng": -72.9017,
      "snowfall_24hr": 2.3,
      "snowfall_48hr": 4.8,
      "snowfall_7day": 5.2,
      "forecast_text": "2.3\" expected in next 24 hours",
      "last_updated": "2026-01-25T12:59:17.446Z"
    },
    {
      "name": "Stratton",
      "lat": 43.1133,
      "lng": -72.9083,
      "snowfall_24hr": 5.4,
      "snowfall_48hr": 7.7,
      "snowfall_7day": 7.9,
      "forecast_text": "5.4\" expected in next 24 hours",
      "last_updated": "2026-01-25T12:59:17.707Z"
    },
    {
      "name": "Okemo",
      "lat": 43.4017,
      "lng": -72.7167,
      "snowfall_24hr": 3.9,
      "snowfall_48hr": 6.3,
      "snowfall_7day": 6.6,
      "forecast_text": "3.9\" expected in next 24 hours",
      "last_updated": "2026-01-25T12:59:17.981Z"
    },
    {
      "name": "Jay Peak",
      "lat": 44.9378,
      "lng": -72.5036,
      "snowfall_24hr": 1.7,
      "snowfall_48hr": 4.5,
      "snowfall_7day": 6.3,
      "forecast_text": "1.7\" expected in next 24 hours",
      "last_updated": "2026-01-25T12:59:18.242Z"
    },
    {
      "name": "Smugglers' Notch",
      "lat": 44.5458,
      "lng": -72.7872,
      "snowfall_24hr": 2.2,
      "snowfall_48hr": 4.8,
      "snowfall_7day": 6.3,
      "forecast_text": "2.2\" expected in next 24 hours",
      "last_updated": "2026-01-25T12:59:18.502Z"
    },
    {
      "name": "Loon Mountain",
      "lat": 44.0369,
      "lng": -71.6206,
      "snowfall_24hr": 2.4,
      "snowfall_48hr": 4.2,
      "snowfall_7day": 4.5,
      "forecast_text": "2.4\" expected in next 24 hours",
      "last_updated": "2026-01-25T12:59:18.761Z"
    },
    {
      "name": "Cannon Mountain",
      "lat": 44.1572,
      "lng": -71.6978,
      "snowfall_24hr": 2.9,
      "snowfall_48hr": 5.3,
      "snowfall_7day": 6.1,
      "forecast_text": "2.9\" expected in next 24 hours",
      "last_updated": "2026-01-25T12:59:19.021Z"
    },
    {
      "name": "Wildcat Mountain",
      "lat": 44.2636,
      "lng": -71.2328,
      "snowfall_24hr": 2.3,
      "snowfall_48hr": 3.9,
      "snowfall_7day": 4.5,
      "forecast_text": "2.3\" expected in next 24 hours",
      "last_updated": "2026-01-25T12:59:19.281Z"
    },
    {
      "name": "Bretton Woods",
      "lat": 44.2633,
      "lng": -71.4439,
      "snowfall_24hr": 1.4,
      "snowfall_48hr": 2.5,
      "snowfall_7day": 3.8,
      "forecast_text": "1.4\" expected in next 24 hours",
      "last_updated": "2026-01-25T12:59:19.541Z"
    },
    {
      "name": "Snowbasin",
      "lat": 41.2156,
      "lng": -111.8567,
      "snowfall_24hr": 0,
      "snowfall_48hr": 0,
      "snowfall_7day": 0,
      "forecast_text": "No snow expected",
      "last_updated": "2026-01-25T12:59:19.800Z"
    },
    {
      "name": "Powder Mountain",
      "lat": 41.3814,
      "lng": -111.7806,
      "snowfall_24hr": 0,
      "snowfall_48hr": 0,
      "snowfall_7day": 0,
      "forecast_text": "No snow expected",
      "last_updated": "2026-01-25T12:59:20.060Z"
    },
    {
      "name": "Solitude",
      "lat": 40.62,
      "lng": -111.5917,
      "snowfall_24hr": 0,
      "snowfall_48hr": 0,
      "snowfall_7day": 0,
      "forecast_text": "No snow expected",
      "last_updated": "2026-01-25T12:59:20.319Z"
    },
    {
      "name": "Brighton",
      "lat": 40.5981,
      "lng": -111.5831,
      "snowfall_24hr": 0,
      "snowfall_48hr": 0,
      "snowfall_7day": 0,
      "forecast_text": "No snow expected",
      "last_updated": "2026-01-25T12:59:20.578Z"
    },
    {
      "name": "Snowmass",
      "lat": 39.2133,
      "lng": -106.9378,
      "snowfall_24hr": 0.3,
      "snowfall_48hr": 0.3,
      "snowfall_7day": 0.3,
      "forecast_text": "0.3\" expected in next 24 hours",
      "last_updated": "2026-01-25T12:59:20.836Z"
    },
    {
      "name": "Aspen Highlands",
      "lat": 39.1825,
      "lng": -106.8553,
      "snowfall_24hr": 0.3,
      "snowfall_48hr": 0.3,
      "snowfall_7day": 0.3,
      "forecast_text": "0.3\" expected in next 24 hours",
      "last_updated": "2026-01-25T12:59:21.096Z"
    },
    {
      "name": "Buttermilk",
      "lat": 39.2078,
      "lng": -106.8608,
      "snowfall_24hr": 0.2,
      "snowfall_48hr": 0.2,
      "snowfall_7day": 0.2,
      "forecast_text": "0.2\" expected in next 24 hours",
      "last_updated": "2026-01-25T12:59:21.355Z"
    },
    {
      "name": "Beaver Creek",
      "lat": 39.6042,
      "lng": -106.5164,
      "snowfall_24hr": 0,
      "snowfall_48hr": 0,
      "snowfall_7day": 0,
      "forecast_text": "0.0\" expected in next 24 hours",
      "last_updated": "2026-01-25T12:59:21.615Z"
    },
    {
      "name": "Purgatory",
      "lat": 37.6303,
      "lng": -107.8139,
      "snowfall_24hr": 0.1,
      "snowfall_48hr": 0.1,
      "snowfall_7day": 0.1,
      "forecast_text": "0.1\" expected in next 24 hours",
      "last_updated": "2026-01-25T12:59:21.875Z"
    },
    {
      "name": "Wolf Creek",
      "lat": 37.4722,
      "lng": -106.7931,
      "snowfall_24hr": 0,
      "snowfall_48hr": 0,
      "snowfall_7day": 0,
      "forecast_text": "No snow expected",
      "last_updated": "2026-01-25T12:59:22.135Z"
    },
    {
      "name": "Monarch Mountain",
      "lat": 38.5117,
      "lng": -106.3317,
      "snowfall_24hr": 0.2,
      "snowfall_48hr": 0.2,
      "snowfall_7day": 0.2,
      "forecast_text": "0.2\" expected in next 24 hours",
      "last_updated": "2026-01-25T12:59:22.394Z"
    },
    {
      "name": "Eldora",
      "lat": 39.9372,
      "lng": -105.5828,
      "snowfall_24hr": 0.3,
      "snowfall_48hr": 0.3,
      "snowfall_7day": 0.3,
      "forecast_text": "0.3\" expected in next 24 hours",
      "last_updated": "2026-01-25T12:59:22.653Z"
    },
    {
      "name": "Grand Targhee",
      "lat": 43.7886,
      "lng": -110.9586,
      "snowfall_24hr": 0.2,
      "snowfall_48hr": 0.2,
      "snowfall_7day": 0.7,
      "forecast_text": "0.2\" expected in next 24 hours",
      "last_updated": "2026-01-25T12:59:22.913Z"
    },
    {
      "name": "Snow King",
      "lat": 43.4783,
      "lng": -110.7628,
      "snowfall_24hr": 0,
      "snowfall_48hr": 0,
      "snowfall_7day": 0.2,
      "forecast_text": "0.2\" expected in next 7 days",
      "last_updated": "2026-01-25T12:59:23.174Z"
    },
    {
      "name": "Bridger Bowl",
      "lat": 45.8167,
      "lng": -110.8969,
      "snowfall_24hr": 0,
      "snowfall_48hr": 0,
      "snowfall_7day": 0.5,
      "forecast_text": "0.5\" expected in next 7 days",
      "last_updated": "2026-01-25T12:59:23.434Z"
    },
    {
      "name": "Big Mountain",
      "lat": 48.4928,
      "lng": -114.3483,
      "snowfall_24hr": 0,
      "snowfall_48hr": 0,
      "snowfall_7day": 0.4,
      "forecast_text": "0.4\" expected in next 7 days",
      "last_updated": "2026-01-25T12:59:23.694Z"
    },
    {
      "name": "Snowbowl",
      "lat": 46.9417,
      "lng": -113.9492,
      "snowfall_24hr": 0,
      "snowfall_48hr": 0,
      "snowfall_7day": 0.1,
      "forecast_text": "0.1\" expected in next 7 days",
      "last_updated": "2026-01-25T12:59:23.958Z"
    },
    {
      "name": "Bogus Basin",
      "lat": 43.7725,
      "lng": -116.0939,
      "snowfall_24hr": 0,
      "snowfall_48hr": 0,
      "snowfall_7day": 0,
      "forecast_text": "No snow expected",
      "last_updated": "2026-01-25T12:59:24.217Z"
    },
    {
      "name": "Tamarack",
      "lat": 44.6922,
      "lng": -116.1344,
      "snowfall_24hr": 0,
      "snowfall_48hr": 0,
      "snowfall_7day": 0,
      "forecast_text": "No snow expected",
      "last_updated": "2026-01-25T12:59:24.477Z"
    },
    {
      "name": "Silver Mountain",
      "lat": 47.6764,
      "lng": -116.0703,
      "snowfall_24hr": 0,
      "snowfall_48hr": 0,
      "snowfall_7day": 0.5,
      "forecast_text": "0.5\" expected in next 7 days",
      "last_updated": "2026-01-25T12:59:24.738Z"
    },
    {
      "name": "Mt. Hood Meadows",
      "lat": 45.3319,
      "lng": -121.6653,
      "snowfall_24hr": 0,
      "snowfall_48hr": 0,
      "snowfall_7day": 0.6,
      "forecast_text": "0.6\" expected in next 7 days",
      "last_updated": "2026-01-25T12:59:24.998Z"
    },
    {
      "name": "Timberline",
      "lat": 45.3306,
      "lng": -121.7108,
      "snowfall_24hr": 0,
      "snowfall_48hr": 0,
      "snowfall_7day": 0.2,
      "forecast_text": "0.2\" expected in next 7 days",
      "last_updated": "2026-01-25T12:59:25.258Z"
    },
    {
      "name": "Willamette Pass",
      "lat": 43.6006,
      "lng": -122.0336,
      "snowfall_24hr": 0,
      "snowfall_48hr": 0,
      "snowfall_7day": 0.4,
      "forecast_text": "0.4\" expected in next 7 days",
      "last_updated": "2026-01-25T12:59:25.517Z"
    },
    {
      "name": "Mission Ridge",
      "lat": 47.2917,
      "lng": -120.3997,
      "snowfall_24hr": 0,
      "snowfall_48hr": 0,
      "snowfall_7day": 0,
      "forecast_text": "No snow expected",
      "last_updated": "2026-01-25T12:59:25.778Z"
    },
    {
      "name": "Snoqualmie",
      "lat": 47.4219,
      "lng": -121.4136,
      "snowfall_24hr": 0,
      "snowfall_48hr": 0,
      "snowfall_7day": 1,
      "forecast_text": "1.0\" expected in next 7 days",
      "last_updated": "2026-01-25T12:59:26.038Z"
    },
    {
      "name": "Mt. Spokane",
      "lat": 47.9208,
      "lng": -117.0856,
      "snowfall_24hr": 0,
      "snowfall_48hr": 0,
      "snowfall_7day": 0.1,
      "forecast_text": "0.1\" expected in next 7 days",
      "last_updated": "2026-01-25T12:59:26.297Z"
    },
    {
      "name": "White Pass",
      "lat": 46.6394,
      "lng": -121.3908,
      "snowfall_24hr": 0,
      "snowfall_48hr": 0.2,
      "snowfall_7day": 1.2,
      "forecast_text": "0.2\" expected in next 48 hours",
      "last_updated": "2026-01-25T12:59:26.558Z"
    },
    {
      "name": "49 Degrees North",
      "lat": 48.7511,
      "lng": -117.6369,
      "snowfall_24hr": 0,
      "snowfall_48hr": 0,
      "snowfall_7day": 0.1,
      "forecast_text": "0.1\" expected in next 7 days",
      "last_updated": "2026-01-25T12:59:26.817Z"
    },
    {
      "name": "Red Mountain",
      "lat": 49.0917,
      "lng": -117.8233,
      "snowfall_24hr": 0,
      "snowfall_48hr": 0,
      "snowfall_7day": 0.2,
      "forecast_text": "0.2\" expected in next 7 days",
      "last_updated": "2026-01-25T12:59:27.077Z"
    },
    {
      "name": "Whitewater",
      "lat": 49.5394,
      "lng": -117.2717,
      "snowfall_24hr": 0,
      "snowfall_48hr": 0,
      "snowfall_7day": 1.2,
      "forecast_text": "1.2\" expected in next 7 days",
      "last_updated": "2026-01-25T12:59:27.337Z"
    },
    {
      "name": "Panorama",
      "lat": 50.8036,
      "lng": -116.0533,
      "snowfall_24hr": 0,
      "snowfall_48hr": 0,
      "snowfall_7day": 0,
      "forecast_text": "No snow expected",
      "last_updated": "2026-01-25T12:59:27.597Z"
    },
    {
      "name": "Marmot Basin",
      "lat": 52.8236,
      "lng": -118.0747,
      "snowfall_24hr": 0,
      "snowfall_48hr": 0,
      "snowfall_7day": 0,
      "forecast_text": "No snow expected",
      "last_updated": "2026-01-25T12:59:27.858Z"
    },
    {
      "name": "Nakiska",
      "lat": 50.98,
      "lng": -115.0733,
      "snowfall_24hr": 0,
      "snowfall_48hr": 0,
      "snowfall_7day": 0,
      "forecast_text": "No snow expected",
      "last_updated": "2026-01-25T12:59:28.118Z"
    },
    {
      "name": "Castle Mountain",
      "lat": 49.4058,
      "lng": -114.5169,
      "snowfall_24hr": 0,
      "snowfall_48hr": 0,
      "snowfall_7day": 0,
      "forecast_text": "No snow expected",
      "last_updated": "2026-01-25T12:59:28.378Z"
    },
    {
      "name": "Norquay",
      "lat": 51.1967,
      "lng": -115.5531,
      "snowfall_24hr": 0,
      "snowfall_48hr": 0,
      "snowfall_7day": 0,
      "forecast_text": "No snow expected",
      "last_updated": "2026-01-25T12:59:28.637Z"
    },
    {
      "name": "Le Massif",
      "lat": 47.3136,
      "lng": -70.6358,
      "snowfall_24hr": 0,
      "snowfall_48hr": 2,
      "snowfall_7day": 2.1,
      "forecast_text": "2.0\" expected in next 48 hours",
      "last_updated": "2026-01-25T12:59:28.898Z"
    },
    {
      "name": "Calabogie",
      "lat": 45.2906,
      "lng": -76.7019,
      "snowfall_24hr": 1.1,
      "snowfall_48hr": 2.1,
      "snowfall_7day": 2.5,
      "forecast_text": "1.1\" expected in next 24 hours",
      "last_updated": "2026-01-25T12:59:29.159Z"
    },
    {
      "name": "Sierra-at-Tahoe",
      "lat": 38.7986,
      "lng": -120.0828,
      "snowfall_24hr": 0,
      "snowfall_48hr": 0,
      "snowfall_7day": 0,
      "forecast_text": "No snow expected",
      "last_updated": "2026-01-25T12:59:29.419Z"
    },
    {
      "name": "Kirkwood",
      "lat": 38.6867,
      "lng": -120.0656,
      "snowfall_24hr": 0,
      "snowfall_48hr": 0,
      "snowfall_7day": 0,
      "forecast_text": "No snow expected",
      "last_updated": "2026-01-25T12:59:29.680Z"
    },
    {
      "name": "Northstar",
      "lat": 39.2733,
      "lng": -120.1211,
      "snowfall_24hr": 0,
      "snowfall_48hr": 0,
      "snowfall_7day": 0,
      "forecast_text": "No snow expected",
      "last_updated": "2026-01-25T12:59:29.940Z"
    },
    {
      "name": "Homewood",
      "lat": 39.0833,
      "lng": -120.1667,
      "snowfall_24hr": 0,
      "snowfall_48hr": 0,
      "snowfall_7day": 0,
      "forecast_text": "No snow expected",
      "last_updated": "2026-01-25T12:59:30.199Z"
    },
    {
      "name": "Mt. Rose",
      "lat": 39.3397,
      "lng": -119.8894,
      "snowfall_24hr": 0,
      "snowfall_48hr": 0,
      "snowfall_7day": 0,
      "forecast_text": "No snow expected",
      "last_updated": "2026-01-25T12:59:30.459Z"
    },
    {
      "name": "Diamond Peak",
      "lat": 39.2525,
      "lng": -119.9169,
      "snowfall_24hr": 0,
      "snowfall_48hr": 0,
      "snowfall_7day": 0,
      "forecast_text": "No snow expected",
      "last_updated": "2026-01-25T12:59:30.719Z"
    },
    {
      "name": "June Mountain",
      "lat": 37.7853,
      "lng": -119.0781,
      "snowfall_24hr": 0,
      "snowfall_48hr": 0,
      "snowfall_7day": 0,
      "forecast_text": "No snow expected",
      "last_updated": "2026-01-25T12:59:30.979Z"
    },
    {
      "name": "Bear Mountain",
      "lat": 34.235,
      "lng": -116.865,
      "snowfall_24hr": 0,
      "snowfall_48hr": 0,
      "snowfall_7day": 0,
      "forecast_text": "No snow expected",
      "last_updated": "2026-01-25T12:59:31.239Z"
    },
    {
      "name": "Snow Summit",
      "lat": 34.2306,
      "lng": -116.8886,
      "snowfall_24hr": 0,
      "snowfall_48hr": 0,
      "snowfall_7day": 0,
      "forecast_text": "No snow expected",
      "last_updated": "2026-01-25T12:59:31.500Z"
    },
    {
      "name": "Mountain High",
      "lat": 34.3811,
      "lng": -117.6881,
      "snowfall_24hr": 0,
      "snowfall_48hr": 0,
      "snowfall_7day": 0,
      "forecast_text": "No snow expected",
      "last_updated": "2026-01-25T12:59:31.760Z"
    },
    {
      "name": "Ski Santa Fe",
      "lat": 35.7869,
      "lng": -105.7961,
      "snowfall_24hr": 0.2,
      "snowfall_48hr": 0.2,
      "snowfall_7day": 0.2,
      "forecast_text": "0.2\" expected in next 24 hours",
      "last_updated": "2026-01-25T12:59:32.020Z"
    },
    {
      "name": "Angel Fire",
      "lat": 36.3975,
      "lng": -105.2886,
      "snowfall_24hr": 0,
      "snowfall_48hr": 0,
      "snowfall_7day": 0,
      "forecast_text": "0.0\" expected in next 24 hours",
      "last_updated": "2026-01-25T12:59:32.281Z"
    },
    {
      "name": "Whiteface Mountain",
      "lat": 44.3659,
      "lng": -73.9024,
      "snowfall_24hr": 2.1,
      "snowfall_48hr": 4.3,
      "snowfall_7day": 5,
      "forecast_text": "2.1\" expected in next 24 hours",
      "last_updated": "2026-01-25T12:59:32.543Z"
    },
    {
      "name": "Bristol Mountain",
      "lat": 42.7455,
      "lng": -77.4016,
      "snowfall_24hr": 4.1,
      "snowfall_48hr": 4.4,
      "snowfall_7day": 4.7,
      "forecast_text": "4.1\" expected in next 24 hours",
      "last_updated": "2026-01-25T12:59:33.274Z"
    },
    {
      "name": "Revelstoke Mountain Resort",
      "lat": 50.9981,
      "lng": -118.1958,
      "snowfall_24hr": 0,
      "snowfall_48hr": 0,
      "snowfall_7day": 2.6,
      "forecast_text": "2.6\" expected in next 7 days",
      "last_updated": "2026-01-25T12:59:33.535Z"
    },
    {
      "name": "Big White Ski Resort",
      "lat": 49.7308,
      "lng": -118.9357,
      "snowfall_24hr": 0,
      "snowfall_48hr": 0,
      "snowfall_7day": 0,
      "forecast_text": "No snow expected",
      "last_updated": "2026-01-25T12:59:33.794Z"
    },
    {
      "name": "Sun Peaks Resort",
      "lat": 50.8847,
      "lng": -119.8892,
      "snowfall_24hr": 0,
      "snowfall_48hr": 0,
      "snowfall_7day": 0.2,
      "forecast_text": "0.0\" expected in next 48 hours",
      "last_updated": "2026-01-25T12:59:34.053Z"
    },
    {
      "name": "Fernie Alpine Resort",
      "lat": 49.4651,
      "lng": -115.0764,
      "snowfall_24hr": 0,
      "snowfall_48hr": 0,
      "snowfall_7day": 0.4,
      "forecast_text": "0.4\" expected in next 7 days",
      "last_updated": "2026-01-25T12:59:34.314Z"
    },
    {
      "name": "Kicking Horse Mountain Resort",
      "lat": 51.2983,
      "lng": -116.955,
      "snowfall_24hr": 0,
      "snowfall_48hr": 0,
      "snowfall_7day": 0.5,
      "forecast_text": "0.5\" expected in next 7 days",
      "last_updated": "2026-01-25T12:59:34.574Z"
    },
    {
      "name": "Panorama Mountain Resort",
      "lat": 50.9806,
      "lng": -116.0972,
      "snowfall_24hr": 0,
      "snowfall_48hr": 0,
      "snowfall_7day": 0.2,
      "forecast_text": "0.2\" expected in next 7 days",
      "last_updated": "2026-01-25T12:59:34.833Z"
    },
    {
      "name": "RED Mountain Resort",
      "lat": 49.0878,
      "lng": -117.8197,
      "snowfall_24hr": 0,
      "snowfall_48hr": 0,
      "snowfall_7day": 0.2,
      "forecast_text": "0.2\" expected in next 7 days",
      "last_updated": "2026-01-25T12:59:35.093Z"
    },
    {
      "name": "SilverStar Mountain Resort",
      "lat": 50.4,
      "lng": -119.0833,
      "snowfall_24hr": 0,
      "snowfall_48hr": 0,
      "snowfall_7day": 0.1,
      "forecast_text": "0.0\" expected in next 48 hours",
      "last_updated": "2026-01-25T12:59:35.353Z"
    },
    {
      "name": "Lake Louise Ski Resort",
      "lat": 51.4254,
      "lng": -116.1773,
      "snowfall_24hr": 0,
      "snowfall_48hr": 0,
      "snowfall_7day": 0,
      "forecast_text": "No snow expected",
      "last_updated": "2026-01-25T12:59:35.612Z"
    },
    {
      "name": "Sunshine Village",
      "lat": 51.1128,
      "lng": -115.7631,
      "snowfall_24hr": 0,
      "snowfall_48hr": 0,
      "snowfall_7day": 0,
      "forecast_text": "No snow expected",
      "last_updated": "2026-01-25T12:59:35.875Z"
    },
    {
      "name": "Mount Norquay",
      "lat": 51.2094,
      "lng": -115.5797,
      "snowfall_24hr": 0,
      "snowfall_48hr": 0,
      "snowfall_7day": 0,
      "forecast_text": "No snow expected",
      "last_updated": "2026-01-25T12:59:36.134Z"
    },
    {
      "name": "Nakiska Ski Area",
      "lat": 50.9042,
      "lng": -115.0856,
      "snowfall_24hr": 0,
      "snowfall_48hr": 0,
      "snowfall_7day": 0,
      "forecast_text": "No snow expected",
      "last_updated": "2026-01-25T12:59:36.394Z"
    },
    {
      "name": "Le Massif de Charlevoix",
      "lat": 47.3389,
      "lng": -70.6375,
      "snowfall_24hr": 0,
      "snowfall_48hr": 2,
      "snowfall_7day": 2.1,
      "forecast_text": "2.0\" expected in next 48 hours",
      "last_updated": "2026-01-25T12:59:36.654Z"
    },
    {
      "name": "Blue Mountain Resort",
      "lat": 44.5067,
      "lng": -80.3158,
      "snowfall_24hr": 1.4,
      "snowfall_48hr": 2,
      "snowfall_7day": 5.1,
      "forecast_text": "1.4\" expected in next 24 hours",
      "last_updated": "2026-01-25T12:59:36.915Z"
    }
  ]
}