{
  "generated_at": "2025-11-11T12:47:59.000Z",
  "total_resorts": 100,
  "resorts": [
    {
      "name": "Whistler Blackcomb",
      "lat": 50.1163,
      "lng": -122.9574,
      "snowfall_7day": 0,
      "forecast_text": "Data unavailable",
      "last_updated": "2025-11-11T12:41:46.419Z",
      "error": "Point API failed: 404"
    },
    {
      "name": "Vail",
      "lat": 39.6403,
      "lng": -106.3742,
      "snowfall_7day": 0,
      "forecast_text": "Mostly clear, with a low around 29. West wind around 5 mph.",
      "last_updated": "2025-11-11T12:41:49.242Z"
    },
    {
      "name": "Park City",
      "lat": 40.6514,
      "lng": -111.5079,
      "snowfall_7day": 0,
      "forecast_text": "Partly cloudy. Low around 37, with temperatures rising to around 39 overnight. Northwest wind around 2 mph.",
      "last_updated": "2025-11-11T12:41:50.667Z"
    },
    {
      "name": "Breckenridge",
      "lat": 39.4817,
      "lng": -106.0384,
      "snowfall_7day": 0,
      "forecast_text": "Mostly clear, with a low around 28. West northwest wind around 12 mph, with gusts as high as 18 mph.",
      "last_updated": "2025-11-11T12:42:08.699Z"
    },
    {
      "name": "Heavenly",
      "lat": 38.935,
      "lng": -119.9403,
      "snowfall_7day": 4.5,
      "forecast_text": "Partly cloudy, with a low around 43. South wind around 0 mph.",
      "last_updated": "2025-11-11T12:42:13.066Z"
    },
    {
      "name": "Aspen Snowmass",
      "lat": 39.1911,
      "lng": -106.8175,
      "snowfall_7day": 0,
      "forecast_text": "Mostly clear, with a low around 32. South southeast wind around 5 mph.",
      "last_updated": "2025-11-11T12:42:20.541Z"
    },
    {
      "name": "Jackson Hole",
      "lat": 43.5875,
      "lng": -110.8278,
      "snowfall_7day": 0,
      "forecast_text": "Mostly clear. Low around 31, with temperatures rising to around 37 overnight. Southwest wind around 8 mph.",
      "last_updated": "2025-11-11T12:42:24.057Z"
    },
    {
      "name": "Banff Sunshine",
      "lat": 51.1158,
      "lng": -115.7631,
      "snowfall_7day": 0,
      "forecast_text": "Data unavailable",
      "last_updated": "2025-11-11T12:42:24.377Z",
      "error": "Point API failed: 404"
    },
    {
      "name": "Lake Louise",
      "lat": 51.4254,
      "lng": -116.1773,
      "snowfall_7day": 0,
      "forecast_text": "Data unavailable",
      "last_updated": "2025-11-11T12:42:24.887Z",
      "error": "Point API failed: 404"
    },
    {
      "name": "Big Sky",
      "lat": 45.2846,
      "lng": -111.4008,
      "snowfall_7day": 2,
      "forecast_text": "Partly cloudy. Low around 32, with temperatures rising to around 35 overnight. West wind around 8 mph.",
      "last_updated": "2025-11-11T12:42:27.357Z"
    },
    {
      "name": "Steamboat",
      "lat": 40.458,
      "lng": -106.8047,
      "snowfall_7day": 0,
      "forecast_text": "Mostly clear, with a low around 30. East northeast wind around 0 mph.",
      "last_updated": "2025-11-11T12:42:28.180Z"
    },
    {
      "name": "Mammoth Mountain",
      "lat": 37.6308,
      "lng": -119.0326,
      "snowfall_7day": 29.5,
      "forecast_text": "Partly cloudy. Low around 37, with temperatures rising to around 40 overnight. Southwest wind around 10 mph.",
      "last_updated": "2025-11-11T12:42:34.343Z"
    },
    {
      "name": "Squaw Valley",
      "lat": 39.197,
      "lng": -120.2356,
      "snowfall_7day": 10,
      "forecast_text": "Partly cloudy, with a low around 37. Southwest wind around 0 mph.",
      "last_updated": "2025-11-11T12:42:46.796Z"
    },
    {
      "name": "Telluride",
      "lat": 37.9375,
      "lng": -107.8123,
      "snowfall_7day": 2,
      "forecast_text": "Mostly clear, with a low around 28. South southeast wind around 0 mph.",
      "last_updated": "2025-11-11T12:42:48.111Z"
    },
    {
      "name": "Sun Valley",
      "lat": 43.6966,
      "lng": -114.3553,
      "snowfall_7day": 0,
      "forecast_text": "Partly cloudy, with a low around 32. North northwest wind around 7 mph.",
      "last_updated": "2025-11-11T12:42:50.246Z"
    },
    {
      "name": "Deer Valley",
      "lat": 40.6374,
      "lng": -111.4783,
      "snowfall_7day": 1.5,
      "forecast_text": "Partly cloudy. Low around 35, with temperatures rising to around 37 overnight. South wind around 3 mph.",
      "last_updated": "2025-11-11T12:42:52.261Z"
    },
    {
      "name": "Killington",
      "lat": 43.6046,
      "lng": -72.822,
      "snowfall_7day": 6.5,
      "forecast_text": "A chance of snow showers before 8am, then areas of blowing snow and a chance of snow showers between 8am and noon, then snow showers likely and areas of blowing snow between noon and 1pm, then areas of blowing snow and a chance of snow showers. Cloudy, with a high near 22. Wind chill values as low as -1. West wind 20 to 28 mph, with gusts as high as 38 mph. Chance of precipitation is 60%. New snow accumulation of 1 to 3 inches possible.",
      "last_updated": "2025-11-11T12:42:54.779Z"
    },
    {
      "name": "Stowe",
      "lat": 44.5303,
      "lng": -72.7817,
      "snowfall_7day": 24,
      "forecast_text": "Snow showers before noon, then snow showers and areas of blowing snow. Cloudy, with a high near 24. West wind 10 to 17 mph, with gusts as high as 33 mph. Chance of precipitation is 90%. New snow accumulation of 3 to 5 inches possible.",
      "last_updated": "2025-11-11T12:42:56.212Z"
    },
    {
      "name": "Alta",
      "lat": 40.5885,
      "lng": -111.6376,
      "snowfall_7day": 11,
      "forecast_text": "Partly cloudy. Low around 35, with temperatures rising to around 37 overnight. West wind around 2 mph.",
      "last_updated": "2025-11-11T12:42:58.182Z"
    },
    {
      "name": "Snowbird",
      "lat": 40.5803,
      "lng": -111.6573,
      "snowfall_7day": 9.5,
      "forecast_text": "Partly cloudy, with a low around 35. West wind around 3 mph.",
      "last_updated": "2025-11-11T12:43:01.720Z"
    },
    {
      "name": "Taos",
      "lat": 36.5924,
      "lng": -105.4467,
      "snowfall_7day": 9.5,
      "forecast_text": "Mostly cloudy, with a low around 30. West wind around 10 mph.",
      "last_updated": "2025-11-11T12:43:06.106Z"
    },
    {
      "name": "Copper Mountain",
      "lat": 39.5022,
      "lng": -106.1506,
      "snowfall_7day": 3.5,
      "forecast_text": "Mostly clear, with a low around 23. West wind around 14 mph, with gusts as high as 23 mph.",
      "last_updated": "2025-11-11T12:43:07.424Z"
    },
    {
      "name": "Winter Park",
      "lat": 39.8868,
      "lng": -105.7625,
      "snowfall_7day": 2,
      "forecast_text": "Partly cloudy, with a low around 28. Northwest wind around 12 mph, with gusts as high as 18 mph.",
      "last_updated": "2025-11-11T12:43:08.959Z"
    },
    {
      "name": "Keystone",
      "lat": 39.605,
      "lng": -105.9347,
      "snowfall_7day": 0,
      "forecast_text": "Mostly clear, with a low around 27. West wind around 10 mph, with gusts as high as 17 mph.",
      "last_updated": "2025-11-11T12:43:16.318Z"
    },
    {
      "name": "Arapahoe Basin",
      "lat": 39.6426,
      "lng": -105.8717,
      "snowfall_7day": 7.5,
      "forecast_text": "Mostly clear, with a low around 29. West northwest wind around 18 mph, with gusts as high as 31 mph.",
      "last_updated": "2025-11-11T12:43:17.799Z"
    },
    {
      "name": "Crested Butte",
      "lat": 38.8997,
      "lng": -106.9653,
      "snowfall_7day": 0,
      "forecast_text": "Partly cloudy, with a low around 27. Northwest wind around 5 mph.",
      "last_updated": "2025-11-11T12:43:22.025Z"
    },
    {
      "name": "Loveland",
      "lat": 39.6803,
      "lng": -105.8978,
      "snowfall_7day": 5,
      "forecast_text": "Mostly clear, with a low around 27. West northwest wind around 20 mph, with gusts as high as 32 mph.",
      "last_updated": "2025-11-11T12:43:24.828Z"
    },
    {
      "name": "Mt. Bachelor",
      "lat": 43.979,
      "lng": -121.688,
      "snowfall_7day": 11.5,
      "forecast_text": "Partly cloudy. Low around 35, with temperatures rising to around 37 overnight. West wind around 9 mph.",
      "last_updated": "2025-11-11T12:43:27.999Z"
    },
    {
      "name": "Crystal Mountain",
      "lat": 46.9358,
      "lng": -121.4742,
      "snowfall_7day": 11.5,
      "forecast_text": "Mostly cloudy. Low around 29, with temperatures rising to around 31 overnight. Wind chill values as low as 24. Northwest wind around 7 mph.",
      "last_updated": "2025-11-11T12:43:32.740Z"
    },
    {
      "name": "Stevens Pass",
      "lat": 47.7453,
      "lng": -121.0892,
      "snowfall_7day": 6.5,
      "forecast_text": "Mostly cloudy. Low around 32, with temperatures rising to around 34 overnight. West wind around 3 mph.",
      "last_updated": "2025-11-11T12:43:36.167Z"
    },
    {
      "name": "Mt. Baker",
      "lat": 48.8597,
      "lng": -121.6686,
      "snowfall_7day": 18.5,
      "forecast_text": "Partly cloudy. Low around 31, with temperatures rising to around 33 overnight. South wind around 3 mph.",
      "last_updated": "2025-11-11T12:43:38.115Z"
    },
    {
      "name": "Schweitzer",
      "lat": 48.3642,
      "lng": -116.6228,
      "snowfall_7day": 8,
      "forecast_text": "Mostly cloudy. Low around 30, with temperatures rising to around 32 overnight. West wind around 6 mph.",
      "last_updated": "2025-11-11T12:43:43.624Z"
    },
    {
      "name": "Sun Peaks",
      "lat": 50.8817,
      "lng": -119.8847,
      "snowfall_7day": 0,
      "forecast_text": "Data unavailable",
      "last_updated": "2025-11-11T12:43:44.045Z",
      "error": "Point API failed: 404"
    },
    {
      "name": "Revelstoke",
      "lat": 50.9981,
      "lng": -118.1956,
      "snowfall_7day": 0,
      "forecast_text": "Data unavailable",
      "last_updated": "2025-11-11T12:43:44.733Z",
      "error": "Point API failed: 404"
    },
    {
      "name": "Fernie",
      "lat": 49.4653,
      "lng": -115.0636,
      "snowfall_7day": 0,
      "forecast_text": "Data unavailable",
      "last_updated": "2025-11-11T12:43:49.254Z",
      "error": "Point API failed: 404"
    },
    {
      "name": "Big White",
      "lat": 49.7311,
      "lng": -118.935,
      "snowfall_7day": 0,
      "forecast_text": "Data unavailable",
      "last_updated": "2025-11-11T12:43:49.623Z",
      "error": "Point API failed: 404"
    },
    {
      "name": "Kicking Horse",
      "lat": 51.2514,
      "lng": -117.0492,
      "snowfall_7day": 0,
      "forecast_text": "Data unavailable",
      "last_updated": "2025-11-11T12:43:49.964Z",
      "error": "Point API failed: 404"
    },
    {
      "name": "Mont Tremblant",
      "lat": 46.2094,
      "lng": -74.5847,
      "snowfall_7day": 0,
      "forecast_text": "Data unavailable",
      "last_updated": "2025-11-11T12:43:50.900Z",
      "error": "Point API failed: 404"
    },
    {
      "name": "Blue Mountain",
      "lat": 44.5075,
      "lng": -80.3231,
      "snowfall_7day": 0,
      "forecast_text": "Data unavailable",
      "last_updated": "2025-11-11T12:43:51.544Z",
      "error": "Point API failed: 404"
    },
    {
      "name": "Sugarloaf",
      "lat": 45.0314,
      "lng": -70.3139,
      "snowfall_7day": 2,
      "forecast_text": "Snow showers likely after noon. Partly sunny, with a high near 28. West wind 10 to 20 mph, with gusts as high as 40 mph. Chance of precipitation is 60%. New snow accumulation of less than half an inch possible.",
      "last_updated": "2025-11-11T12:43:56.363Z"
    },
    {
      "name": "Sunday River",
      "lat": 44.4697,
      "lng": -70.8561,
      "snowfall_7day": 0,
      "forecast_text": "Snow showers likely after noon. Partly sunny, with a high near 32. West wind 5 to 10 mph, with gusts as high as 25 mph. Chance of precipitation is 60%. New snow accumulation of less than half an inch possible.",
      "last_updated": "2025-11-11T12:43:58.216Z"
    },
    {
      "name": "Sugarbush",
      "lat": 44.135,
      "lng": -72.9017,
      "snowfall_7day": 13,
      "forecast_text": "Snow showers before 5pm, then snow showers and areas of blowing snow. Cloudy, with a high near 22. West wind 9 to 15 mph, with gusts as high as 30 mph. Chance of precipitation is 80%. New snow accumulation of 1 to 3 inches possible.",
      "last_updated": "2025-11-11T12:43:59.860Z"
    },
    {
      "name": "Stratton",
      "lat": 43.1133,
      "lng": -72.9083,
      "snowfall_7day": 0,
      "forecast_text": "A chance of snow showers between 9am and 5pm. Mostly cloudy, with a high near 28. West wind around 13 mph, with gusts as high as 31 mph. Chance of precipitation is 40%. New snow accumulation of less than one inch possible.",
      "last_updated": "2025-11-11T12:44:00.946Z"
    },
    {
      "name": "Okemo",
      "lat": 43.4017,
      "lng": -72.7167,
      "snowfall_7day": 0,
      "forecast_text": "A chance of snow showers. Mostly cloudy, with a high near 34. West wind around 13 mph, with gusts as high as 32 mph. Chance of precipitation is 40%. New snow accumulation of less than one inch possible.",
      "last_updated": "2025-11-11T12:44:09.516Z"
    },
    {
      "name": "Jay Peak",
      "lat": 44.9378,
      "lng": -72.5036,
      "snowfall_7day": 22,
      "forecast_text": "Snow showers likely before 10am, then snow showers and areas of blowing snow. Cloudy, with a high near 23. West wind 9 to 16 mph, with gusts as high as 37 mph. Chance of precipitation is 100%. New snow accumulation of 3 to 5 inches possible.",
      "last_updated": "2025-11-11T12:44:18.217Z"
    },
    {
      "name": "Smugglers' Notch",
      "lat": 44.5458,
      "lng": -72.7872,
      "snowfall_7day": 24,
      "forecast_text": "Snow showers before noon, then snow showers and areas of blowing snow. Cloudy, with a high near 24. West wind 12 to 18 mph, with gusts as high as 35 mph. Chance of precipitation is 90%. New snow accumulation of 3 to 5 inches possible.",
      "last_updated": "2025-11-11T12:44:29.282Z"
    },
    {
      "name": "Loon Mountain",
      "lat": 44.0369,
      "lng": -71.6206,
      "snowfall_7day": 1.5,
      "forecast_text": "A chance of snow showers after 11am. Mostly cloudy, with a high near 25. West wind 5 to 15 mph, with gusts as high as 25 mph. Chance of precipitation is 50%. New snow accumulation of less than one inch possible.",
      "last_updated": "2025-11-11T12:44:31.406Z"
    },
    {
      "name": "Cannon Mountain",
      "lat": 44.1572,
      "lng": -71.6978,
      "snowfall_7day": 11.5,
      "forecast_text": "Snow showers likely after 10am. Cloudy, with a high near 22. Wind chill values as low as -2. West wind 10 to 30 mph, with gusts as high as 50 mph. Chance of precipitation is 60%. New snow accumulation of 2 to 4 inches possible.",
      "last_updated": "2025-11-11T12:44:32.819Z"
    },
    {
      "name": "Wildcat Mountain",
      "lat": 44.2636,
      "lng": -71.2328,
      "snowfall_7day": 7.5,
      "forecast_text": "Snow showers likely after 11am. Partly sunny, with a high near 29. West wind 5 to 15 mph, with gusts as high as 40 mph. Chance of precipitation is 70%. New snow accumulation of 1 to 3 inches possible.",
      "last_updated": "2025-11-11T12:44:34.421Z"
    },
    {
      "name": "Bretton Woods",
      "lat": 44.2633,
      "lng": -71.4439,
      "snowfall_7day": 7,
      "forecast_text": "Snow showers likely after 10am. Mostly cloudy, with a high near 28. Northwest wind 5 to 10 mph, with gusts as high as 25 mph. Chance of precipitation is 70%. New snow accumulation of 1 to 3 inches possible.",
      "last_updated": "2025-11-11T12:44:35.131Z"
    },
    {
      "name": "Snowbasin",
      "lat": 41.2156,
      "lng": -111.8567,
      "snowfall_7day": 0,
      "forecast_text": "Partly cloudy. Low around 36, with temperatures rising to around 38 overnight. West southwest wind around 3 mph.",
      "last_updated": "2025-11-11T12:44:36.519Z"
    },
    {
      "name": "Powder Mountain",
      "lat": 41.3814,
      "lng": -111.7806,
      "snowfall_7day": 5.5,
      "forecast_text": "Partly cloudy. Low around 34, with temperatures rising to around 36 overnight. West southwest wind around 3 mph.",
      "last_updated": "2025-11-11T12:44:37.805Z"
    },
    {
      "name": "Solitude",
      "lat": 40.62,
      "lng": -111.5917,
      "snowfall_7day": 4,
      "forecast_text": "Partly cloudy. Low around 35, with temperatures rising to around 38 overnight. West wind around 3 mph.",
      "last_updated": "2025-11-11T12:44:38.971Z"
    },
    {
      "name": "Brighton",
      "lat": 40.5981,
      "lng": -111.5831,
      "snowfall_7day": 5,
      "forecast_text": "Partly cloudy. Low around 35, with temperatures rising to around 37 overnight. West wind around 2 mph.",
      "last_updated": "2025-11-11T12:44:41.357Z"
    },
    {
      "name": "Snowmass",
      "lat": 39.2133,
      "lng": -106.9378,
      "snowfall_7day": 0,
      "forecast_text": "Mostly clear, with a low around 32. West southwest wind around 5 mph.",
      "last_updated": "2025-11-11T12:44:44.275Z"
    },
    {
      "name": "Aspen Highlands",
      "lat": 39.1825,
      "lng": -106.8553,
      "snowfall_7day": 0,
      "forecast_text": "Mostly clear, with a low around 31. South southwest wind around 5 mph.",
      "last_updated": "2025-11-11T12:44:53.929Z"
    },
    {
      "name": "Buttermilk",
      "lat": 39.2078,
      "lng": -106.8608,
      "snowfall_7day": 0,
      "forecast_text": "Mostly clear, with a low around 30. South wind around 5 mph.",
      "last_updated": "2025-11-11T12:44:55.891Z"
    },
    {
      "name": "Beaver Creek",
      "lat": 39.6042,
      "lng": -106.5164,
      "snowfall_7day": 0,
      "forecast_text": "Mostly clear, with a low around 29. West wind around 5 mph.",
      "last_updated": "2025-11-11T12:44:59.474Z"
    },
    {
      "name": "Purgatory",
      "lat": 37.6303,
      "lng": -107.8139,
      "snowfall_7day": 3.5,
      "forecast_text": "Mostly clear, with a low around 30. North wind around 5 mph.",
      "last_updated": "2025-11-11T12:45:01.843Z"
    },
    {
      "name": "Wolf Creek",
      "lat": 37.4722,
      "lng": -106.7931,
      "snowfall_7day": 9,
      "forecast_text": "Partly cloudy, with a low around 29. West southwest wind around 10 mph.",
      "last_updated": "2025-11-11T12:45:15.690Z"
    },
    {
      "name": "Monarch Mountain",
      "lat": 38.5117,
      "lng": -106.3317,
      "snowfall_7day": 4.5,
      "forecast_text": "Mostly cloudy, with a low around 27. West wind around 20 mph.",
      "last_updated": "2025-11-11T12:45:23.765Z"
    },
    {
      "name": "Eldora",
      "lat": 39.9372,
      "lng": -105.5828,
      "snowfall_7day": 2,
      "forecast_text": "Mostly cloudy, with a low around 30. West wind around 26 mph, with gusts as high as 44 mph.",
      "last_updated": "2025-11-11T12:45:25.040Z"
    },
    {
      "name": "Grand Targhee",
      "lat": 43.7886,
      "lng": -110.9586,
      "snowfall_7day": 2,
      "forecast_text": "Mostly clear. Low around 24, with temperatures rising to around 28 overnight. Southwest wind around 12 mph.",
      "last_updated": "2025-11-11T12:45:30.363Z"
    },
    {
      "name": "Snow King",
      "lat": 43.4783,
      "lng": -110.7628,
      "snowfall_7day": 0,
      "forecast_text": "Mostly clear. Low around 30, with temperatures rising to around 36 overnight. South southeast wind around 8 mph.",
      "last_updated": "2025-11-11T12:45:31.318Z"
    },
    {
      "name": "Bridger Bowl",
      "lat": 45.8167,
      "lng": -110.8969,
      "snowfall_7day": 3,
      "forecast_text": "Mostly clear. Low around 37, with temperatures rising to around 40 overnight. West southwest wind around 9 mph, with gusts as high as 23 mph.",
      "last_updated": "2025-11-11T12:45:38.671Z"
    },
    {
      "name": "Big Mountain",
      "lat": 48.4928,
      "lng": -114.3483,
      "snowfall_7day": 4,
      "forecast_text": "Mostly cloudy, with a low around 29. West southwest wind around 7 mph.",
      "last_updated": "2025-11-11T12:45:40.856Z"
    },
    {
      "name": "Snowbowl",
      "lat": 46.9417,
      "lng": -113.9492,
      "snowfall_7day": 0,
      "forecast_text": "Mostly cloudy, with a low around 39. West wind around 7 mph.",
      "last_updated": "2025-11-11T12:45:43.519Z"
    },
    {
      "name": "Bogus Basin",
      "lat": 43.7725,
      "lng": -116.0939,
      "snowfall_7day": 0,
      "forecast_text": "Mostly clear, with a low around 36. West northwest wind around 5 mph.",
      "last_updated": "2025-11-11T12:45:56.046Z"
    },
    {
      "name": "Tamarack",
      "lat": 44.6922,
      "lng": -116.1344,
      "snowfall_7day": 3.5,
      "forecast_text": "Partly cloudy, with a low around 33. West wind around 3 mph.",
      "last_updated": "2025-11-11T12:46:09.431Z"
    },
    {
      "name": "Silver Mountain",
      "lat": 47.6764,
      "lng": -116.0703,
      "snowfall_7day": 0,
      "forecast_text": "Areas of fog. Mostly cloudy, with a low around 40. West wind around 2 mph. New rainfall amounts less than a tenth of an inch possible.",
      "last_updated": "2025-11-11T12:46:11.090Z"
    },
    {
      "name": "Mt. Hood Meadows",
      "lat": 45.3319,
      "lng": -121.6653,
      "snowfall_7day": 7.5,
      "forecast_text": "Mostly cloudy. Low around 36, with temperatures rising to around 38 overnight. West wind around 1 mph.",
      "last_updated": "2025-11-11T12:46:12.746Z"
    },
    {
      "name": "Timberline",
      "lat": 45.3306,
      "lng": -121.7108,
      "snowfall_7day": 24.5,
      "forecast_text": "Mostly cloudy. Low around 35, with temperatures rising to around 37 overnight. West northwest wind around 2 mph.",
      "last_updated": "2025-11-11T12:46:16.089Z"
    },
    {
      "name": "Willamette Pass",
      "lat": 43.6006,
      "lng": -122.0336,
      "snowfall_7day": 6.5,
      "forecast_text": "Partly cloudy. Low around 37, with temperatures rising to around 39 overnight. Southwest wind around 3 mph.",
      "last_updated": "2025-11-11T12:46:17.815Z"
    },
    {
      "name": "Mission Ridge",
      "lat": 47.2917,
      "lng": -120.3997,
      "snowfall_7day": 0,
      "forecast_text": "Partly cloudy, with a low around 32. West wind around 10 mph.",
      "last_updated": "2025-11-11T12:46:31.927Z"
    },
    {
      "name": "Snoqualmie",
      "lat": 47.4219,
      "lng": -121.4136,
      "snowfall_7day": 0,
      "forecast_text": "Patchy fog. Mostly cloudy. Low around 32, with temperatures rising to around 34 overnight. Northwest wind around 1 mph.",
      "last_updated": "2025-11-11T12:46:36.261Z"
    },
    {
      "name": "Mt. Spokane",
      "lat": 47.9208,
      "lng": -117.0856,
      "snowfall_7day": 0,
      "forecast_text": "Mostly cloudy. Low around 32, with temperatures rising to around 34 overnight. Southwest wind around 3 mph.",
      "last_updated": "2025-11-11T12:46:38.093Z"
    },
    {
      "name": "White Pass",
      "lat": 46.6394,
      "lng": -121.3908,
      "snowfall_7day": 4.5,
      "forecast_text": "Mostly cloudy, with a low around 30. West wind around 2 mph.",
      "last_updated": "2025-11-11T12:46:44.647Z"
    },
    {
      "name": "49 Degrees North",
      "lat": 48.7511,
      "lng": -117.6369,
      "snowfall_7day": 0,
      "forecast_text": "Areas of fog. Mostly cloudy, with a low around 34. Wind around 0 mph.",
      "last_updated": "2025-11-11T12:46:47.253Z"
    },
    {
      "name": "Red Mountain",
      "lat": 49.0917,
      "lng": -117.8233,
      "snowfall_7day": 0,
      "forecast_text": "Data unavailable",
      "last_updated": "2025-11-11T12:46:51.706Z",
      "error": "Point API failed: 404"
    },
    {
      "name": "Whitewater",
      "lat": 49.5394,
      "lng": -117.2717,
      "snowfall_7day": 0,
      "forecast_text": "Data unavailable",
      "last_updated": "2025-11-11T12:46:52.208Z",
      "error": "Point API failed: 404"
    },
    {
      "name": "Panorama",
      "lat": 50.8036,
      "lng": -116.0533,
      "snowfall_7day": 0,
      "forecast_text": "Data unavailable",
      "last_updated": "2025-11-11T12:46:52.520Z",
      "error": "Point API failed: 404"
    },
    {
      "name": "Marmot Basin",
      "lat": 52.8236,
      "lng": -118.0747,
      "snowfall_7day": 0,
      "forecast_text": "Data unavailable",
      "last_updated": "2025-11-11T12:46:52.827Z",
      "error": "Point API failed: 404"
    },
    {
      "name": "Nakiska",
      "lat": 50.98,
      "lng": -115.0733,
      "snowfall_7day": 0,
      "forecast_text": "Data unavailable",
      "last_updated": "2025-11-11T12:46:53.185Z",
      "error": "Point API failed: 404"
    },
    {
      "name": "Castle Mountain",
      "lat": 49.4058,
      "lng": -114.5169,
      "snowfall_7day": 0,
      "forecast_text": "Data unavailable",
      "last_updated": "2025-11-11T12:46:53.525Z",
      "error": "Point API failed: 404"
    },
    {
      "name": "Norquay",
      "lat": 51.1967,
      "lng": -115.5531,
      "snowfall_7day": 0,
      "forecast_text": "Data unavailable",
      "last_updated": "2025-11-11T12:46:54.534Z",
      "error": "Point API failed: 404"
    },
    {
      "name": "Le Massif",
      "lat": 47.3136,
      "lng": -70.6358,
      "snowfall_7day": 0,
      "forecast_text": "Data unavailable",
      "last_updated": "2025-11-11T12:46:58.250Z",
      "error": "Point API failed: 404"
    },
    {
      "name": "Calabogie",
      "lat": 45.2906,
      "lng": -76.7019,
      "snowfall_7day": 0,
      "forecast_text": "Data unavailable",
      "last_updated": "2025-11-11T12:46:58.578Z",
      "error": "Point API failed: 404"
    },
    {
      "name": "Sierra-at-Tahoe",
      "lat": 38.7986,
      "lng": -120.0828,
      "snowfall_7day": 18,
      "forecast_text": "Mostly cloudy, with a low around 44. Southwest wind around 0 mph.",
      "last_updated": "2025-11-11T12:46:59.866Z"
    },
    {
      "name": "Kirkwood",
      "lat": 38.6867,
      "lng": -120.0656,
      "snowfall_7day": 29.5,
      "forecast_text": "Mostly cloudy. Low around 39, with temperatures rising to around 41 overnight. South southwest wind around 7 mph.",
      "last_updated": "2025-11-11T12:47:06.092Z"
    },
    {
      "name": "Northstar",
      "lat": 39.2733,
      "lng": -120.1211,
      "snowfall_7day": 3,
      "forecast_text": "Patchy freezing fog. Partly cloudy, with a low around 42. South wind around 5 mph.",
      "last_updated": "2025-11-11T12:47:08.916Z"
    },
    {
      "name": "Homewood",
      "lat": 39.0833,
      "lng": -120.1667,
      "snowfall_7day": 8.5,
      "forecast_text": "Partly cloudy, with a low around 42. Southwest wind around 0 mph.",
      "last_updated": "2025-11-11T12:47:10.207Z"
    },
    {
      "name": "Mt. Rose",
      "lat": 39.3397,
      "lng": -119.8894,
      "snowfall_7day": 10.5,
      "forecast_text": "Partly cloudy, with a low around 41. West wind around 10 mph.",
      "last_updated": "2025-11-11T12:47:15.171Z"
    },
    {
      "name": "Diamond Peak",
      "lat": 39.2525,
      "lng": -119.9169,
      "snowfall_7day": 8.5,
      "forecast_text": "Partly cloudy, with a low around 42. West wind around 5 mph.",
      "last_updated": "2025-11-11T12:47:16.896Z"
    },
    {
      "name": "June Mountain",
      "lat": 37.7853,
      "lng": -119.0781,
      "snowfall_7day": 7,
      "forecast_text": "Partly cloudy, with a low around 40. Southwest wind around 0 mph.",
      "last_updated": "2025-11-11T12:47:19.622Z"
    },
    {
      "name": "Bear Mountain",
      "lat": 34.235,
      "lng": -116.865,
      "snowfall_7day": 0,
      "forecast_text": "Partly cloudy, with a low around 37. Southwest wind around 5 mph.",
      "last_updated": "2025-11-11T12:47:25.149Z"
    },
    {
      "name": "Snow Summit",
      "lat": 34.2306,
      "lng": -116.8886,
      "snowfall_7day": 3.5,
      "forecast_text": "Partly cloudy, with a low around 41. Southwest wind around 5 mph.",
      "last_updated": "2025-11-11T12:47:29.157Z"
    },
    {
      "name": "Mountain High",
      "lat": 34.3811,
      "lng": -117.6881,
      "snowfall_7day": 4.5,
      "forecast_text": "Mostly cloudy, with a low around 53. South southwest wind around 0 mph.",
      "last_updated": "2025-11-11T12:47:32.831Z"
    },
    {
      "name": "Ski Santa Fe",
      "lat": 35.7869,
      "lng": -105.7961,
      "snowfall_7day": 9,
      "forecast_text": "Partly cloudy, with a low around 31. Northwest wind around 15 mph.",
      "last_updated": "2025-11-11T12:47:34.021Z"
    },
    {
      "name": "Angel Fire",
      "lat": 36.3975,
      "lng": -105.2886,
      "snowfall_7day": 0,
      "forecast_text": "Mostly cloudy, with a low around 31. West wind around 5 mph.",
      "last_updated": "2025-11-11T12:47:52.769Z"
    },
    {
      "name": "Whiteface Mountain",
      "lat": 44.3659,
      "lng": -73.9024,
      "snowfall_7day": 4,
      "forecast_text": "A chance of snow showers before 8am, then snow showers and areas of blowing snow. Cloudy, with a high near 20. Wind chill values as low as -5. West wind 18 to 32 mph, with gusts as high as 46 mph. Chance of precipitation is 80%. New snow accumulation of less than one inch possible.",
      "last_updated": "2025-11-11T12:47:58.800Z"
    }
  ]
}