{
  "generated_at": "2025-11-12T18:37:54.829Z",
  "total_resorts": 100,
  "resorts": [
    {
      "name": "Whistler Blackcomb",
      "lat": 50.1163,
      "lng": -122.9574,
      "snowfall_7day": 0,
      "forecast_text": "Data unavailable",
      "last_updated": "2025-11-12T18:28:52.711Z",
      "error": "Point API failed: 404"
    },
    {
      "name": "Vail",
      "lat": 39.6403,
      "lng": -106.3742,
      "snowfall_7day": 0,
      "forecast_text": "Mostly sunny, with a high near 56. West northwest wind 0 to 5 mph.",
      "last_updated": "2025-11-12T18:28:56.790Z"
    },
    {
      "name": "Park City",
      "lat": 40.6514,
      "lng": -111.5079,
      "snowfall_7day": 5,
      "forecast_text": "Mostly cloudy. High near 61, with temperatures falling to around 55 in the afternoon. South southwest wind around 6 mph.",
      "last_updated": "2025-11-12T18:28:59.980Z"
    },
    {
      "name": "Breckenridge",
      "lat": 39.4817,
      "lng": -106.0384,
      "snowfall_7day": 1.5,
      "forecast_text": "Partly sunny. High near 54, with temperatures falling to around 45 in the afternoon. West northwest wind 8 to 12 mph, with gusts as high as 18 mph.",
      "last_updated": "2025-11-12T18:29:00.866Z"
    },
    {
      "name": "Heavenly",
      "lat": 38.935,
      "lng": -119.9403,
      "snowfall_7day": 0,
      "forecast_text": "Mostly sunny, with a high near 56. Southwest wind around 15 mph, with gusts as high as 30 mph.",
      "last_updated": "2025-11-12T18:29:02.567Z"
    },
    {
      "name": "Aspen Snowmass",
      "lat": 39.1911,
      "lng": -106.8175,
      "snowfall_7day": 0,
      "forecast_text": "Mostly sunny, with a high near 62. West northwest wind around 5 mph.",
      "last_updated": "2025-11-12T18:29:11.814Z"
    },
    {
      "name": "Jackson Hole",
      "lat": 43.5875,
      "lng": -110.8278,
      "snowfall_7day": 0,
      "forecast_text": "Mostly sunny. High near 56, with temperatures falling to around 50 in the afternoon. South southwest wind 5 to 8 mph.",
      "last_updated": "2025-11-12T18:29:13.684Z"
    },
    {
      "name": "Banff Sunshine",
      "lat": 51.1158,
      "lng": -115.7631,
      "snowfall_7day": 0,
      "forecast_text": "Data unavailable",
      "last_updated": "2025-11-12T18:29:13.989Z",
      "error": "Point API failed: 404"
    },
    {
      "name": "Lake Louise",
      "lat": 51.4254,
      "lng": -116.1773,
      "snowfall_7day": 0,
      "forecast_text": "Data unavailable",
      "last_updated": "2025-11-12T18:29:14.465Z",
      "error": "Point API failed: 404"
    },
    {
      "name": "Big Sky",
      "lat": 45.2846,
      "lng": -111.4008,
      "snowfall_7day": 7,
      "forecast_text": "Partly sunny, with a high near 46. South southwest wind around 9 mph, with gusts as high as 22 mph.",
      "last_updated": "2025-11-12T18:29:19.537Z"
    },
    {
      "name": "Steamboat",
      "lat": 40.458,
      "lng": -106.8047,
      "snowfall_7day": 0,
      "forecast_text": "Mostly sunny, with a high near 58. West northwest wind 0 to 5 mph.",
      "last_updated": "2025-11-12T18:29:29.552Z"
    },
    {
      "name": "Mammoth Mountain",
      "lat": 37.6308,
      "lng": -119.0326,
      "snowfall_7day": 26.5,
      "forecast_text": "Sunny. High near 41, with temperatures falling to around 37 in the afternoon. Wind chill values as low as 25. Southwest wind 25 to 30 mph, with gusts as high as 55 mph.",
      "last_updated": "2025-11-12T18:29:40.436Z"
    },
    {
      "name": "Squaw Valley",
      "lat": 39.197,
      "lng": -120.2356,
      "snowfall_7day": 6,
      "forecast_text": "Mostly sunny, with a high near 58. Southwest wind around 15 mph, with gusts as high as 30 mph.",
      "last_updated": "2025-11-12T18:29:45.627Z"
    },
    {
      "name": "Telluride",
      "lat": 37.9375,
      "lng": -107.8123,
      "snowfall_7day": 6,
      "forecast_text": "Mostly sunny, with a high near 55. West wind 0 to 5 mph.",
      "last_updated": "2025-11-12T18:29:48.502Z"
    },
    {
      "name": "Sun Valley",
      "lat": 43.6966,
      "lng": -114.3553,
      "snowfall_7day": 0,
      "forecast_text": "Partly sunny. High near 58, with temperatures falling to around 53 in the afternoon. South southeast wind 2 to 6 mph.",
      "last_updated": "2025-11-12T18:29:57.778Z"
    },
    {
      "name": "Deer Valley",
      "lat": 40.6374,
      "lng": -111.4783,
      "snowfall_7day": 5.5,
      "forecast_text": "Mostly cloudy. High near 57, with temperatures falling to around 52 in the afternoon. South wind around 6 mph.",
      "last_updated": "2025-11-12T18:30:05.764Z"
    },
    {
      "name": "Killington",
      "lat": 43.6046,
      "lng": -72.822,
      "snowfall_7day": 8,
      "forecast_text": "A chance of snow showers. Cloudy, with a high near 31. Southwest wind around 12 mph, with gusts as high as 22 mph. Chance of precipitation is 40%. New snow accumulation of less than one inch possible.",
      "last_updated": "2025-11-12T18:30:07.648Z"
    },
    {
      "name": "Stowe",
      "lat": 44.5303,
      "lng": -72.7817,
      "snowfall_7day": 23,
      "forecast_text": "Snow showers likely. Mostly cloudy, with a high near 31. Southwest wind around 9 mph. Chance of precipitation is 70%. New snow accumulation of less than half an inch possible.",
      "last_updated": "2025-11-12T18:30:17.912Z"
    },
    {
      "name": "Alta",
      "lat": 40.5885,
      "lng": -111.6376,
      "snowfall_7day": 28,
      "forecast_text": "Mostly cloudy. High near 48, with temperatures falling to around 43 in the afternoon. South southwest wind around 6 mph.",
      "last_updated": "2025-11-12T18:30:35.042Z"
    },
    {
      "name": "Snowbird",
      "lat": 40.5803,
      "lng": -111.6573,
      "snowfall_7day": 26,
      "forecast_text": "Mostly cloudy. High near 53, with temperatures falling to around 47 in the afternoon. South southwest wind around 6 mph.",
      "last_updated": "2025-11-12T18:30:41.699Z"
    },
    {
      "name": "Taos",
      "lat": 36.5924,
      "lng": -105.4467,
      "snowfall_7day": 3.5,
      "forecast_text": "Mostly sunny. High near 47, with temperatures falling to around 38 in the afternoon. West wind 5 to 10 mph.",
      "last_updated": "2025-11-12T18:30:43.999Z"
    },
    {
      "name": "Copper Mountain",
      "lat": 39.5022,
      "lng": -106.1506,
      "snowfall_7day": 3.5,
      "forecast_text": "Mostly sunny. High near 51, with temperatures falling to around 39 in the afternoon. West wind 8 to 12 mph, with gusts as high as 18 mph.",
      "last_updated": "2025-11-12T18:30:55.258Z"
    },
    {
      "name": "Winter Park",
      "lat": 39.8868,
      "lng": -105.7625,
      "snowfall_7day": 2,
      "forecast_text": "Partly sunny. High near 50, with temperatures falling to around 44 in the afternoon. Northwest wind 8 to 12 mph, with gusts as high as 18 mph.",
      "last_updated": "2025-11-12T18:30:57.178Z"
    },
    {
      "name": "Keystone",
      "lat": 39.605,
      "lng": -105.9347,
      "snowfall_7day": 2,
      "forecast_text": "Partly sunny. High near 54, with temperatures falling to around 46 in the afternoon. West northwest wind 8 to 12 mph, with gusts as high as 18 mph.",
      "last_updated": "2025-11-12T18:30:58.575Z"
    },
    {
      "name": "Arapahoe Basin",
      "lat": 39.6426,
      "lng": -105.8717,
      "snowfall_7day": 7.5,
      "forecast_text": "Partly sunny. High near 48, with temperatures falling to around 43 in the afternoon. West wind 9 to 13 mph, with gusts as high as 22 mph.",
      "last_updated": "2025-11-12T18:31:19.153Z"
    },
    {
      "name": "Crested Butte",
      "lat": 38.8997,
      "lng": -106.9653,
      "snowfall_7day": 2,
      "forecast_text": "Mostly sunny, with a high near 51. West wind around 5 mph.",
      "last_updated": "2025-11-12T18:31:23.662Z"
    },
    {
      "name": "Loveland",
      "lat": 39.6803,
      "lng": -105.8978,
      "snowfall_7day": 8.5,
      "forecast_text": "Partly sunny. High near 40, with temperatures falling to around 35 in the afternoon. West wind 9 to 13 mph, with gusts as high as 22 mph.",
      "last_updated": "2025-11-12T18:31:32.661Z"
    },
    {
      "name": "Mt. Bachelor",
      "lat": 43.979,
      "lng": -121.688,
      "snowfall_7day": 7,
      "forecast_text": "Partly sunny. High near 46, with temperatures falling to around 41 in the afternoon. Southwest wind around 9 mph, with gusts as high as 18 mph.",
      "last_updated": "2025-11-12T18:31:36.153Z"
    },
    {
      "name": "Crystal Mountain",
      "lat": 46.9358,
      "lng": -121.4742,
      "snowfall_7day": 3,
      "forecast_text": "Rain likely. Partly sunny. High near 46, with temperatures falling to around 42 in the afternoon. South wind 5 to 9 mph. Chance of precipitation is 60%. New rainfall amounts less than a tenth of an inch possible.",
      "last_updated": "2025-11-12T18:31:42.611Z"
    },
    {
      "name": "Stevens Pass",
      "lat": 47.7453,
      "lng": -121.0892,
      "snowfall_7day": 0,
      "forecast_text": "Rain likely. Mostly cloudy. High near 43, with temperatures falling to around 41 in the afternoon. East wind around 3 mph. Chance of precipitation is 70%. New rainfall amounts less than a tenth of an inch possible.",
      "last_updated": "2025-11-12T18:31:57.279Z"
    },
    {
      "name": "Mt. Baker",
      "lat": 48.8597,
      "lng": -121.6686,
      "snowfall_7day": 12,
      "forecast_text": "Rain. Cloudy. High near 43, with temperatures falling to around 41 in the afternoon. South wind around 7 mph. Chance of precipitation is 100%. New rainfall amounts between a quarter and half of an inch possible.",
      "last_updated": "2025-11-12T18:32:07.862Z"
    },
    {
      "name": "Schweitzer",
      "lat": 48.3642,
      "lng": -116.6228,
      "snowfall_7day": 0,
      "forecast_text": "A chance of rain. Mostly cloudy. High near 41, with temperatures falling to around 38 in the afternoon. Southwest wind around 7 mph. Chance of precipitation is 40%.",
      "last_updated": "2025-11-12T18:32:17.973Z"
    },
    {
      "name": "Sun Peaks",
      "lat": 50.8817,
      "lng": -119.8847,
      "snowfall_7day": 0,
      "forecast_text": "Data unavailable",
      "last_updated": "2025-11-12T18:32:19.001Z",
      "error": "Point API failed: 404"
    },
    {
      "name": "Revelstoke",
      "lat": 50.9981,
      "lng": -118.1956,
      "snowfall_7day": 0,
      "forecast_text": "Data unavailable",
      "last_updated": "2025-11-12T18:32:29.372Z",
      "error": "Point API failed: 404"
    },
    {
      "name": "Fernie",
      "lat": 49.4653,
      "lng": -115.0636,
      "snowfall_7day": 0,
      "forecast_text": "Data unavailable",
      "last_updated": "2025-11-12T18:32:29.951Z",
      "error": "Point API failed: 404"
    },
    {
      "name": "Big White",
      "lat": 49.7311,
      "lng": -118.935,
      "snowfall_7day": 0,
      "forecast_text": "Data unavailable",
      "last_updated": "2025-11-12T18:32:30.287Z",
      "error": "Point API failed: 404"
    },
    {
      "name": "Kicking Horse",
      "lat": 51.2514,
      "lng": -117.0492,
      "snowfall_7day": 0,
      "forecast_text": "Data unavailable",
      "last_updated": "2025-11-12T18:32:30.599Z",
      "error": "Point API failed: 404"
    },
    {
      "name": "Mont Tremblant",
      "lat": 46.2094,
      "lng": -74.5847,
      "snowfall_7day": 0,
      "forecast_text": "Data unavailable",
      "last_updated": "2025-11-12T18:32:30.851Z",
      "error": "Point API failed: 404"
    },
    {
      "name": "Blue Mountain",
      "lat": 44.5075,
      "lng": -80.3231,
      "snowfall_7day": 0,
      "forecast_text": "Data unavailable",
      "last_updated": "2025-11-12T18:32:31.101Z",
      "error": "Point API failed: 404"
    },
    {
      "name": "Sugarloaf",
      "lat": 45.0314,
      "lng": -70.3139,
      "snowfall_7day": 5,
      "forecast_text": "Isolated snow showers. Mostly cloudy, with a high near 31. Southwest wind 5 to 10 mph. Chance of precipitation is 20%. New snow accumulation of less than half an inch possible.",
      "last_updated": "2025-11-12T18:32:39.430Z"
    },
    {
      "name": "Sunday River",
      "lat": 44.4697,
      "lng": -70.8561,
      "snowfall_7day": 0,
      "forecast_text": "Scattered snow showers. Mostly cloudy, with a high near 37. Southwest wind around 5 mph. Chance of precipitation is 30%. New rainfall amounts less than a tenth of an inch possible.",
      "last_updated": "2025-11-12T18:32:41.904Z"
    },
    {
      "name": "Sugarbush",
      "lat": 44.135,
      "lng": -72.9017,
      "snowfall_7day": 10,
      "forecast_text": "A chance of snow showers. Mostly cloudy, with a high near 30. Southwest wind around 8 mph. Chance of precipitation is 50%. New snow accumulation of less than half an inch possible.",
      "last_updated": "2025-11-12T18:32:45.321Z"
    },
    {
      "name": "Stratton",
      "lat": 43.1133,
      "lng": -72.9083,
      "snowfall_7day": 0,
      "forecast_text": "A chance of snow after 2pm. Mostly cloudy, with a high near 37. Southwest wind around 6 mph. Chance of precipitation is 40%. New rainfall amounts less than a tenth of an inch possible.",
      "last_updated": "2025-11-12T18:32:50.038Z"
    },
    {
      "name": "Okemo",
      "lat": 43.4017,
      "lng": -72.7167,
      "snowfall_7day": 0,
      "forecast_text": "A chance of rain showers before 4pm, then a chance of snow showers. Mostly cloudy, with a high near 40. Southwest wind around 7 mph. Chance of precipitation is 30%. New rainfall amounts less than a tenth of an inch possible.",
      "last_updated": "2025-11-12T18:32:51.095Z"
    },
    {
      "name": "Jay Peak",
      "lat": 44.9378,
      "lng": -72.5036,
      "snowfall_7day": 22,
      "forecast_text": "Snow showers likely. Cloudy, with a high near 30. Southwest wind around 6 mph. Chance of precipitation is 70%. New snow accumulation of less than one inch possible.",
      "last_updated": "2025-11-12T18:32:56.405Z"
    },
    {
      "name": "Smugglers' Notch",
      "lat": 44.5458,
      "lng": -72.7872,
      "snowfall_7day": 24,
      "forecast_text": "Snow showers likely. Cloudy, with a high near 31. Southwest wind around 10 mph. Chance of precipitation is 70%. New snow accumulation of less than half an inch possible.",
      "last_updated": "2025-11-12T18:32:58.824Z"
    },
    {
      "name": "Loon Mountain",
      "lat": 44.0369,
      "lng": -71.6206,
      "snowfall_7day": 5.5,
      "forecast_text": "Scattered snow showers. Mostly cloudy, with a high near 30. Southwest wind around 5 mph. Chance of precipitation is 40%. New snow accumulation of less than half an inch possible.",
      "last_updated": "2025-11-12T18:33:01.494Z"
    },
    {
      "name": "Cannon Mountain",
      "lat": 44.1572,
      "lng": -71.6978,
      "snowfall_7day": 16,
      "forecast_text": "Scattered snow showers. Cloudy, with a high near 27. Southwest wind around 10 mph, with gusts as high as 25 mph. Chance of precipitation is 40%. New snow accumulation of less than half an inch possible.",
      "last_updated": "2025-11-12T18:33:21.966Z"
    },
    {
      "name": "Wildcat Mountain",
      "lat": 44.2636,
      "lng": -71.2328,
      "snowfall_7day": 4.5,
      "forecast_text": "Scattered snow showers. Mostly cloudy, with a high near 35. Southwest wind 5 to 10 mph. Chance of precipitation is 30%. New snow accumulation of less than half an inch possible.",
      "last_updated": "2025-11-12T18:33:29.807Z"
    },
    {
      "name": "Bretton Woods",
      "lat": 44.2633,
      "lng": -71.4439,
      "snowfall_7day": 8,
      "forecast_text": "Scattered snow showers. Mostly cloudy, with a high near 35. West wind around 5 mph. Chance of precipitation is 30%. New snow accumulation of less than half an inch possible.",
      "last_updated": "2025-11-12T18:33:52.463Z"
    },
    {
      "name": "Snowbasin",
      "lat": 41.2156,
      "lng": -111.8567,
      "snowfall_7day": 3.5,
      "forecast_text": "Mostly cloudy. High near 56, with temperatures falling to around 52 in the afternoon. South southwest wind around 3 mph.",
      "last_updated": "2025-11-12T18:33:56.071Z"
    },
    {
      "name": "Powder Mountain",
      "lat": 41.3814,
      "lng": -111.7806,
      "snowfall_7day": 12,
      "forecast_text": "Mostly cloudy. Low around 38, with temperatures rising to around 40 overnight. Southwest wind around 6 mph.",
      "last_updated": "2025-11-12T18:33:56.504Z"
    },
    {
      "name": "Solitude",
      "lat": 40.62,
      "lng": -111.5917,
      "snowfall_7day": 18.5,
      "forecast_text": "Mostly cloudy. High near 51, with temperatures falling to around 46 in the afternoon. South southwest wind around 6 mph.",
      "last_updated": "2025-11-12T18:33:59.626Z"
    },
    {
      "name": "Brighton",
      "lat": 40.5981,
      "lng": -111.5831,
      "snowfall_7day": 21,
      "forecast_text": "Mostly cloudy. High near 51, with temperatures falling to around 45 in the afternoon. South southwest wind around 6 mph.",
      "last_updated": "2025-11-12T18:34:00.135Z"
    },
    {
      "name": "Snowmass",
      "lat": 39.2133,
      "lng": -106.9378,
      "snowfall_7day": 0,
      "forecast_text": "Partly sunny, with a high near 57. Northwest wind around 5 mph.",
      "last_updated": "2025-11-12T18:34:04.076Z"
    },
    {
      "name": "Aspen Highlands",
      "lat": 39.1825,
      "lng": -106.8553,
      "snowfall_7day": 0,
      "forecast_text": "Mostly sunny, with a high near 60. West northwest wind 0 to 5 mph.",
      "last_updated": "2025-11-12T18:34:06.580Z"
    },
    {
      "name": "Buttermilk",
      "lat": 39.2078,
      "lng": -106.8608,
      "snowfall_7day": 0,
      "forecast_text": "Partly sunny, with a high near 62. West northwest wind around 5 mph.",
      "last_updated": "2025-11-12T18:34:17.762Z"
    },
    {
      "name": "Beaver Creek",
      "lat": 39.6042,
      "lng": -106.5164,
      "snowfall_7day": 0,
      "forecast_text": "Mostly sunny, with a high near 56. West northwest wind 0 to 5 mph.",
      "last_updated": "2025-11-12T18:34:22.253Z"
    },
    {
      "name": "Purgatory",
      "lat": 37.6303,
      "lng": -107.8139,
      "snowfall_7day": 10.5,
      "forecast_text": "Mostly sunny, with a high near 59. South southwest wind 0 to 5 mph.",
      "last_updated": "2025-11-12T18:34:28.367Z"
    },
    {
      "name": "Wolf Creek",
      "lat": 37.4722,
      "lng": -106.7931,
      "snowfall_7day": 30,
      "forecast_text": "Mostly sunny, with a high near 45. Southwest wind around 10 mph.",
      "last_updated": "2025-11-12T18:34:35.341Z"
    },
    {
      "name": "Monarch Mountain",
      "lat": 38.5117,
      "lng": -106.3317,
      "snowfall_7day": 5.5,
      "forecast_text": "Mostly sunny, with a high near 43. West wind 10 to 15 mph.",
      "last_updated": "2025-11-12T18:34:40.331Z"
    },
    {
      "name": "Eldora",
      "lat": 39.9372,
      "lng": -105.5828,
      "snowfall_7day": 3.5,
      "forecast_text": "Mostly cloudy. High near 51, with temperatures falling to around 42 in the afternoon. West wind 9 to 13 mph, with gusts as high as 21 mph.",
      "last_updated": "2025-11-12T18:34:43.074Z"
    },
    {
      "name": "Grand Targhee",
      "lat": 43.7886,
      "lng": -110.9586,
      "snowfall_7day": 7,
      "forecast_text": "Mostly sunny. High near 41, with temperatures falling to around 36 in the afternoon. Southwest wind around 10 mph.",
      "last_updated": "2025-11-12T18:34:57.064Z"
    },
    {
      "name": "Snow King",
      "lat": 43.4783,
      "lng": -110.7628,
      "snowfall_7day": 0,
      "forecast_text": "Partly sunny. High near 58, with temperatures falling to around 52 in the afternoon. Southeast wind 1 to 9 mph.",
      "last_updated": "2025-11-12T18:34:58.115Z"
    },
    {
      "name": "Bridger Bowl",
      "lat": 45.8167,
      "lng": -110.8969,
      "snowfall_7day": 2,
      "forecast_text": "Mostly sunny. High near 56, with temperatures falling to around 50 in the afternoon. Southwest wind around 7 mph.",
      "last_updated": "2025-11-12T18:35:06.158Z"
    },
    {
      "name": "Big Mountain",
      "lat": 48.4928,
      "lng": -114.3483,
      "snowfall_7day": 6,
      "forecast_text": "A slight chance of rain before 2pm. Mostly cloudy, with a high near 38. Southwest wind around 3 mph. Chance of precipitation is 20%.",
      "last_updated": "2025-11-12T18:35:07.428Z"
    },
    {
      "name": "Snowbowl",
      "lat": 46.9417,
      "lng": -113.9492,
      "snowfall_7day": 0,
      "forecast_text": "Partly sunny. High near 57, with temperatures falling to around 52 in the afternoon. West southwest wind around 3 mph.",
      "last_updated": "2025-11-12T18:35:18.289Z"
    },
    {
      "name": "Bogus Basin",
      "lat": 43.7725,
      "lng": -116.0939,
      "snowfall_7day": 1.5,
      "forecast_text": "Mostly cloudy. High near 52, with temperatures falling to around 46 in the afternoon. South wind around 6 mph.",
      "last_updated": "2025-11-12T18:35:19.995Z"
    },
    {
      "name": "Tamarack",
      "lat": 44.6922,
      "lng": -116.1344,
      "snowfall_7day": 1.5,
      "forecast_text": "Partly sunny. High near 48, with temperatures falling to around 44 in the afternoon. South southwest wind around 5 mph.",
      "last_updated": "2025-11-12T18:35:21.712Z"
    },
    {
      "name": "Silver Mountain",
      "lat": 47.6764,
      "lng": -116.0703,
      "snowfall_7day": 0,
      "forecast_text": "A slight chance of rain between 1pm and 4pm. Partly sunny. High near 53, with temperatures falling to around 49 in the afternoon. West wind around 3 mph. Chance of precipitation is 20%.",
      "last_updated": "2025-11-12T18:35:42.633Z"
    },
    {
      "name": "Mt. Hood Meadows",
      "lat": 45.3319,
      "lng": -121.6653,
      "snowfall_7day": 3.5,
      "forecast_text": "A chance of rain. Mostly cloudy. High near 51, with temperatures falling to around 46 in the afternoon. Southwest wind around 2 mph. Chance of precipitation is 30%.",
      "last_updated": "2025-11-12T18:35:50.426Z"
    },
    {
      "name": "Timberline",
      "lat": 45.3306,
      "lng": -121.7108,
      "snowfall_7day": 12,
      "forecast_text": "A chance of rain. Mostly cloudy. High near 47, with temperatures falling to around 44 in the afternoon. South wind around 5 mph. Chance of precipitation is 30%.",
      "last_updated": "2025-11-12T18:35:55.494Z"
    },
    {
      "name": "Willamette Pass",
      "lat": 43.6006,
      "lng": -122.0336,
      "snowfall_7day": 3.5,
      "forecast_text": "Partly sunny. High near 54, with temperatures falling to around 49 in the afternoon. Southeast wind 7 to 10 mph.",
      "last_updated": "2025-11-12T18:35:58.140Z"
    },
    {
      "name": "Mission Ridge",
      "lat": 47.2917,
      "lng": -120.3997,
      "snowfall_7day": 0,
      "forecast_text": "A slight chance of rain before 11am, then patchy fog and a slight chance of rain. Partly sunny. High near 40, with temperatures falling to around 38 in the afternoon. Southwest wind around 12 mph. Chance of precipitation is 20%. New rainfall amounts less than a tenth of an inch possible.",
      "last_updated": "2025-11-12T18:36:10.755Z"
    },
    {
      "name": "Snoqualmie",
      "lat": 47.4219,
      "lng": -121.4136,
      "snowfall_7day": 0,
      "forecast_text": "Rain likely before 4pm, then a chance of rain and patchy fog. Mostly cloudy. High near 48, with temperatures falling to around 45 in the afternoon. Southeast wind around 5 mph. Chance of precipitation is 60%. New rainfall amounts less than a tenth of an inch possible.",
      "last_updated": "2025-11-12T18:36:14.214Z"
    },
    {
      "name": "Mt. Spokane",
      "lat": 47.9208,
      "lng": -117.0856,
      "snowfall_7day": 0,
      "forecast_text": "A slight chance of rain between 1pm and 4pm. Mostly cloudy. High near 44, with temperatures falling to around 41 in the afternoon. South wind around 6 mph. Chance of precipitation is 20%.",
      "last_updated": "2025-11-12T18:36:16.819Z"
    },
    {
      "name": "White Pass",
      "lat": 46.6394,
      "lng": -121.3908,
      "snowfall_7day": 0,
      "forecast_text": "A chance of rain. Mostly cloudy. High near 50, with temperatures falling to around 46 in the afternoon. South wind around 3 mph. Chance of precipitation is 40%. New rainfall amounts less than a tenth of an inch possible.",
      "last_updated": "2025-11-12T18:36:17.951Z"
    },
    {
      "name": "49 Degrees North",
      "lat": 48.7511,
      "lng": -117.6369,
      "snowfall_7day": 0,
      "forecast_text": "Rain likely and patchy fog before 1pm, then patchy fog and a slight chance of rain between 1pm and 4pm, then a chance of rain and patchy fog. Mostly cloudy. High near 44, with temperatures falling to around 42 in the afternoon. East wind around 3 mph. Chance of precipitation is 60%. New rainfall amounts less than a tenth of an inch possible.",
      "last_updated": "2025-11-12T18:36:21.040Z"
    },
    {
      "name": "Red Mountain",
      "lat": 49.0917,
      "lng": -117.8233,
      "snowfall_7day": 0,
      "forecast_text": "Data unavailable",
      "last_updated": "2025-11-12T18:36:21.299Z",
      "error": "Point API failed: 404"
    },
    {
      "name": "Whitewater",
      "lat": 49.5394,
      "lng": -117.2717,
      "snowfall_7day": 0,
      "forecast_text": "Data unavailable",
      "last_updated": "2025-11-12T18:36:28.025Z",
      "error": "Point API failed: 404"
    },
    {
      "name": "Panorama",
      "lat": 50.8036,
      "lng": -116.0533,
      "snowfall_7day": 0,
      "forecast_text": "Data unavailable",
      "last_updated": "2025-11-12T18:36:28.290Z",
      "error": "Point API failed: 404"
    },
    {
      "name": "Marmot Basin",
      "lat": 52.8236,
      "lng": -118.0747,
      "snowfall_7day": 0,
      "forecast_text": "Data unavailable",
      "last_updated": "2025-11-12T18:36:31.630Z",
      "error": "Point API failed: 404"
    },
    {
      "name": "Nakiska",
      "lat": 50.98,
      "lng": -115.0733,
      "snowfall_7day": 0,
      "forecast_text": "Data unavailable",
      "last_updated": "2025-11-12T18:36:31.937Z",
      "error": "Point API failed: 404"
    },
    {
      "name": "Castle Mountain",
      "lat": 49.4058,
      "lng": -114.5169,
      "snowfall_7day": 0,
      "forecast_text": "Data unavailable",
      "last_updated": "2025-11-12T18:36:32.204Z",
      "error": "Point API failed: 404"
    },
    {
      "name": "Norquay",
      "lat": 51.1967,
      "lng": -115.5531,
      "snowfall_7day": 0,
      "forecast_text": "Data unavailable",
      "last_updated": "2025-11-12T18:36:32.455Z",
      "error": "Point API failed: 404"
    },
    {
      "name": "Le Massif",
      "lat": 47.3136,
      "lng": -70.6358,
      "snowfall_7day": 0,
      "forecast_text": "Data unavailable",
      "last_updated": "2025-11-12T18:36:32.775Z",
      "error": "Point API failed: 404"
    },
    {
      "name": "Calabogie",
      "lat": 45.2906,
      "lng": -76.7019,
      "snowfall_7day": 0,
      "forecast_text": "Data unavailable",
      "last_updated": "2025-11-12T18:36:33.409Z",
      "error": "Point API failed: 404"
    },
    {
      "name": "Sierra-at-Tahoe",
      "lat": 38.7986,
      "lng": -120.0828,
      "snowfall_7day": 9,
      "forecast_text": "Mostly sunny, with a high near 52. Southwest wind 5 to 10 mph, with gusts as high as 25 mph.",
      "last_updated": "2025-11-12T18:36:38.764Z"
    },
    {
      "name": "Kirkwood",
      "lat": 38.6867,
      "lng": -120.0656,
      "snowfall_7day": 18,
      "forecast_text": "Mostly sunny. High near 51, with temperatures falling to around 46 in the afternoon. South southwest wind around 12 mph, with gusts as high as 25 mph.",
      "last_updated": "2025-11-12T18:36:39.949Z"
    },
    {
      "name": "Northstar",
      "lat": 39.2733,
      "lng": -120.1211,
      "snowfall_7day": 3,
      "forecast_text": "Mostly sunny, with a high near 59. South wind around 15 mph, with gusts as high as 30 mph.",
      "last_updated": "2025-11-12T18:36:49.512Z"
    },
    {
      "name": "Homewood",
      "lat": 39.0833,
      "lng": -120.1667,
      "snowfall_7day": 5,
      "forecast_text": "Mostly sunny, with a high near 54. Southwest wind around 15 mph, with gusts as high as 30 mph.",
      "last_updated": "2025-11-12T18:36:57.660Z"
    },
    {
      "name": "Mt. Rose",
      "lat": 39.3397,
      "lng": -119.8894,
      "snowfall_7day": 11.5,
      "forecast_text": "Mostly sunny. High near 51, with temperatures falling to around 43 in the afternoon. Southwest wind around 15 mph, with gusts as high as 35 mph.",
      "last_updated": "2025-11-12T18:37:17.341Z"
    },
    {
      "name": "Diamond Peak",
      "lat": 39.2525,
      "lng": -119.9169,
      "snowfall_7day": 4.5,
      "forecast_text": "Mostly sunny, with a high near 54. Southwest wind around 15 mph, with gusts as high as 30 mph.",
      "last_updated": "2025-11-12T18:37:18.243Z"
    },
    {
      "name": "June Mountain",
      "lat": 37.7853,
      "lng": -119.0781,
      "snowfall_7day": 3.5,
      "forecast_text": "Sunny, with a high near 57. Southwest wind around 15 mph, with gusts as high as 35 mph.",
      "last_updated": "2025-11-12T18:37:19.719Z"
    },
    {
      "name": "Bear Mountain",
      "lat": 34.235,
      "lng": -116.865,
      "snowfall_7day": 3,
      "forecast_text": "Mostly cloudy, with a high near 63. Southwest wind 10 to 15 mph, with gusts as high as 25 mph.",
      "last_updated": "2025-11-12T18:37:21.438Z"
    },
    {
      "name": "Snow Summit",
      "lat": 34.2306,
      "lng": -116.8886,
      "snowfall_7day": 3,
      "forecast_text": "Mostly cloudy, with a high near 59. Southwest wind 5 to 15 mph, with gusts as high as 25 mph.",
      "last_updated": "2025-11-12T18:37:32.655Z"
    },
    {
      "name": "Mountain High",
      "lat": 34.3811,
      "lng": -117.6881,
      "snowfall_7day": 0,
      "forecast_text": "Partly sunny, with a high near 61. South southwest wind 10 to 15 mph, with gusts as high as 25 mph.",
      "last_updated": "2025-11-12T18:37:43.053Z"
    },
    {
      "name": "Ski Santa Fe",
      "lat": 35.7869,
      "lng": -105.7961,
      "snowfall_7day": 0,
      "forecast_text": "Mostly sunny. High near 47, with temperatures falling to around 39 in the afternoon. West wind 5 to 10 mph.",
      "last_updated": "2025-11-12T18:37:44.405Z"
    },
    {
      "name": "Angel Fire",
      "lat": 36.3975,
      "lng": -105.2886,
      "snowfall_7day": 0,
      "forecast_text": "Mostly sunny. High near 59, with temperatures falling to around 49 in the afternoon. West wind 5 to 10 mph.",
      "last_updated": "2025-11-12T18:37:52.769Z"
    },
    {
      "name": "Whiteface Mountain",
      "lat": 44.3659,
      "lng": -73.9024,
      "snowfall_7day": 7,
      "forecast_text": "Snow showers likely. Mostly cloudy, with a high near 28. Southwest wind around 10 mph, with gusts as high as 22 mph. Chance of precipitation is 70%. New snow accumulation of less than one inch possible.",
      "last_updated": "2025-11-12T18:37:54.630Z"
    }
  ]
}