{
  "generated_at": "2025-11-10T01:53:12.020Z",
  "total_resorts": 99,
  "resorts": [
    {
      "name": "Whistler Blackcomb",
      "lat": 50.1163,
      "lng": -122.9574,
      "snowfall_7day": 0,
      "forecast_text": "Data unavailable",
      "last_updated": "2025-11-10T01:42:59.989Z",
      "error": "Point API failed: 404"
    },
    {
      "name": "Vail",
      "lat": 39.6403,
      "lng": -106.3742,
      "snowfall_7day": 0,
      "forecast_text": "Mostly clear, with a low around 25. South southwest wind around 0 mph.",
      "last_updated": "2025-11-10T01:43:06.465Z"
    },
    {
      "name": "Park City",
      "lat": 40.6514,
      "lng": -111.5079,
      "snowfall_7day": 0,
      "forecast_text": "Mostly clear, with a low around 36. West southwest wind around 2 mph.",
      "last_updated": "2025-11-10T01:43:17.057Z"
    },
    {
      "name": "Breckenridge",
      "lat": 39.4817,
      "lng": -106.0384,
      "snowfall_7day": 0,
      "forecast_text": "Mostly clear, with a low around 22. West northwest wind 9 to 13 mph, with gusts as high as 21 mph.",
      "last_updated": "2025-11-10T01:43:21.347Z"
    },
    {
      "name": "Heavenly",
      "lat": 38.935,
      "lng": -119.9403,
      "snowfall_7day": 0,
      "forecast_text": "Mostly sunny, with a high near 61. East wind around 0 mph.",
      "last_updated": "2025-11-10T01:43:24.061Z"
    },
    {
      "name": "Aspen Snowmass",
      "lat": 39.1911,
      "lng": -106.8175,
      "snowfall_7day": 0,
      "forecast_text": "Mostly clear, with a low around 31. South wind around 5 mph.",
      "last_updated": "2025-11-10T01:43:29.870Z"
    },
    {
      "name": "Jackson Hole",
      "lat": 43.5875,
      "lng": -110.8278,
      "snowfall_7day": 0,
      "forecast_text": "Partly cloudy, with a low around 25. Northwest wind around 5 mph.",
      "last_updated": "2025-11-10T01:43:31.633Z"
    },
    {
      "name": "Banff Sunshine",
      "lat": 51.1158,
      "lng": -115.7631,
      "snowfall_7day": 0,
      "forecast_text": "Data unavailable",
      "last_updated": "2025-11-10T01:43:34.836Z",
      "error": "Point API failed: 404"
    },
    {
      "name": "Lake Louise",
      "lat": 51.4254,
      "lng": -116.1773,
      "snowfall_7day": 0,
      "forecast_text": "Data unavailable",
      "last_updated": "2025-11-10T01:43:39.341Z",
      "error": "Point API failed: 404"
    },
    {
      "name": "Big Sky",
      "lat": 45.2846,
      "lng": -111.4008,
      "snowfall_7day": 0,
      "forecast_text": "Mostly cloudy, with a low around 34. Southwest wind around 8 mph.",
      "last_updated": "2025-11-10T01:43:53.943Z"
    },
    {
      "name": "Steamboat",
      "lat": 40.458,
      "lng": -106.8047,
      "snowfall_7day": 0,
      "forecast_text": "Mostly clear, with a low around 26. East wind around 0 mph.",
      "last_updated": "2025-11-10T01:43:55.599Z"
    },
    {
      "name": "Mammoth Mountain",
      "lat": 37.6308,
      "lng": -119.0326,
      "snowfall_7day": 0,
      "forecast_text": "Sunny. High near 50, with temperatures falling to around 45 in the afternoon. East northeast wind around 5 mph.",
      "last_updated": "2025-11-10T01:43:56.707Z"
    },
    {
      "name": "Squaw Valley",
      "lat": 39.197,
      "lng": -120.2356,
      "snowfall_7day": 0,
      "forecast_text": "Mostly sunny. High near 67, with temperatures falling to around 58 in the afternoon. East wind around 0 mph.",
      "last_updated": "2025-11-10T01:44:00.097Z"
    },
    {
      "name": "Telluride",
      "lat": 37.9375,
      "lng": -107.8123,
      "snowfall_7day": 0,
      "forecast_text": "Clear, with a low around 26. East northeast wind around 0 mph.",
      "last_updated": "2025-11-10T01:44:20.413Z"
    },
    {
      "name": "Sun Valley",
      "lat": 43.6966,
      "lng": -114.3553,
      "snowfall_7day": 0,
      "forecast_text": "Partly cloudy, with a low around 33. North northwest wind around 5 mph.",
      "last_updated": "2025-11-10T01:44:23.890Z"
    },
    {
      "name": "Deer Valley",
      "lat": 40.6374,
      "lng": -111.4783,
      "snowfall_7day": 0,
      "forecast_text": "Mostly clear, with a low around 34. West southwest wind around 3 mph.",
      "last_updated": "2025-11-10T01:44:24.823Z"
    },
    {
      "name": "Killington",
      "lat": 43.6046,
      "lng": -72.822,
      "snowfall_7day": 0,
      "forecast_text": "Rain. Cloudy, with a low around 36. South wind 25 to 41 mph. Chance of precipitation is 90%. New rainfall amounts between a quarter and half of an inch possible.",
      "last_updated": "2025-11-10T01:44:34.495Z"
    },
    {
      "name": "Stowe",
      "lat": 44.5303,
      "lng": -72.7817,
      "snowfall_7day": 0,
      "forecast_text": "Rain. Cloudy. Low around 32, with temperatures rising to around 39 overnight. Southeast wind 8 to 16 mph, with gusts as high as 30 mph. Chance of precipitation is 90%. New rainfall amounts between a half and three quarters of an inch possible.",
      "last_updated": "2025-11-10T01:44:49.850Z"
    },
    {
      "name": "Alta",
      "lat": 40.5885,
      "lng": -111.6376,
      "snowfall_7day": 0,
      "forecast_text": "Mostly clear. Low around 33, with temperatures rising to around 35 overnight. North northwest wind around 5 mph.",
      "last_updated": "2025-11-10T01:44:56.194Z"
    },
    {
      "name": "Snowbird",
      "lat": 40.5803,
      "lng": -111.6573,
      "snowfall_7day": 0,
      "forecast_text": "Partly cloudy, with a low around 34. North northeast wind around 5 mph.",
      "last_updated": "2025-11-10T01:44:57.260Z"
    },
    {
      "name": "Taos",
      "lat": 36.5924,
      "lng": -105.4467,
      "snowfall_7day": 0,
      "forecast_text": "Mostly clear, with a low around 25. West wind around 5 mph.",
      "last_updated": "2025-11-10T01:44:58.436Z"
    },
    {
      "name": "Copper Mountain",
      "lat": 39.5022,
      "lng": -106.1506,
      "snowfall_7day": 0,
      "forecast_text": "Mostly clear, with a low around 19. West wind 9 to 13 mph, with gusts as high as 21 mph.",
      "last_updated": "2025-11-10T01:45:20.889Z"
    },
    {
      "name": "Winter Park",
      "lat": 39.8868,
      "lng": -105.7625,
      "snowfall_7day": 0,
      "forecast_text": "Mostly clear, with a low around 24. West wind around 10 mph, with gusts as high as 16 mph.",
      "last_updated": "2025-11-10T01:45:23.269Z"
    },
    {
      "name": "Keystone",
      "lat": 39.605,
      "lng": -105.9347,
      "snowfall_7day": 0,
      "forecast_text": "Mostly clear, with a low around 22. Southwest wind 8 to 13 mph, with gusts as high as 21 mph.",
      "last_updated": "2025-11-10T01:45:51.683Z"
    },
    {
      "name": "Arapahoe Basin",
      "lat": 39.6426,
      "lng": -105.8717,
      "snowfall_7day": 0,
      "forecast_text": "Mostly clear, with a low around 23. West wind around 16 mph, with gusts as high as 25 mph.",
      "last_updated": "2025-11-10T01:45:57.264Z"
    },
    {
      "name": "Crested Butte",
      "lat": 38.8997,
      "lng": -106.9653,
      "snowfall_7day": 0,
      "forecast_text": "Mostly clear, with a low around 25. Northwest wind 0 to 5 mph.",
      "last_updated": "2025-11-10T01:46:07.050Z"
    },
    {
      "name": "Loveland",
      "lat": 39.6803,
      "lng": -105.8978,
      "snowfall_7day": 0,
      "forecast_text": "Mostly clear, with a low around 21. West northwest wind around 16 mph, with gusts as high as 25 mph.",
      "last_updated": "2025-11-10T01:46:08.431Z"
    },
    {
      "name": "Mt. Bachelor",
      "lat": 43.979,
      "lng": -121.688,
      "snowfall_7day": 0,
      "forecast_text": "Mostly cloudy. High near 53, with temperatures falling to around 45 in the afternoon. Southwest wind around 6 mph.",
      "last_updated": "2025-11-10T01:46:19.082Z"
    },
    {
      "name": "Crystal Mountain",
      "lat": 46.9358,
      "lng": -121.4742,
      "snowfall_7day": 0,
      "forecast_text": "Partly sunny. High near 51, with temperatures falling to around 45 in the afternoon. South wind around 7 mph.",
      "last_updated": "2025-11-10T01:46:31.109Z"
    },
    {
      "name": "Stevens Pass",
      "lat": 47.7453,
      "lng": -121.0892,
      "snowfall_7day": 0,
      "forecast_text": "Mostly cloudy. High near 44, with temperatures falling to around 40 in the afternoon. East wind around 5 mph.",
      "last_updated": "2025-11-10T01:46:40.606Z"
    },
    {
      "name": "Mt. Baker",
      "lat": 48.8597,
      "lng": -121.6686,
      "snowfall_7day": 0,
      "forecast_text": "Mostly cloudy. High near 52, with temperatures falling to around 47 in the afternoon. South wind around 10 mph. New rainfall amounts less than a tenth of an inch possible.",
      "last_updated": "2025-11-10T01:46:44.169Z"
    },
    {
      "name": "Schweitzer",
      "lat": 48.3642,
      "lng": -116.6228,
      "snowfall_7day": 0,
      "forecast_text": "Mostly sunny. High near 39, with temperatures falling to around 35 in the afternoon. Southwest wind around 5 mph.",
      "last_updated": "2025-11-10T01:46:49.973Z"
    },
    {
      "name": "Sun Peaks",
      "lat": 50.8817,
      "lng": -119.8847,
      "snowfall_7day": 0,
      "forecast_text": "Data unavailable",
      "last_updated": "2025-11-10T01:46:50.546Z",
      "error": "Point API failed: 404"
    },
    {
      "name": "Revelstoke",
      "lat": 50.9981,
      "lng": -118.1956,
      "snowfall_7day": 0,
      "forecast_text": "Data unavailable",
      "last_updated": "2025-11-10T01:46:51.459Z",
      "error": "Point API failed: 404"
    },
    {
      "name": "Fernie",
      "lat": 49.4653,
      "lng": -115.0636,
      "snowfall_7day": 0,
      "forecast_text": "Data unavailable",
      "last_updated": "2025-11-10T01:46:52.159Z",
      "error": "Point API failed: 404"
    },
    {
      "name": "Big White",
      "lat": 49.7311,
      "lng": -118.935,
      "snowfall_7day": 0,
      "forecast_text": "Data unavailable",
      "last_updated": "2025-11-10T01:46:52.869Z",
      "error": "Point API failed: 404"
    },
    {
      "name": "Kicking Horse",
      "lat": 51.2514,
      "lng": -117.0492,
      "snowfall_7day": 0,
      "forecast_text": "Data unavailable",
      "last_updated": "2025-11-10T01:46:55.803Z",
      "error": "Point API failed: 404"
    },
    {
      "name": "Mont Tremblant",
      "lat": 46.2094,
      "lng": -74.5847,
      "snowfall_7day": 0,
      "forecast_text": "Data unavailable",
      "last_updated": "2025-11-10T01:47:00.917Z",
      "error": "Point API failed: 404"
    },
    {
      "name": "Blue Mountain",
      "lat": 44.5075,
      "lng": -80.3231,
      "snowfall_7day": 0,
      "forecast_text": "Data unavailable",
      "last_updated": "2025-11-10T01:47:01.682Z",
      "error": "Point API failed: 404"
    },
    {
      "name": "Sugarloaf",
      "lat": 45.0314,
      "lng": -70.3139,
      "snowfall_7day": 0,
      "forecast_text": "Sleet and freezing rain before 9pm, then sleet and freezing rain and a slight chance of snow between 9pm and 10pm, then snow and sleet and freezing rain between 10pm and 1am, then sleet and freezing rain and rain. Cloudy. Low around 27, with temperatures rising to around 35 overnight. Southeast wind around 15 mph, with gusts as high as 25 mph. Chance of precipitation is 90%. New snow accumulation of less than half an inch possible. Little or no ice accumulation expected.",
      "last_updated": "2025-11-10T01:47:13.105Z"
    },
    {
      "name": "Sunday River",
      "lat": 44.4697,
      "lng": -70.8561,
      "snowfall_7day": 0,
      "forecast_text": "Sleet and freezing rain and rain before midnight, then rain and patchy fog. Cloudy. Low around 31, with temperatures rising to around 39 overnight. Northeast wind 5 to 10 mph. Chance of precipitation is 90%. New snow accumulation of less than half an inch possible. Little or no ice accumulation expected.",
      "last_updated": "2025-11-10T01:47:15.260Z"
    },
    {
      "name": "Sugarbush",
      "lat": 44.135,
      "lng": -72.9017,
      "snowfall_7day": 0,
      "forecast_text": "Rain. Cloudy. Low around 33, with temperatures rising to around 40 overnight. Southeast wind 21 to 39 mph. Chance of precipitation is 90%. New rainfall amounts between a quarter and half of an inch possible.",
      "last_updated": "2025-11-10T01:47:22.475Z"
    },
    {
      "name": "Stratton",
      "lat": 43.1133,
      "lng": -72.9083,
      "snowfall_7day": 0,
      "forecast_text": "Rain. Cloudy, with a low around 41. South wind 2 to 6 mph. Chance of precipitation is 90%. New rainfall amounts between a quarter and half of an inch possible.",
      "last_updated": "2025-11-10T01:47:25.136Z"
    },
    {
      "name": "Okemo",
      "lat": 43.4017,
      "lng": -72.7167,
      "snowfall_7day": 0,
      "forecast_text": "Rain. Cloudy, with a low around 40. Southeast wind 3 to 8 mph. Chance of precipitation is 90%. New rainfall amounts between a quarter and half of an inch possible.",
      "last_updated": "2025-11-10T01:47:34.549Z"
    },
    {
      "name": "Jay Peak",
      "lat": 44.9378,
      "lng": -72.5036,
      "snowfall_7day": 0,
      "forecast_text": "Rain. Cloudy. Low around 31, with temperatures rising to around 39 overnight. Southeast wind 21 to 35 mph. Chance of precipitation is 90%. New rainfall amounts between a quarter and half of an inch possible.",
      "last_updated": "2025-11-10T01:47:36.466Z"
    },
    {
      "name": "Smugglers' Notch",
      "lat": 44.5458,
      "lng": -72.7872,
      "snowfall_7day": 0,
      "forecast_text": "Rain. Cloudy. Low around 31, with temperatures rising to around 39 overnight. Southeast wind 9 to 21 mph, with gusts as high as 31 mph. Chance of precipitation is 90%. New rainfall amounts between a half and three quarters of an inch possible.",
      "last_updated": "2025-11-10T01:47:43.107Z"
    },
    {
      "name": "Loon Mountain",
      "lat": 44.0369,
      "lng": -71.6206,
      "snowfall_7day": 0,
      "forecast_text": "Rain. Cloudy. Low around 35, with temperatures rising to around 41 overnight. East wind 5 to 15 mph, with gusts as high as 25 mph. Chance of precipitation is 90%. New rainfall amounts between a quarter and half of an inch possible.",
      "last_updated": "2025-11-10T01:47:58.986Z"
    },
    {
      "name": "Cannon Mountain",
      "lat": 44.1572,
      "lng": -71.6978,
      "snowfall_7day": 0,
      "forecast_text": "Rain. Cloudy. Low around 34, with temperatures rising to around 41 overnight. Southeast wind 20 to 30 mph, with gusts as high as 50 mph. Chance of precipitation is 90%. New rainfall amounts between a quarter and half of an inch possible.",
      "last_updated": "2025-11-10T01:48:17.323Z"
    },
    {
      "name": "Wildcat Mountain",
      "lat": 44.2636,
      "lng": -71.2328,
      "snowfall_7day": 0,
      "forecast_text": "Rain. Cloudy. Low around 33, with temperatures rising to around 40 overnight. Southeast wind 10 to 15 mph, with gusts as high as 25 mph. Chance of precipitation is 90%. New rainfall amounts between three quarters and one inch possible.",
      "last_updated": "2025-11-10T01:48:28.998Z"
    },
    {
      "name": "Bretton Woods",
      "lat": 44.2633,
      "lng": -71.4439,
      "snowfall_7day": 0,
      "forecast_text": "Rain. Cloudy. Low around 35, with temperatures rising to around 41 overnight. Southeast wind 15 to 20 mph, with gusts as high as 35 mph. Chance of precipitation is 90%. New rainfall amounts between a quarter and half of an inch possible.",
      "last_updated": "2025-11-10T01:48:30.578Z"
    },
    {
      "name": "Snowbasin",
      "lat": 41.2156,
      "lng": -111.8567,
      "snowfall_7day": 0,
      "forecast_text": "Partly cloudy. Low around 34, with temperatures rising to around 36 overnight. South wind around 3 mph.",
      "last_updated": "2025-11-10T01:48:36.782Z"
    },
    {
      "name": "Powder Mountain",
      "lat": 41.3814,
      "lng": -111.7806,
      "snowfall_7day": 0,
      "forecast_text": "Partly cloudy. Low around 34, with temperatures rising to around 36 overnight. South southwest wind 2 to 6 mph.",
      "last_updated": "2025-11-10T01:48:41.478Z"
    },
    {
      "name": "Solitude",
      "lat": 40.62,
      "lng": -111.5917,
      "snowfall_7day": 0,
      "forecast_text": "Mostly clear. Low around 34, with temperatures rising to around 36 overnight. Northwest wind around 3 mph.",
      "last_updated": "2025-11-10T01:48:45.904Z"
    },
    {
      "name": "Brighton",
      "lat": 40.5981,
      "lng": -111.5831,
      "snowfall_7day": 0,
      "forecast_text": "Mostly clear. Low around 33, with temperatures rising to around 36 overnight. Northwest wind around 3 mph.",
      "last_updated": "2025-11-10T01:48:50.483Z"
    },
    {
      "name": "Snowmass",
      "lat": 39.2133,
      "lng": -106.9378,
      "snowfall_7day": 0,
      "forecast_text": "Mostly clear, with a low around 31. Southwest wind 0 to 5 mph.",
      "last_updated": "2025-11-10T01:48:58.237Z"
    },
    {
      "name": "Aspen Highlands",
      "lat": 39.1825,
      "lng": -106.8553,
      "snowfall_7day": 0,
      "forecast_text": "Mostly clear, with a low around 29. South southwest wind around 5 mph.",
      "last_updated": "2025-11-10T01:49:07.283Z"
    },
    {
      "name": "Buttermilk",
      "lat": 39.2078,
      "lng": -106.8608,
      "snowfall_7day": 0,
      "forecast_text": "Mostly clear, with a low around 28. South southwest wind around 5 mph.",
      "last_updated": "2025-11-10T01:49:13.770Z"
    },
    {
      "name": "Beaver Creek",
      "lat": 39.6042,
      "lng": -106.5164,
      "snowfall_7day": 0,
      "forecast_text": "Mostly clear, with a low around 25. South wind 0 to 5 mph.",
      "last_updated": "2025-11-10T01:49:19.376Z"
    },
    {
      "name": "Purgatory",
      "lat": 37.6303,
      "lng": -107.8139,
      "snowfall_7day": 0,
      "forecast_text": "Clear, with a low around 30. North wind around 5 mph.",
      "last_updated": "2025-11-10T01:49:23.553Z"
    },
    {
      "name": "Wolf Creek",
      "lat": 37.4722,
      "lng": -106.7931,
      "snowfall_7day": 0,
      "forecast_text": "Mostly clear, with a low around 29. Northwest wind 5 to 10 mph.",
      "last_updated": "2025-11-10T01:49:28.124Z"
    },
    {
      "name": "Monarch Mountain",
      "lat": 38.5117,
      "lng": -106.3317,
      "snowfall_7day": 0,
      "forecast_text": "Mostly clear, with a low around 25. West wind 10 to 15 mph.",
      "last_updated": "2025-11-10T01:49:39.873Z"
    },
    {
      "name": "Eldora",
      "lat": 39.9372,
      "lng": -105.5828,
      "snowfall_7day": 0,
      "forecast_text": "Mostly clear, with a low around 24. West wind 8 to 22 mph, with gusts as high as 35 mph.",
      "last_updated": "2025-11-10T01:49:47.598Z"
    },
    {
      "name": "Grand Targhee",
      "lat": 43.7886,
      "lng": -110.9586,
      "snowfall_7day": 0,
      "forecast_text": "Partly cloudy, with a low around 27. East wind around 7 mph.",
      "last_updated": "2025-11-10T01:49:50.502Z"
    },
    {
      "name": "Snow King",
      "lat": 43.4783,
      "lng": -110.7628,
      "snowfall_7day": 0,
      "forecast_text": "Partly cloudy, with a low around 24. Southeast wind around 5 mph.",
      "last_updated": "2025-11-10T01:49:51.777Z"
    },
    {
      "name": "Bridger Bowl",
      "lat": 45.8167,
      "lng": -110.8969,
      "snowfall_7day": 0,
      "forecast_text": "Mostly cloudy, with a low around 36. West southwest wind around 6 mph.",
      "last_updated": "2025-11-10T01:49:58.669Z"
    },
    {
      "name": "Big Mountain",
      "lat": 48.4928,
      "lng": -114.3483,
      "snowfall_7day": 0,
      "forecast_text": "A slight chance of rain and snow after 5am. Mostly cloudy, with a low around 29. Southwest wind around 5 mph. Chance of precipitation is 20%.",
      "last_updated": "2025-11-10T01:50:07.286Z"
    },
    {
      "name": "Snowbowl",
      "lat": 46.9417,
      "lng": -113.9492,
      "snowfall_7day": 0,
      "forecast_text": "Mostly cloudy, with a low around 38. East wind 1 to 5 mph.",
      "last_updated": "2025-11-10T01:50:37.144Z"
    },
    {
      "name": "Bogus Basin",
      "lat": 43.7725,
      "lng": -116.0939,
      "snowfall_7day": 0,
      "forecast_text": "Partly cloudy, with a low around 41. Southeast wind 2 to 7 mph.",
      "last_updated": "2025-11-10T01:50:42.895Z"
    },
    {
      "name": "Tamarack",
      "lat": 44.6922,
      "lng": -116.1344,
      "snowfall_7day": 0,
      "forecast_text": "Partly cloudy, with a low around 33. South southwest wind 2 to 6 mph.",
      "last_updated": "2025-11-10T01:50:52.176Z"
    },
    {
      "name": "Silver Mountain",
      "lat": 47.6764,
      "lng": -116.0703,
      "snowfall_7day": 0,
      "forecast_text": "Partly sunny. High near 51, with temperatures falling to around 47 in the afternoon. East wind around 2 mph.",
      "last_updated": "2025-11-10T01:50:55.864Z"
    },
    {
      "name": "Mt. Hood Meadows",
      "lat": 45.3319,
      "lng": -121.6653,
      "snowfall_7day": 0,
      "forecast_text": "Mostly cloudy. High near 52, with temperatures falling to around 47 in the afternoon. Southeast wind around 2 mph.",
      "last_updated": "2025-11-10T01:50:57.205Z"
    },
    {
      "name": "Timberline",
      "lat": 45.3306,
      "lng": -121.7108,
      "snowfall_7day": 0,
      "forecast_text": "Mostly cloudy. High near 50, with temperatures falling to around 46 in the afternoon. Southeast wind around 6 mph.",
      "last_updated": "2025-11-10T01:50:59.402Z"
    },
    {
      "name": "Willamette Pass",
      "lat": 43.6006,
      "lng": -122.0336,
      "snowfall_7day": 0,
      "forecast_text": "Mostly cloudy. High near 58, with temperatures falling to around 50 in the afternoon. East southeast wind around 7 mph.",
      "last_updated": "2025-11-10T01:51:05.252Z"
    },
    {
      "name": "Mission Ridge",
      "lat": 47.2917,
      "lng": -120.3997,
      "snowfall_7day": 0,
      "forecast_text": "Mostly cloudy. High near 44, with temperatures falling to around 40 in the afternoon. Southwest wind around 2 mph.",
      "last_updated": "2025-11-10T01:51:09.635Z"
    },
    {
      "name": "Snoqualmie",
      "lat": 47.4219,
      "lng": -121.4136,
      "snowfall_7day": 0,
      "forecast_text": "Partly sunny. High near 50, with temperatures falling to around 43 in the afternoon. East wind around 7 mph.",
      "last_updated": "2025-11-10T01:51:11.111Z"
    },
    {
      "name": "Mt. Spokane",
      "lat": 47.9208,
      "lng": -117.0856,
      "snowfall_7day": 0,
      "forecast_text": "Partly sunny. High near 43, with temperatures falling to around 37 in the afternoon. South wind around 3 mph.",
      "last_updated": "2025-11-10T01:51:26.178Z"
    },
    {
      "name": "White Pass",
      "lat": 46.6394,
      "lng": -121.3908,
      "snowfall_7day": 0,
      "forecast_text": "Mostly cloudy. High near 51, with temperatures falling to around 46 in the afternoon. South wind around 5 mph.",
      "last_updated": "2025-11-10T01:51:36.292Z"
    },
    {
      "name": "49 Degrees North",
      "lat": 48.7511,
      "lng": -117.6369,
      "snowfall_7day": 0,
      "forecast_text": "Mostly sunny. High near 46, with temperatures falling to around 41 in the afternoon. Southeast wind around 2 mph.",
      "last_updated": "2025-11-10T01:51:39.874Z"
    },
    {
      "name": "Red Mountain",
      "lat": 49.0917,
      "lng": -117.8233,
      "snowfall_7day": 0,
      "forecast_text": "Data unavailable",
      "last_updated": "2025-11-10T01:51:40.178Z",
      "error": "Point API failed: 404"
    },
    {
      "name": "Whitewater",
      "lat": 49.5394,
      "lng": -117.2717,
      "snowfall_7day": 0,
      "forecast_text": "Data unavailable",
      "last_updated": "2025-11-10T01:51:40.554Z",
      "error": "Point API failed: 404"
    },
    {
      "name": "Panorama",
      "lat": 50.8036,
      "lng": -116.0533,
      "snowfall_7day": 0,
      "forecast_text": "Data unavailable",
      "last_updated": "2025-11-10T01:51:41.048Z",
      "error": "Point API failed: 404"
    },
    {
      "name": "Marmot Basin",
      "lat": 52.8236,
      "lng": -118.0747,
      "snowfall_7day": 0,
      "forecast_text": "Data unavailable",
      "last_updated": "2025-11-10T01:51:41.826Z",
      "error": "Point API failed: 404"
    },
    {
      "name": "Nakiska",
      "lat": 50.98,
      "lng": -115.0733,
      "snowfall_7day": 0,
      "forecast_text": "Data unavailable",
      "last_updated": "2025-11-10T01:51:42.688Z",
      "error": "Point API failed: 404"
    },
    {
      "name": "Castle Mountain",
      "lat": 49.4058,
      "lng": -114.5169,
      "snowfall_7day": 0,
      "forecast_text": "Data unavailable",
      "last_updated": "2025-11-10T01:51:42.973Z",
      "error": "Point API failed: 404"
    },
    {
      "name": "Norquay",
      "lat": 51.1967,
      "lng": -115.5531,
      "snowfall_7day": 0,
      "forecast_text": "Data unavailable",
      "last_updated": "2025-11-10T01:51:45.129Z",
      "error": "Point API failed: 404"
    },
    {
      "name": "Le Massif",
      "lat": 47.3136,
      "lng": -70.6358,
      "snowfall_7day": 0,
      "forecast_text": "Data unavailable",
      "last_updated": "2025-11-10T01:51:49.226Z",
      "error": "Point API failed: 404"
    },
    {
      "name": "Calabogie",
      "lat": 45.2906,
      "lng": -76.7019,
      "snowfall_7day": 0,
      "forecast_text": "Data unavailable",
      "last_updated": "2025-11-10T01:51:52.047Z",
      "error": "Point API failed: 404"
    },
    {
      "name": "Sierra-at-Tahoe",
      "lat": 38.7986,
      "lng": -120.0828,
      "snowfall_7day": 0,
      "forecast_text": "Mostly sunny, with a high near 62. East wind around 0 mph.",
      "last_updated": "2025-11-10T01:51:54.872Z"
    },
    {
      "name": "Kirkwood",
      "lat": 38.6867,
      "lng": -120.0656,
      "snowfall_7day": 0,
      "forecast_text": "Mostly sunny. High near 62, with temperatures falling to around 54 in the afternoon. East wind around 2 mph.",
      "last_updated": "2025-11-10T01:51:57.604Z"
    },
    {
      "name": "Northstar",
      "lat": 39.2733,
      "lng": -120.1211,
      "snowfall_7day": 0,
      "forecast_text": "Mostly sunny. High near 66, with temperatures falling to around 58 in the afternoon. Northeast wind around 0 mph.",
      "last_updated": "2025-11-10T01:52:03.554Z"
    },
    {
      "name": "Homewood",
      "lat": 39.0833,
      "lng": -120.1667,
      "snowfall_7day": 0,
      "forecast_text": "Mostly sunny, with a high near 60. Northeast wind around 0 mph.",
      "last_updated": "2025-11-10T01:52:08.260Z"
    },
    {
      "name": "Mt. Rose",
      "lat": 39.3397,
      "lng": -119.8894,
      "snowfall_7day": 0,
      "forecast_text": "Mostly sunny. High near 55, with temperatures falling to around 46 in the afternoon. East wind around 5 mph.",
      "last_updated": "2025-11-10T01:52:09.990Z"
    },
    {
      "name": "Diamond Peak",
      "lat": 39.2525,
      "lng": -119.9169,
      "snowfall_7day": 0,
      "forecast_text": "Mostly sunny, with a high near 59. East wind around 0 mph.",
      "last_updated": "2025-11-10T01:52:18.431Z"
    },
    {
      "name": "June Mountain",
      "lat": 37.7853,
      "lng": -119.0781,
      "snowfall_7day": 0,
      "forecast_text": "Sunny. High near 66, with temperatures falling to around 56 in the afternoon. North wind around 0 mph.",
      "last_updated": "2025-11-10T01:52:22.330Z"
    },
    {
      "name": "Bear Mountain",
      "lat": 34.235,
      "lng": -116.865,
      "snowfall_7day": 0,
      "forecast_text": "Sunny, with a high near 67. East wind around 10 mph.",
      "last_updated": "2025-11-10T01:52:34.820Z"
    },
    {
      "name": "Snow Summit",
      "lat": 34.2306,
      "lng": -116.8886,
      "snowfall_7day": 0,
      "forecast_text": "Sunny, with a high near 65. East wind around 10 mph.",
      "last_updated": "2025-11-10T01:52:48.307Z"
    },
    {
      "name": "Mountain High",
      "lat": 34.3811,
      "lng": -117.6881,
      "snowfall_7day": 0,
      "forecast_text": "Sunny, with a high near 68. North northeast wind around 10 mph.",
      "last_updated": "2025-11-10T01:53:00.031Z"
    },
    {
      "name": "Ski Santa Fe",
      "lat": 35.7869,
      "lng": -105.7961,
      "snowfall_7day": 0,
      "forecast_text": "Clear, with a low around 26. Northwest wind around 5 mph.",
      "last_updated": "2025-11-10T01:53:01.961Z"
    },
    {
      "name": "Angel Fire",
      "lat": 36.3975,
      "lng": -105.2886,
      "snowfall_7day": 0,
      "forecast_text": "Mostly clear, with a low around 24. Southwest wind around 0 mph.",
      "last_updated": "2025-11-10T01:53:11.819Z"
    }
  ]
}