{
  "generated_at": "2025-11-13T06:37:48.159Z",
  "total_resorts": 100,
  "resorts": [
    {
      "name": "Whistler Blackcomb",
      "lat": 50.1163,
      "lng": -122.9574,
      "snowfall_7day": 0,
      "forecast_text": "Data unavailable",
      "last_updated": "2025-11-13T06:31:53.858Z",
      "error": "Point API failed: 404"
    },
    {
      "name": "Vail",
      "lat": 39.6403,
      "lng": -106.3742,
      "snowfall_7day": 0,
      "forecast_text": "Mostly clear, with a low around 28. Southwest wind around 5 mph.",
      "last_updated": "2025-11-13T06:31:59.986Z"
    },
    {
      "name": "Park City",
      "lat": 40.6514,
      "lng": -111.5079,
      "snowfall_7day": 3,
      "forecast_text": "Partly cloudy. Low around 39, with temperatures rising to around 41 overnight. South wind around 8 mph.",
      "last_updated": "2025-11-13T06:32:09.929Z"
    },
    {
      "name": "Breckenridge",
      "lat": 39.4817,
      "lng": -106.0384,
      "snowfall_7day": 0,
      "forecast_text": "Partly cloudy, with a low around 29. Northeast wind around 6 mph.",
      "last_updated": "2025-11-13T06:32:16.450Z"
    },
    {
      "name": "Heavenly",
      "lat": 38.935,
      "lng": -119.9403,
      "snowfall_7day": 1.5,
      "forecast_text": "A slight chance of rain after 4am. Partly cloudy, with a low around 42. South wind around 10 mph. Chance of precipitation is 20%.",
      "last_updated": "2025-11-13T06:32:19.269Z"
    },
    {
      "name": "Aspen Snowmass",
      "lat": 39.1911,
      "lng": -106.8175,
      "snowfall_7day": 0,
      "forecast_text": "Partly cloudy, with a low around 32. South southeast wind around 5 mph.",
      "last_updated": "2025-11-13T06:32:21.258Z"
    },
    {
      "name": "Jackson Hole",
      "lat": 43.5875,
      "lng": -110.8278,
      "snowfall_7day": 0,
      "forecast_text": "Partly cloudy, with a low around 32. West southwest wind around 8 mph.",
      "last_updated": "2025-11-13T06:32:23.377Z"
    },
    {
      "name": "Banff Sunshine",
      "lat": 51.1158,
      "lng": -115.7631,
      "snowfall_7day": 0,
      "forecast_text": "Data unavailable",
      "last_updated": "2025-11-13T06:32:24.927Z",
      "error": "Point API failed: 404"
    },
    {
      "name": "Lake Louise",
      "lat": 51.4254,
      "lng": -116.1773,
      "snowfall_7day": 0,
      "forecast_text": "Data unavailable",
      "last_updated": "2025-11-13T06:32:25.596Z",
      "error": "Point API failed: 404"
    },
    {
      "name": "Big Sky",
      "lat": 45.2846,
      "lng": -111.4008,
      "snowfall_7day": 7,
      "forecast_text": "Mostly cloudy, with a low around 34. Southwest wind around 8 mph, with gusts as high as 18 mph.",
      "last_updated": "2025-11-13T06:32:27.587Z"
    },
    {
      "name": "Steamboat",
      "lat": 40.458,
      "lng": -106.8047,
      "snowfall_7day": 0,
      "forecast_text": "Partly cloudy, with a low around 29. Southeast wind around 0 mph.",
      "last_updated": "2025-11-13T06:32:30.010Z"
    },
    {
      "name": "Mammoth Mountain",
      "lat": 37.6308,
      "lng": -119.0326,
      "snowfall_7day": 27.5,
      "forecast_text": "A slight chance of snow after 4am. Partly cloudy. Low around 32, with temperatures rising to around 35 overnight. Wind chill values as low as 20. Southwest wind 30 to 35 mph, with gusts as high as 55 mph. Chance of precipitation is 20%. New rainfall amounts less than a tenth of an inch possible.",
      "last_updated": "2025-11-13T06:32:33.316Z"
    },
    {
      "name": "Squaw Valley",
      "lat": 39.197,
      "lng": -120.2356,
      "snowfall_7day": 4,
      "forecast_text": "A chance of rain after 4am. Partly cloudy, with a low around 37. South wind around 15 mph, with gusts as high as 25 mph. Chance of precipitation is 30%.",
      "last_updated": "2025-11-13T06:32:35.210Z"
    },
    {
      "name": "Telluride",
      "lat": 37.9375,
      "lng": -107.8123,
      "snowfall_7day": 8,
      "forecast_text": "Partly cloudy, with a low around 24. Southeast wind around 5 mph.",
      "last_updated": "2025-11-13T06:32:38.136Z"
    },
    {
      "name": "Sun Valley",
      "lat": 43.6966,
      "lng": -114.3553,
      "snowfall_7day": 0,
      "forecast_text": "Partly cloudy, with a low around 34. North wind around 6 mph.",
      "last_updated": "2025-11-13T06:32:51.986Z"
    },
    {
      "name": "Deer Valley",
      "lat": 40.6374,
      "lng": -111.4783,
      "snowfall_7day": 3.5,
      "forecast_text": "Partly cloudy. Low around 37, with temperatures rising to around 39 overnight. South wind around 9 mph.",
      "last_updated": "2025-11-13T06:33:02.724Z"
    },
    {
      "name": "Killington",
      "lat": 43.6046,
      "lng": -72.822,
      "snowfall_7day": 1.5,
      "forecast_text": "A chance of snow showers. Cloudy, with a low around 25. West wind around 25 mph. Chance of precipitation is 30%. New snow accumulation of less than one inch possible.",
      "last_updated": "2025-11-13T06:33:05.192Z"
    },
    {
      "name": "Stowe",
      "lat": 44.5303,
      "lng": -72.7817,
      "snowfall_7day": 11.5,
      "forecast_text": "Snow showers. Cloudy, with a low around 30. West wind around 9 mph. Chance of precipitation is 80%. New snow accumulation of 1 to 2 inches possible.",
      "last_updated": "2025-11-13T06:33:11.347Z"
    },
    {
      "name": "Alta",
      "lat": 40.5885,
      "lng": -111.6376,
      "snowfall_7day": 31,
      "forecast_text": "Partly cloudy. Low around 36, with temperatures rising to around 38 overnight. South southwest wind around 12 mph.",
      "last_updated": "2025-11-13T06:33:13.859Z"
    },
    {
      "name": "Snowbird",
      "lat": 40.5803,
      "lng": -111.6573,
      "snowfall_7day": 26,
      "forecast_text": "Partly cloudy, with a low around 37. South southwest wind around 10 mph.",
      "last_updated": "2025-11-13T06:33:18.980Z"
    },
    {
      "name": "Taos",
      "lat": 36.5924,
      "lng": -105.4467,
      "snowfall_7day": 3,
      "forecast_text": "Mostly cloudy, with a low around 32. West wind around 10 mph.",
      "last_updated": "2025-11-13T06:33:21.683Z"
    },
    {
      "name": "Copper Mountain",
      "lat": 39.5022,
      "lng": -106.1506,
      "snowfall_7day": 2,
      "forecast_text": "Partly cloudy, with a low around 25. Southwest wind around 7 mph.",
      "last_updated": "2025-11-13T06:33:25.437Z"
    },
    {
      "name": "Winter Park",
      "lat": 39.8868,
      "lng": -105.7625,
      "snowfall_7day": 3,
      "forecast_text": "Partly cloudy, with a low around 31. West northwest wind around 7 mph.",
      "last_updated": "2025-11-13T06:33:26.389Z"
    },
    {
      "name": "Keystone",
      "lat": 39.605,
      "lng": -105.9347,
      "snowfall_7day": 1.5,
      "forecast_text": "Partly cloudy, with a low around 28. West southwest wind around 6 mph.",
      "last_updated": "2025-11-13T06:33:27.099Z"
    },
    {
      "name": "Arapahoe Basin",
      "lat": 39.6426,
      "lng": -105.8717,
      "snowfall_7day": 8.5,
      "forecast_text": "Partly cloudy. Low around 29, with temperatures rising to around 32 overnight. West wind 8 to 12 mph, with gusts as high as 18 mph.",
      "last_updated": "2025-11-13T06:33:28.080Z"
    },
    {
      "name": "Crested Butte",
      "lat": 38.8997,
      "lng": -106.9653,
      "snowfall_7day": 2,
      "forecast_text": "Partly cloudy, with a low around 26. Northwest wind 0 to 5 mph.",
      "last_updated": "2025-11-13T06:33:29.507Z"
    },
    {
      "name": "Loveland",
      "lat": 39.6803,
      "lng": -105.8978,
      "snowfall_7day": 10.5,
      "forecast_text": "Partly cloudy. Low around 27, with temperatures rising to around 29 overnight. West wind 8 to 12 mph, with gusts as high as 18 mph.",
      "last_updated": "2025-11-13T06:33:30.835Z"
    },
    {
      "name": "Mt. Bachelor",
      "lat": 43.979,
      "lng": -121.688,
      "snowfall_7day": 7,
      "forecast_text": "Rain and snow. Mostly cloudy, with a low around 37. South wind 22 to 25 mph, with gusts as high as 35 mph. Chance of precipitation is 80%. New rainfall amounts less than a tenth of an inch possible.",
      "last_updated": "2025-11-13T06:33:33.865Z"
    },
    {
      "name": "Crystal Mountain",
      "lat": 46.9358,
      "lng": -121.4742,
      "snowfall_7day": 0,
      "forecast_text": "Rain. Mostly cloudy, with a low around 38. South southeast wind around 12 mph, with gusts as high as 24 mph. Chance of precipitation is 80%. New rainfall amounts between a quarter and half of an inch possible.",
      "last_updated": "2025-11-13T06:33:38.979Z"
    },
    {
      "name": "Stevens Pass",
      "lat": 47.7453,
      "lng": -121.0892,
      "snowfall_7day": 0,
      "forecast_text": "Rain. Cloudy, with a low around 39. East wind around 5 mph. Chance of precipitation is 80%. New rainfall amounts between a tenth and quarter of an inch possible.",
      "last_updated": "2025-11-13T06:33:42.152Z"
    },
    {
      "name": "Mt. Baker",
      "lat": 48.8597,
      "lng": -121.6686,
      "snowfall_7day": 7.5,
      "forecast_text": "Rain. Cloudy, with a low around 41. South wind around 10 mph, with gusts as high as 22 mph. Chance of precipitation is 100%. New rainfall amounts between 1 and 2 inches possible.",
      "last_updated": "2025-11-13T06:33:44.857Z"
    },
    {
      "name": "Schweitzer",
      "lat": 48.3642,
      "lng": -116.6228,
      "snowfall_7day": 0,
      "forecast_text": "A slight chance of rain after 1am. Mostly cloudy, with a low around 35. Southwest wind around 7 mph. Chance of precipitation is 20%.",
      "last_updated": "2025-11-13T06:33:51.754Z"
    },
    {
      "name": "Sun Peaks",
      "lat": 50.8817,
      "lng": -119.8847,
      "snowfall_7day": 0,
      "forecast_text": "Data unavailable",
      "last_updated": "2025-11-13T06:33:57.127Z",
      "error": "Point API failed: 404"
    },
    {
      "name": "Revelstoke",
      "lat": 50.9981,
      "lng": -118.1956,
      "snowfall_7day": 0,
      "forecast_text": "Data unavailable",
      "last_updated": "2025-11-13T06:33:57.460Z",
      "error": "Point API failed: 404"
    },
    {
      "name": "Fernie",
      "lat": 49.4653,
      "lng": -115.0636,
      "snowfall_7day": 0,
      "forecast_text": "Data unavailable",
      "last_updated": "2025-11-13T06:33:57.996Z",
      "error": "Point API failed: 404"
    },
    {
      "name": "Big White",
      "lat": 49.7311,
      "lng": -118.935,
      "snowfall_7day": 0,
      "forecast_text": "Data unavailable",
      "last_updated": "2025-11-13T06:33:59.075Z",
      "error": "Point API failed: 404"
    },
    {
      "name": "Kicking Horse",
      "lat": 51.2514,
      "lng": -117.0492,
      "snowfall_7day": 0,
      "forecast_text": "Data unavailable",
      "last_updated": "2025-11-13T06:33:59.733Z",
      "error": "Point API failed: 404"
    },
    {
      "name": "Mont Tremblant",
      "lat": 46.2094,
      "lng": -74.5847,
      "snowfall_7day": 0,
      "forecast_text": "Data unavailable",
      "last_updated": "2025-11-13T06:34:02.852Z",
      "error": "Point API failed: 404"
    },
    {
      "name": "Blue Mountain",
      "lat": 44.5075,
      "lng": -80.3231,
      "snowfall_7day": 0,
      "forecast_text": "Data unavailable",
      "last_updated": "2025-11-13T06:34:03.309Z",
      "error": "Point API failed: 404"
    },
    {
      "name": "Sugarloaf",
      "lat": 45.0314,
      "lng": -70.3139,
      "snowfall_7day": 8,
      "forecast_text": "A chance of snow showers before 5am. Cloudy, with a low around 27. West wind 0 to 5 mph. Chance of precipitation is 30%. New snow accumulation of less than half an inch possible.",
      "last_updated": "2025-11-13T06:34:04.501Z"
    },
    {
      "name": "Sunday River",
      "lat": 44.4697,
      "lng": -70.8561,
      "snowfall_7day": 3.5,
      "forecast_text": "A chance of snow showers. Cloudy, with a low around 27. West wind around 0 mph. Chance of precipitation is 40%. New snow accumulation of less than half an inch possible.",
      "last_updated": "2025-11-13T06:34:08.877Z"
    },
    {
      "name": "Sugarbush",
      "lat": 44.135,
      "lng": -72.9017,
      "snowfall_7day": 4,
      "forecast_text": "A chance of snow showers. Cloudy, with a low around 26. West wind around 15 mph. Chance of precipitation is 40%. New snow accumulation of less than one inch possible.",
      "last_updated": "2025-11-13T06:34:10.843Z"
    },
    {
      "name": "Stratton",
      "lat": 43.1133,
      "lng": -72.9083,
      "snowfall_7day": 0,
      "forecast_text": "A slight chance of rain and snow showers before 2am. Mostly cloudy, with a low around 32. West wind around 8 mph. Chance of precipitation is 20%. New rainfall amounts less than a tenth of an inch possible.",
      "last_updated": "2025-11-13T06:34:11.853Z"
    },
    {
      "name": "Okemo",
      "lat": 43.4017,
      "lng": -72.7167,
      "snowfall_7day": 0,
      "forecast_text": "A slight chance of snow showers before 3am. Cloudy, with a low around 31. West wind around 10 mph. Chance of precipitation is 20%. New rainfall amounts less than a tenth of an inch possible.",
      "last_updated": "2025-11-13T06:34:19.298Z"
    },
    {
      "name": "Jay Peak",
      "lat": 44.9378,
      "lng": -72.5036,
      "snowfall_7day": 10,
      "forecast_text": "Snow showers likely. Cloudy, with a low around 27. West wind around 13 mph. Chance of precipitation is 70%. New snow accumulation of 1 to 2 inches possible.",
      "last_updated": "2025-11-13T06:34:23.784Z"
    },
    {
      "name": "Smugglers' Notch",
      "lat": 44.5458,
      "lng": -72.7872,
      "snowfall_7day": 11.5,
      "forecast_text": "Snow showers. Cloudy, with a low around 28. West wind around 12 mph. Chance of precipitation is 80%. New snow accumulation of 1 to 2 inches possible.",
      "last_updated": "2025-11-13T06:34:25.566Z"
    },
    {
      "name": "Loon Mountain",
      "lat": 44.0369,
      "lng": -71.6206,
      "snowfall_7day": 5,
      "forecast_text": "A chance of snow showers. Mostly cloudy, with a low around 27. West wind around 5 mph. Chance of precipitation is 40%. New snow accumulation of less than half an inch possible.",
      "last_updated": "2025-11-13T06:34:27.027Z"
    },
    {
      "name": "Cannon Mountain",
      "lat": 44.1572,
      "lng": -71.6978,
      "snowfall_7day": 17.5,
      "forecast_text": "A chance of snow showers. Cloudy, with a low around 25. West wind around 10 mph, with gusts as high as 25 mph. Chance of precipitation is 40%. New snow accumulation of around one inch possible.",
      "last_updated": "2025-11-13T06:34:30.337Z"
    },
    {
      "name": "Wildcat Mountain",
      "lat": 44.2636,
      "lng": -71.2328,
      "snowfall_7day": 8,
      "forecast_text": "A chance of snow showers. Mostly cloudy, with a low around 27. Northwest wind around 5 mph. Chance of precipitation is 50%. New snow accumulation of around one inch possible.",
      "last_updated": "2025-11-13T06:34:32.595Z"
    },
    {
      "name": "Bretton Woods",
      "lat": 44.2633,
      "lng": -71.4439,
      "snowfall_7day": 14,
      "forecast_text": "A chance of snow showers. Cloudy, with a low around 25. West wind 0 to 5 mph. Chance of precipitation is 50%. New snow accumulation of less than one inch possible.",
      "last_updated": "2025-11-13T06:34:34.248Z"
    },
    {
      "name": "Snowbasin",
      "lat": 41.2156,
      "lng": -111.8567,
      "snowfall_7day": 3.5,
      "forecast_text": "Partly cloudy. Low around 40, with temperatures rising to around 42 overnight. South wind around 6 mph.",
      "last_updated": "2025-11-13T06:34:43.666Z"
    },
    {
      "name": "Powder Mountain",
      "lat": 41.3814,
      "lng": -111.7806,
      "snowfall_7day": 16.5,
      "forecast_text": "Partly cloudy. Low around 37, with temperatures rising to around 39 overnight. South southwest wind around 9 mph.",
      "last_updated": "2025-11-13T06:34:52.234Z"
    },
    {
      "name": "Solitude",
      "lat": 40.62,
      "lng": -111.5917,
      "snowfall_7day": 17.5,
      "forecast_text": "Partly cloudy. Low around 37, with temperatures rising to around 40 overnight. South southwest wind around 10 mph.",
      "last_updated": "2025-11-13T06:34:54.532Z"
    },
    {
      "name": "Brighton",
      "lat": 40.5981,
      "lng": -111.5831,
      "snowfall_7day": 21,
      "forecast_text": "Partly cloudy. Low around 36, with temperatures rising to around 39 overnight. South southwest wind around 9 mph.",
      "last_updated": "2025-11-13T06:34:57.484Z"
    },
    {
      "name": "Snowmass",
      "lat": 39.2133,
      "lng": -106.9378,
      "snowfall_7day": 0,
      "forecast_text": "Partly cloudy, with a low around 33. South southwest wind around 5 mph.",
      "last_updated": "2025-11-13T06:35:08.098Z"
    },
    {
      "name": "Aspen Highlands",
      "lat": 39.1825,
      "lng": -106.8553,
      "snowfall_7day": 0,
      "forecast_text": "Partly cloudy, with a low around 30. South wind around 5 mph.",
      "last_updated": "2025-11-13T06:35:21.152Z"
    },
    {
      "name": "Buttermilk",
      "lat": 39.2078,
      "lng": -106.8608,
      "snowfall_7day": 0,
      "forecast_text": "Partly cloudy, with a low around 29. South wind around 5 mph.",
      "last_updated": "2025-11-13T06:35:37.320Z"
    },
    {
      "name": "Beaver Creek",
      "lat": 39.6042,
      "lng": -106.5164,
      "snowfall_7day": 0,
      "forecast_text": "Partly cloudy, with a low around 29. South wind around 5 mph.",
      "last_updated": "2025-11-13T06:35:39.568Z"
    },
    {
      "name": "Purgatory",
      "lat": 37.6303,
      "lng": -107.8139,
      "snowfall_7day": 14.5,
      "forecast_text": "Partly cloudy, with a low around 29. North wind around 5 mph.",
      "last_updated": "2025-11-13T06:35:41.186Z"
    },
    {
      "name": "Wolf Creek",
      "lat": 37.4722,
      "lng": -106.7931,
      "snowfall_7day": 28,
      "forecast_text": "Partly cloudy, with a low around 31. Southwest wind 5 to 10 mph.",
      "last_updated": "2025-11-13T06:35:42.161Z"
    },
    {
      "name": "Monarch Mountain",
      "lat": 38.5117,
      "lng": -106.3317,
      "snowfall_7day": 3.5,
      "forecast_text": "Partly cloudy, with a low around 29. West wind around 15 mph.",
      "last_updated": "2025-11-13T06:35:43.704Z"
    },
    {
      "name": "Eldora",
      "lat": 39.9372,
      "lng": -105.5828,
      "snowfall_7day": 3.5,
      "forecast_text": "Partly cloudy. Low around 31, with temperatures rising to around 33 overnight. West wind around 13 mph, with gusts as high as 21 mph.",
      "last_updated": "2025-11-13T06:35:45.922Z"
    },
    {
      "name": "Grand Targhee",
      "lat": 43.7886,
      "lng": -110.9586,
      "snowfall_7day": 7,
      "forecast_text": "Partly cloudy, with a low around 32. South wind around 10 mph.",
      "last_updated": "2025-11-13T06:35:52.309Z"
    },
    {
      "name": "Snow King",
      "lat": 43.4783,
      "lng": -110.7628,
      "snowfall_7day": 0,
      "forecast_text": "Partly cloudy, with a low around 31. South southeast wind around 7 mph.",
      "last_updated": "2025-11-13T06:35:57.290Z"
    },
    {
      "name": "Bridger Bowl",
      "lat": 45.8167,
      "lng": -110.8969,
      "snowfall_7day": 2,
      "forecast_text": "Partly cloudy, with a low around 37. South southwest wind around 6 mph.",
      "last_updated": "2025-11-13T06:36:07.336Z"
    },
    {
      "name": "Big Mountain",
      "lat": 48.4928,
      "lng": -114.3483,
      "snowfall_7day": 3,
      "forecast_text": "Partly cloudy, with a low around 32. South southwest wind around 3 mph.",
      "last_updated": "2025-11-13T06:36:08.592Z"
    },
    {
      "name": "Snowbowl",
      "lat": 46.9417,
      "lng": -113.9492,
      "snowfall_7day": 0,
      "forecast_text": "Partly cloudy, with a low around 40. Southeast wind around 6 mph.",
      "last_updated": "2025-11-13T06:36:09.558Z"
    },
    {
      "name": "Bogus Basin",
      "lat": 43.7725,
      "lng": -116.0939,
      "snowfall_7day": 2,
      "forecast_text": "Partly cloudy, with a low around 44. Southeast wind 8 to 13 mph.",
      "last_updated": "2025-11-13T06:36:10.099Z"
    },
    {
      "name": "Tamarack",
      "lat": 44.6922,
      "lng": -116.1344,
      "snowfall_7day": 3,
      "forecast_text": "Partly cloudy, with a low around 38. South southwest wind around 9 mph.",
      "last_updated": "2025-11-13T06:36:12.488Z"
    },
    {
      "name": "Silver Mountain",
      "lat": 47.6764,
      "lng": -116.0703,
      "snowfall_7day": 0,
      "forecast_text": "Partly cloudy, with a low around 44. East wind around 5 mph.",
      "last_updated": "2025-11-13T06:36:19.487Z"
    },
    {
      "name": "Mt. Hood Meadows",
      "lat": 45.3319,
      "lng": -121.6653,
      "snowfall_7day": 4,
      "forecast_text": "A chance of rain. Mostly cloudy, with a low around 41. West wind around 3 mph. Chance of precipitation is 50%. New rainfall amounts less than a tenth of an inch possible.",
      "last_updated": "2025-11-13T06:36:20.511Z"
    },
    {
      "name": "Timberline",
      "lat": 45.3306,
      "lng": -121.7108,
      "snowfall_7day": 8,
      "forecast_text": "A chance of rain. Mostly cloudy, with a low around 41. South southeast wind 6 to 9 mph. Chance of precipitation is 50%. New rainfall amounts between a tenth and quarter of an inch possible.",
      "last_updated": "2025-11-13T06:36:21.648Z"
    },
    {
      "name": "Willamette Pass",
      "lat": 43.6006,
      "lng": -122.0336,
      "snowfall_7day": 0,
      "forecast_text": "A chance of rain. Mostly cloudy, with a low around 44. Southeast wind around 16 mph, with gusts as high as 24 mph. Chance of precipitation is 40%.",
      "last_updated": "2025-11-13T06:36:27.514Z"
    },
    {
      "name": "Mission Ridge",
      "lat": 47.2917,
      "lng": -120.3997,
      "snowfall_7day": 0,
      "forecast_text": "A chance of rain after 1am. Mostly cloudy, with a low around 38. Southwest wind around 3 mph. Chance of precipitation is 30%. New rainfall amounts less than a tenth of an inch possible.",
      "last_updated": "2025-11-13T06:36:29.886Z"
    },
    {
      "name": "Snoqualmie",
      "lat": 47.4219,
      "lng": -121.4136,
      "snowfall_7day": 0,
      "forecast_text": "Rain. Cloudy, with a low around 39. East wind around 2 mph. Chance of precipitation is 80%. New rainfall amounts between a quarter and half of an inch possible.",
      "last_updated": "2025-11-13T06:36:31.205Z"
    },
    {
      "name": "Mt. Spokane",
      "lat": 47.9208,
      "lng": -117.0856,
      "snowfall_7day": 0,
      "forecast_text": "Mostly cloudy, with a low around 40. South wind around 6 mph.",
      "last_updated": "2025-11-13T06:36:32.514Z"
    },
    {
      "name": "White Pass",
      "lat": 46.6394,
      "lng": -121.3908,
      "snowfall_7day": 0,
      "forecast_text": "Rain likely. Mostly cloudy, with a low around 39. South wind around 5 mph. Chance of precipitation is 70%. New rainfall amounts between a tenth and quarter of an inch possible.",
      "last_updated": "2025-11-13T06:36:38.593Z"
    },
    {
      "name": "49 Degrees North",
      "lat": 48.7511,
      "lng": -117.6369,
      "snowfall_7day": 0,
      "forecast_text": "A slight chance of rain before 2am, then patchy fog and a slight chance of rain between 2am and 4am, then a chance of rain and patchy fog. Cloudy, with a low around 40. Southeast wind around 2 mph. Chance of precipitation is 30%. New rainfall amounts less than a tenth of an inch possible.",
      "last_updated": "2025-11-13T06:36:50.213Z"
    },
    {
      "name": "Red Mountain",
      "lat": 49.0917,
      "lng": -117.8233,
      "snowfall_7day": 0,
      "forecast_text": "Data unavailable",
      "last_updated": "2025-11-13T06:36:50.469Z",
      "error": "Point API failed: 404"
    },
    {
      "name": "Whitewater",
      "lat": 49.5394,
      "lng": -117.2717,
      "snowfall_7day": 0,
      "forecast_text": "Data unavailable",
      "last_updated": "2025-11-13T06:36:51.681Z",
      "error": "Point API failed: 404"
    },
    {
      "name": "Panorama",
      "lat": 50.8036,
      "lng": -116.0533,
      "snowfall_7day": 0,
      "forecast_text": "Data unavailable",
      "last_updated": "2025-11-13T06:36:52.016Z",
      "error": "Point API failed: 404"
    },
    {
      "name": "Marmot Basin",
      "lat": 52.8236,
      "lng": -118.0747,
      "snowfall_7day": 0,
      "forecast_text": "Data unavailable",
      "last_updated": "2025-11-13T06:36:52.404Z",
      "error": "Point API failed: 404"
    },
    {
      "name": "Nakiska",
      "lat": 50.98,
      "lng": -115.0733,
      "snowfall_7day": 0,
      "forecast_text": "Data unavailable",
      "last_updated": "2025-11-13T06:36:54.624Z",
      "error": "Point API failed: 404"
    },
    {
      "name": "Castle Mountain",
      "lat": 49.4058,
      "lng": -114.5169,
      "snowfall_7day": 0,
      "forecast_text": "Data unavailable",
      "last_updated": "2025-11-13T06:36:55.872Z",
      "error": "Point API failed: 404"
    },
    {
      "name": "Norquay",
      "lat": 51.1967,
      "lng": -115.5531,
      "snowfall_7day": 0,
      "forecast_text": "Data unavailable",
      "last_updated": "2025-11-13T06:36:59.448Z",
      "error": "Point API failed: 404"
    },
    {
      "name": "Le Massif",
      "lat": 47.3136,
      "lng": -70.6358,
      "snowfall_7day": 0,
      "forecast_text": "Data unavailable",
      "last_updated": "2025-11-13T06:37:00.997Z",
      "error": "Point API failed: 404"
    },
    {
      "name": "Calabogie",
      "lat": 45.2906,
      "lng": -76.7019,
      "snowfall_7day": 0,
      "forecast_text": "Data unavailable",
      "last_updated": "2025-11-13T06:37:06.766Z",
      "error": "Point API failed: 404"
    },
    {
      "name": "Sierra-at-Tahoe",
      "lat": 38.7986,
      "lng": -120.0828,
      "snowfall_7day": 6,
      "forecast_text": "A slight chance of rain showers after 3am. Partly cloudy, with a low around 42. South wind around 15 mph, with gusts as high as 40 mph. Chance of precipitation is 20%.",
      "last_updated": "2025-11-13T06:37:10.608Z"
    },
    {
      "name": "Kirkwood",
      "lat": 38.6867,
      "lng": -120.0656,
      "snowfall_7day": 17,
      "forecast_text": "A slight chance of rain showers between 2am and 3am, then a slight chance of rain and snow showers. Partly cloudy. Low around 37, with temperatures rising to around 39 overnight. South wind 20 to 24 mph, with gusts as high as 49 mph. Chance of precipitation is 20%. New rainfall amounts less than a tenth of an inch possible.",
      "last_updated": "2025-11-13T06:37:13.881Z"
    },
    {
      "name": "Northstar",
      "lat": 39.2733,
      "lng": -120.1211,
      "snowfall_7day": 3,
      "forecast_text": "A slight chance of rain after 4am. Partly cloudy, with a low around 43. South wind around 15 mph, with gusts as high as 25 mph. Chance of precipitation is 20%.",
      "last_updated": "2025-11-13T06:37:17.168Z"
    },
    {
      "name": "Homewood",
      "lat": 39.0833,
      "lng": -120.1667,
      "snowfall_7day": 4,
      "forecast_text": "A chance of rain after 4am. Partly cloudy, with a low around 42. South wind 15 to 20 mph, with gusts as high as 30 mph. Chance of precipitation is 30%.",
      "last_updated": "2025-11-13T06:37:24.968Z"
    },
    {
      "name": "Mt. Rose",
      "lat": 39.3397,
      "lng": -119.8894,
      "snowfall_7day": 5,
      "forecast_text": "Partly cloudy, with a low around 37. Southwest wind around 20 mph, with gusts as high as 30 mph.",
      "last_updated": "2025-11-13T06:37:25.759Z"
    },
    {
      "name": "Diamond Peak",
      "lat": 39.2525,
      "lng": -119.9169,
      "snowfall_7day": 3.5,
      "forecast_text": "Partly cloudy, with a low around 41. Southwest wind around 10 mph, with gusts as high as 20 mph.",
      "last_updated": "2025-11-13T06:37:30.492Z"
    },
    {
      "name": "June Mountain",
      "lat": 37.7853,
      "lng": -119.0781,
      "snowfall_7day": 3.5,
      "forecast_text": "Mostly clear, with a low around 39. South wind 15 to 20 mph, with gusts as high as 35 mph.",
      "last_updated": "2025-11-13T06:37:32.812Z"
    },
    {
      "name": "Bear Mountain",
      "lat": 34.235,
      "lng": -116.865,
      "snowfall_7day": 1.5,
      "forecast_text": "Partly cloudy, with a low around 35. Southwest wind 0 to 5 mph.",
      "last_updated": "2025-11-13T06:37:36.597Z"
    },
    {
      "name": "Snow Summit",
      "lat": 34.2306,
      "lng": -116.8886,
      "snowfall_7day": 1.5,
      "forecast_text": "Partly cloudy, with a low around 38. Southwest wind around 5 mph.",
      "last_updated": "2025-11-13T06:37:38.645Z"
    },
    {
      "name": "Mountain High",
      "lat": 34.3811,
      "lng": -117.6881,
      "snowfall_7day": 1.5,
      "forecast_text": "Partly cloudy, with a low around 47. South southwest wind around 20 mph, with gusts as high as 35 mph.",
      "last_updated": "2025-11-13T06:37:42.114Z"
    },
    {
      "name": "Ski Santa Fe",
      "lat": 35.7869,
      "lng": -105.7961,
      "snowfall_7day": 0,
      "forecast_text": "Mostly cloudy, with a low around 33. Northwest wind 10 to 15 mph.",
      "last_updated": "2025-11-13T06:37:43.193Z"
    },
    {
      "name": "Angel Fire",
      "lat": 36.3975,
      "lng": -105.2886,
      "snowfall_7day": 0,
      "forecast_text": "Mostly cloudy, with a low around 34. West wind 5 to 10 mph.",
      "last_updated": "2025-11-13T06:37:44.386Z"
    },
    {
      "name": "Whiteface Mountain",
      "lat": 44.3659,
      "lng": -73.9024,
      "snowfall_7day": 1.5,
      "forecast_text": "Snow showers likely. Cloudy, with a low around 22. West wind 17 to 22 mph. Chance of precipitation is 70%. New snow accumulation of less than one inch possible.",
      "last_updated": "2025-11-13T06:37:47.958Z"
    }
  ]
}