{
  "generated_at": "2025-11-10T06:40:18.103Z",
  "total_resorts": 99,
  "resorts": [
    {
      "name": "Whistler Blackcomb",
      "lat": 50.1163,
      "lng": -122.9574,
      "snowfall_7day": 0,
      "forecast_text": "Data unavailable",
      "last_updated": "2025-11-10T06:33:17.119Z",
      "error": "Point API failed: 404"
    },
    {
      "name": "Vail",
      "lat": 39.6403,
      "lng": -106.3742,
      "snowfall_7day": 0,
      "forecast_text": "Mostly clear, with a low around 25. South wind around 0 mph.",
      "last_updated": "2025-11-10T06:33:21.603Z"
    },
    {
      "name": "Park City",
      "lat": 40.6514,
      "lng": -111.5079,
      "snowfall_7day": 0,
      "forecast_text": "Sunny. High near 56, with temperatures falling to around 49 in the afternoon. Northwest wind around 2 mph.",
      "last_updated": "2025-11-10T06:33:21.944Z"
    },
    {
      "name": "Breckenridge",
      "lat": 39.4817,
      "lng": -106.0384,
      "snowfall_7day": 0,
      "forecast_text": "Sunny. High near 43, with temperatures falling to around 36 in the afternoon. Northwest wind around 16 mph, with gusts as high as 25 mph.",
      "last_updated": "2025-11-10T06:33:22.233Z"
    },
    {
      "name": "Heavenly",
      "lat": 38.935,
      "lng": -119.9403,
      "snowfall_7day": 0,
      "forecast_text": "Partly cloudy, with a low around 44. South wind around 0 mph.",
      "last_updated": "2025-11-10T06:33:23.301Z"
    },
    {
      "name": "Aspen Snowmass",
      "lat": 39.1911,
      "lng": -106.8175,
      "snowfall_7day": 0,
      "forecast_text": "Mostly clear, with a low around 31. South southeast wind around 5 mph.",
      "last_updated": "2025-11-10T06:33:26.151Z"
    },
    {
      "name": "Jackson Hole",
      "lat": 43.5875,
      "lng": -110.8278,
      "snowfall_7day": 0,
      "forecast_text": "Mostly cloudy. Low around 25, with temperatures rising to around 30 overnight. Northwest wind around 3 mph.",
      "last_updated": "2025-11-10T06:33:28.604Z"
    },
    {
      "name": "Banff Sunshine",
      "lat": 51.1158,
      "lng": -115.7631,
      "snowfall_7day": 0,
      "forecast_text": "Data unavailable",
      "last_updated": "2025-11-10T06:33:28.868Z",
      "error": "Point API failed: 404"
    },
    {
      "name": "Lake Louise",
      "lat": 51.4254,
      "lng": -116.1773,
      "snowfall_7day": 0,
      "forecast_text": "Data unavailable",
      "last_updated": "2025-11-10T06:33:31.115Z",
      "error": "Point API failed: 404"
    },
    {
      "name": "Big Sky",
      "lat": 45.2846,
      "lng": -111.4008,
      "snowfall_7day": 0,
      "forecast_text": "Mostly cloudy, with a low around 34. South southwest wind around 8 mph.",
      "last_updated": "2025-11-10T06:33:32.714Z"
    },
    {
      "name": "Steamboat",
      "lat": 40.458,
      "lng": -106.8047,
      "snowfall_7day": 0,
      "forecast_text": "Mostly clear, with a low around 26. East southeast wind around 0 mph.",
      "last_updated": "2025-11-10T06:33:33.897Z"
    },
    {
      "name": "Mammoth Mountain",
      "lat": 37.6308,
      "lng": -119.0326,
      "snowfall_7day": 0,
      "forecast_text": "Mostly clear. Low around 38, with temperatures rising to around 40 overnight. South wind 5 to 10 mph.",
      "last_updated": "2025-11-10T06:33:47.262Z"
    },
    {
      "name": "Squaw Valley",
      "lat": 39.197,
      "lng": -120.2356,
      "snowfall_7day": 0,
      "forecast_text": "Partly cloudy, with a low around 39. Southwest wind 0 to 5 mph.",
      "last_updated": "2025-11-10T06:33:47.832Z"
    },
    {
      "name": "Telluride",
      "lat": 37.9375,
      "lng": -107.8123,
      "snowfall_7day": 0,
      "forecast_text": "Mostly clear, with a low around 26. East wind around 0 mph.",
      "last_updated": "2025-11-10T06:34:02.871Z"
    },
    {
      "name": "Sun Valley",
      "lat": 43.6966,
      "lng": -114.3553,
      "snowfall_7day": 0,
      "forecast_text": "Mostly cloudy, with a low around 33. North northwest wind around 5 mph.",
      "last_updated": "2025-11-10T06:34:05.583Z"
    },
    {
      "name": "Deer Valley",
      "lat": 40.6374,
      "lng": -111.4783,
      "snowfall_7day": 0,
      "forecast_text": "Sunny. High near 52, with temperatures falling to around 46 in the afternoon. Northwest wind around 2 mph.",
      "last_updated": "2025-11-10T06:34:05.968Z"
    },
    {
      "name": "Killington",
      "lat": 43.6046,
      "lng": -72.822,
      "snowfall_7day": 0,
      "forecast_text": "Rain. Cloudy, with a low around 37. South wind 22 to 32 mph. Chance of precipitation is 90%. New rainfall amounts between a tenth and quarter of an inch possible.",
      "last_updated": "2025-11-10T06:34:14.521Z"
    },
    {
      "name": "Stowe",
      "lat": 44.5303,
      "lng": -72.7817,
      "snowfall_7day": 0,
      "forecast_text": "Rain. Cloudy, with a low around 34. South wind 7 to 14 mph, with gusts as high as 24 mph. Chance of precipitation is 90%. New rainfall amounts between a tenth and quarter of an inch possible.",
      "last_updated": "2025-11-10T06:34:16.383Z"
    },
    {
      "name": "Alta",
      "lat": 40.5885,
      "lng": -111.6376,
      "snowfall_7day": 0,
      "forecast_text": "Sunny. High near 44, with temperatures falling to around 39 in the afternoon. North northwest wind around 3 mph.",
      "last_updated": "2025-11-10T06:34:16.736Z"
    },
    {
      "name": "Snowbird",
      "lat": 40.5803,
      "lng": -111.6573,
      "snowfall_7day": 0,
      "forecast_text": "Sunny. High near 49, with temperatures falling to around 43 in the afternoon. North wind around 3 mph.",
      "last_updated": "2025-11-10T06:34:17.068Z"
    },
    {
      "name": "Taos",
      "lat": 36.5924,
      "lng": -105.4467,
      "snowfall_7day": 0,
      "forecast_text": "Clear, with a low around 26. West wind 5 to 10 mph.",
      "last_updated": "2025-11-10T06:34:21.324Z"
    },
    {
      "name": "Copper Mountain",
      "lat": 39.5022,
      "lng": -106.1506,
      "snowfall_7day": 0,
      "forecast_text": "Sunny. High near 42, with temperatures falling to around 33 in the afternoon. West wind around 16 mph, with gusts as high as 25 mph.",
      "last_updated": "2025-11-10T06:34:21.731Z"
    },
    {
      "name": "Winter Park",
      "lat": 39.8868,
      "lng": -105.7625,
      "snowfall_7day": 0,
      "forecast_text": "Sunny. High near 39, with temperatures falling to around 33 in the afternoon. West northwest wind around 13 mph, with gusts as high as 21 mph.",
      "last_updated": "2025-11-10T06:34:22.191Z"
    },
    {
      "name": "Keystone",
      "lat": 39.605,
      "lng": -105.9347,
      "snowfall_7day": 0,
      "forecast_text": "Sunny. High near 43, with temperatures falling to around 36 in the afternoon. West wind 13 to 16 mph, with gusts as high as 25 mph.",
      "last_updated": "2025-11-10T06:34:22.492Z"
    },
    {
      "name": "Arapahoe Basin",
      "lat": 39.6426,
      "lng": -105.8717,
      "snowfall_7day": 0,
      "forecast_text": "Sunny. High near 36, with temperatures falling to around 33 in the afternoon. West northwest wind around 17 mph, with gusts as high as 28 mph.",
      "last_updated": "2025-11-10T06:34:22.769Z"
    },
    {
      "name": "Crested Butte",
      "lat": 38.8997,
      "lng": -106.9653,
      "snowfall_7day": 0,
      "forecast_text": "Mostly clear, with a low around 25. North northwest wind 0 to 5 mph.",
      "last_updated": "2025-11-10T06:34:24.192Z"
    },
    {
      "name": "Loveland",
      "lat": 39.6803,
      "lng": -105.8978,
      "snowfall_7day": 0,
      "forecast_text": "Sunny. High near 28, with temperatures falling to around 24 in the afternoon. Northwest wind around 18 mph, with gusts as high as 30 mph.",
      "last_updated": "2025-11-10T06:34:24.487Z"
    },
    {
      "name": "Mt. Bachelor",
      "lat": 43.979,
      "lng": -121.688,
      "snowfall_7day": 0,
      "forecast_text": "Mostly cloudy, with a low around 38. West wind around 12 mph.",
      "last_updated": "2025-11-10T06:34:44.386Z"
    },
    {
      "name": "Crystal Mountain",
      "lat": 46.9358,
      "lng": -121.4742,
      "snowfall_7day": 0,
      "forecast_text": "A chance of rain between 1am and 5am, then widespread fog and a chance of rain. Mostly cloudy, with a low around 39. South southwest wind around 12 mph. Chance of precipitation is 50%. New rainfall amounts less than a tenth of an inch possible.",
      "last_updated": "2025-11-10T06:34:47.768Z"
    },
    {
      "name": "Stevens Pass",
      "lat": 47.7453,
      "lng": -121.0892,
      "snowfall_7day": 0,
      "forecast_text": "A chance of rain between 1am and 3am, then widespread fog and rain likely between 3am and 5am, then rain and widespread fog. Mostly cloudy. Low around 37, with temperatures rising to around 39 overnight. Southwest wind around 6 mph. Chance of precipitation is 80%. New rainfall amounts between a tenth and quarter of an inch possible.",
      "last_updated": "2025-11-10T06:35:08.351Z"
    },
    {
      "name": "Mt. Baker",
      "lat": 48.8597,
      "lng": -121.6686,
      "snowfall_7day": 0,
      "forecast_text": "Rain before 2am, then rain and patchy fog. Cloudy. Low around 40, with temperatures rising to around 42 overnight. South wind 7 to 14 mph, with gusts as high as 25 mph. Chance of precipitation is 100%. New rainfall amounts between a half and three quarters of an inch possible.",
      "last_updated": "2025-11-10T06:35:13.602Z"
    },
    {
      "name": "Schweitzer",
      "lat": 48.3642,
      "lng": -116.6228,
      "snowfall_7day": 0,
      "forecast_text": "Partly cloudy, with a low around 34. Southwest wind around 7 mph.",
      "last_updated": "2025-11-10T06:35:17.841Z"
    },
    {
      "name": "Sun Peaks",
      "lat": 50.8817,
      "lng": -119.8847,
      "snowfall_7day": 0,
      "forecast_text": "Data unavailable",
      "last_updated": "2025-11-10T06:35:18.095Z",
      "error": "Point API failed: 404"
    },
    {
      "name": "Revelstoke",
      "lat": 50.9981,
      "lng": -118.1956,
      "snowfall_7day": 0,
      "forecast_text": "Data unavailable",
      "last_updated": "2025-11-10T06:35:21.017Z",
      "error": "Point API failed: 404"
    },
    {
      "name": "Fernie",
      "lat": 49.4653,
      "lng": -115.0636,
      "snowfall_7day": 0,
      "forecast_text": "Data unavailable",
      "last_updated": "2025-11-10T06:35:21.541Z",
      "error": "Point API failed: 404"
    },
    {
      "name": "Big White",
      "lat": 49.7311,
      "lng": -118.935,
      "snowfall_7day": 0,
      "forecast_text": "Data unavailable",
      "last_updated": "2025-11-10T06:35:22.009Z",
      "error": "Point API failed: 404"
    },
    {
      "name": "Kicking Horse",
      "lat": 51.2514,
      "lng": -117.0492,
      "snowfall_7day": 0,
      "forecast_text": "Data unavailable",
      "last_updated": "2025-11-10T06:35:29.562Z",
      "error": "Point API failed: 404"
    },
    {
      "name": "Mont Tremblant",
      "lat": 46.2094,
      "lng": -74.5847,
      "snowfall_7day": 0,
      "forecast_text": "Data unavailable",
      "last_updated": "2025-11-10T06:35:38.566Z",
      "error": "Point API failed: 404"
    },
    {
      "name": "Blue Mountain",
      "lat": 44.5075,
      "lng": -80.3231,
      "snowfall_7day": 0,
      "forecast_text": "Data unavailable",
      "last_updated": "2025-11-10T06:35:39.686Z",
      "error": "Point API failed: 404"
    },
    {
      "name": "Sugarloaf",
      "lat": 45.0314,
      "lng": -70.3139,
      "snowfall_7day": 0,
      "forecast_text": "Sleet and freezing rain before 3am, then rain. Cloudy, with a low around 29. Southeast wind around 15 mph, with gusts as high as 30 mph. Chance of precipitation is 90%. New snow accumulation of less than half an inch possible. Little or no ice accumulation expected.",
      "last_updated": "2025-11-10T06:35:41.430Z"
    },
    {
      "name": "Sunday River",
      "lat": 44.4697,
      "lng": -70.8561,
      "snowfall_7day": 0,
      "forecast_text": "Rain and patchy fog. Cloudy, with a low around 32. East wind 5 to 10 mph. Chance of precipitation is 80%. New rainfall amounts between a tenth and quarter of an inch possible.",
      "last_updated": "2025-11-10T06:36:29.172Z"
    },
    {
      "name": "Sugarbush",
      "lat": 44.135,
      "lng": -72.9017,
      "snowfall_7day": 0,
      "forecast_text": "Rain. Cloudy, with a low around 35. South wind 18 to 33 mph. Chance of precipitation is 90%. New rainfall amounts between a tenth and quarter of an inch possible.",
      "last_updated": "2025-11-10T06:36:44.834Z"
    },
    {
      "name": "Stratton",
      "lat": 43.1133,
      "lng": -72.9083,
      "snowfall_7day": 0,
      "forecast_text": "Rain and patchy fog. Cloudy, with a low around 38. South wind around 2 mph. Chance of precipitation is 80%. New rainfall amounts between a tenth and quarter of an inch possible.",
      "last_updated": "2025-11-10T06:36:47.089Z"
    },
    {
      "name": "Okemo",
      "lat": 43.4017,
      "lng": -72.7167,
      "snowfall_7day": 0,
      "forecast_text": "Rain. Cloudy, with a low around 39. South wind around 5 mph. Chance of precipitation is 80%. New rainfall amounts between a tenth and quarter of an inch possible.",
      "last_updated": "2025-11-10T06:36:48.302Z"
    },
    {
      "name": "Jay Peak",
      "lat": 44.9378,
      "lng": -72.5036,
      "snowfall_7day": 0,
      "forecast_text": "Rain. Cloudy. Low around 33, with temperatures rising to around 39 overnight. South wind 20 to 30 mph. Chance of precipitation is 80%. New rainfall amounts between a tenth and quarter of an inch possible.",
      "last_updated": "2025-11-10T06:36:49.621Z"
    },
    {
      "name": "Smugglers' Notch",
      "lat": 44.5458,
      "lng": -72.7872,
      "snowfall_7day": 0,
      "forecast_text": "Rain. Cloudy, with a low around 34. South wind 9 to 18 mph. Chance of precipitation is 90%. New rainfall amounts between a tenth and quarter of an inch possible.",
      "last_updated": "2025-11-10T06:36:50.903Z"
    },
    {
      "name": "Loon Mountain",
      "lat": 44.0369,
      "lng": -71.6206,
      "snowfall_7day": 0,
      "forecast_text": "Rain likely. Cloudy, with a low around 37. East wind 5 to 15 mph, with gusts as high as 25 mph. Chance of precipitation is 70%. New rainfall amounts less than a tenth of an inch possible.",
      "last_updated": "2025-11-10T06:36:52.532Z"
    },
    {
      "name": "Cannon Mountain",
      "lat": 44.1572,
      "lng": -71.6978,
      "snowfall_7day": 0,
      "forecast_text": "Rain likely. Cloudy. Low around 34, with temperatures rising to around 40 overnight. Southeast wind 15 to 25 mph, with gusts as high as 40 mph. Chance of precipitation is 70%. New rainfall amounts less than a tenth of an inch possible.",
      "last_updated": "2025-11-10T06:37:00.559Z"
    },
    {
      "name": "Wildcat Mountain",
      "lat": 44.2636,
      "lng": -71.2328,
      "snowfall_7day": 0,
      "forecast_text": "Rain. Cloudy, with a low around 36. Southeast wind 5 to 15 mph, with gusts as high as 25 mph. Chance of precipitation is 80%. New rainfall amounts between a tenth and quarter of an inch possible.",
      "last_updated": "2025-11-10T06:37:05.167Z"
    },
    {
      "name": "Bretton Woods",
      "lat": 44.2633,
      "lng": -71.4439,
      "snowfall_7day": 0,
      "forecast_text": "Rain likely. Mostly cloudy. Low around 34, with temperatures rising to around 40 overnight. Southeast wind 5 to 15 mph, with gusts as high as 30 mph. Chance of precipitation is 70%. New rainfall amounts less than a tenth of an inch possible.",
      "last_updated": "2025-11-10T06:37:17.555Z"
    },
    {
      "name": "Snowbasin",
      "lat": 41.2156,
      "lng": -111.8567,
      "snowfall_7day": 0,
      "forecast_text": "Sunny. High near 49, with temperatures falling to around 45 in the afternoon. West wind around 3 mph.",
      "last_updated": "2025-11-10T06:37:19.563Z"
    },
    {
      "name": "Powder Mountain",
      "lat": 41.3814,
      "lng": -111.7806,
      "snowfall_7day": 0,
      "forecast_text": "Sunny. High near 41, with temperatures falling to around 37 in the afternoon. Northwest wind around 3 mph.",
      "last_updated": "2025-11-10T06:37:27.949Z"
    },
    {
      "name": "Solitude",
      "lat": 40.62,
      "lng": -111.5917,
      "snowfall_7day": 0,
      "forecast_text": "Sunny. High near 47, with temperatures falling to around 42 in the afternoon. North northwest wind around 3 mph.",
      "last_updated": "2025-11-10T06:37:28.451Z"
    },
    {
      "name": "Brighton",
      "lat": 40.5981,
      "lng": -111.5831,
      "snowfall_7day": 0,
      "forecast_text": "Sunny. High near 47, with temperatures falling to around 42 in the afternoon. North northwest wind around 2 mph.",
      "last_updated": "2025-11-10T06:37:30.942Z"
    },
    {
      "name": "Snowmass",
      "lat": 39.2133,
      "lng": -106.9378,
      "snowfall_7day": 0,
      "forecast_text": "Mostly clear, with a low around 31. South southwest wind 0 to 5 mph.",
      "last_updated": "2025-11-10T06:37:32.623Z"
    },
    {
      "name": "Aspen Highlands",
      "lat": 39.1825,
      "lng": -106.8553,
      "snowfall_7day": 0,
      "forecast_text": "Mostly clear, with a low around 29. South wind around 5 mph.",
      "last_updated": "2025-11-10T06:37:34.881Z"
    },
    {
      "name": "Buttermilk",
      "lat": 39.2078,
      "lng": -106.8608,
      "snowfall_7day": 0,
      "forecast_text": "Mostly clear, with a low around 28. South southeast wind around 5 mph.",
      "last_updated": "2025-11-10T06:37:37.144Z"
    },
    {
      "name": "Beaver Creek",
      "lat": 39.6042,
      "lng": -106.5164,
      "snowfall_7day": 0,
      "forecast_text": "Mostly clear, with a low around 25. South southeast wind around 0 mph.",
      "last_updated": "2025-11-10T06:37:40.114Z"
    },
    {
      "name": "Purgatory",
      "lat": 37.6303,
      "lng": -107.8139,
      "snowfall_7day": 0,
      "forecast_text": "Clear, with a low around 30. North wind around 5 mph.",
      "last_updated": "2025-11-10T06:37:48.317Z"
    },
    {
      "name": "Wolf Creek",
      "lat": 37.4722,
      "lng": -106.7931,
      "snowfall_7day": 0,
      "forecast_text": "Clear, with a low around 27. Northwest wind 5 to 10 mph.",
      "last_updated": "2025-11-10T06:37:51.330Z"
    },
    {
      "name": "Monarch Mountain",
      "lat": 38.5117,
      "lng": -106.3317,
      "snowfall_7day": 0,
      "forecast_text": "Mostly clear, with a low around 24. West wind 10 to 15 mph.",
      "last_updated": "2025-11-10T06:37:56.252Z"
    },
    {
      "name": "Eldora",
      "lat": 39.9372,
      "lng": -105.5828,
      "snowfall_7day": 0,
      "forecast_text": "Sunny. High near 39, with temperatures falling to around 32 in the afternoon. West northwest wind around 10 mph, with gusts as high as 16 mph.",
      "last_updated": "2025-11-10T06:37:56.743Z"
    },
    {
      "name": "Grand Targhee",
      "lat": 43.7886,
      "lng": -110.9586,
      "snowfall_7day": 0,
      "forecast_text": "Mostly cloudy, with a low around 27. East southeast wind around 7 mph.",
      "last_updated": "2025-11-10T06:37:58.727Z"
    },
    {
      "name": "Snow King",
      "lat": 43.4783,
      "lng": -110.7628,
      "snowfall_7day": 0,
      "forecast_text": "Partly cloudy, with a low around 24. East southeast wind around 5 mph.",
      "last_updated": "2025-11-10T06:38:00.766Z"
    },
    {
      "name": "Bridger Bowl",
      "lat": 45.8167,
      "lng": -110.8969,
      "snowfall_7day": 0,
      "forecast_text": "Mostly cloudy, with a low around 36. Southwest wind 6 to 9 mph.",
      "last_updated": "2025-11-10T06:38:10.760Z"
    },
    {
      "name": "Big Mountain",
      "lat": 48.4928,
      "lng": -114.3483,
      "snowfall_7day": 0,
      "forecast_text": "A slight chance of rain and snow after 5am. Partly cloudy, with a low around 29. South southwest wind around 5 mph. Chance of precipitation is 20%.",
      "last_updated": "2025-11-10T06:38:21.334Z"
    },
    {
      "name": "Snowbowl",
      "lat": 46.9417,
      "lng": -113.9492,
      "snowfall_7day": 0,
      "forecast_text": "Mostly cloudy, with a low around 38. East northeast wind around 5 mph.",
      "last_updated": "2025-11-10T06:38:58.681Z"
    },
    {
      "name": "Bogus Basin",
      "lat": 43.7725,
      "lng": -116.0939,
      "snowfall_7day": 0,
      "forecast_text": "Sunny. High near 45, with temperatures falling to around 41 in the afternoon. South southeast wind around 2 mph.",
      "last_updated": "2025-11-10T06:38:58.977Z"
    },
    {
      "name": "Tamarack",
      "lat": 44.6922,
      "lng": -116.1344,
      "snowfall_7day": 0,
      "forecast_text": "Mostly sunny. High near 46, with temperatures falling to around 38 in the afternoon. Southwest wind around 2 mph.",
      "last_updated": "2025-11-10T06:39:00.414Z"
    },
    {
      "name": "Silver Mountain",
      "lat": 47.6764,
      "lng": -116.0703,
      "snowfall_7day": 0,
      "forecast_text": "Mostly cloudy, with a low around 41. North wind around 5 mph.",
      "last_updated": "2025-11-10T06:39:01.602Z"
    },
    {
      "name": "Mt. Hood Meadows",
      "lat": 45.3319,
      "lng": -121.6653,
      "snowfall_7day": 0,
      "forecast_text": "Mostly cloudy. Low around 42, with temperatures rising to around 44 overnight. West wind around 5 mph.",
      "last_updated": "2025-11-10T06:39:06.990Z"
    },
    {
      "name": "Timberline",
      "lat": 45.3306,
      "lng": -121.7108,
      "snowfall_7day": 0,
      "forecast_text": "Mostly cloudy. Low around 41, with temperatures rising to around 43 overnight. West wind 3 to 8 mph.",
      "last_updated": "2025-11-10T06:39:10.638Z"
    },
    {
      "name": "Willamette Pass",
      "lat": 43.6006,
      "lng": -122.0336,
      "snowfall_7day": 0,
      "forecast_text": "Mostly cloudy, with a low around 41. Southwest wind around 3 mph.",
      "last_updated": "2025-11-10T06:39:15.866Z"
    },
    {
      "name": "Mission Ridge",
      "lat": 47.2917,
      "lng": -120.3997,
      "snowfall_7day": 0,
      "forecast_text": "A slight chance of rain after 4am. Mostly cloudy, with a low around 38. Southwest wind around 7 mph. Chance of precipitation is 20%.",
      "last_updated": "2025-11-10T06:39:16.985Z"
    },
    {
      "name": "Snoqualmie",
      "lat": 47.4219,
      "lng": -121.4136,
      "snowfall_7day": 0,
      "forecast_text": "Rain and patchy fog after 1am. Mostly cloudy, with a low around 39. Southwest wind around 3 mph. Chance of precipitation is 90%. New rainfall amounts between a tenth and quarter of an inch possible.",
      "last_updated": "2025-11-10T06:39:18.165Z"
    },
    {
      "name": "Mt. Spokane",
      "lat": 47.9208,
      "lng": -117.0856,
      "snowfall_7day": 0,
      "forecast_text": "Mostly cloudy, with a low around 38. Southwest wind around 5 mph.",
      "last_updated": "2025-11-10T06:39:29.820Z"
    },
    {
      "name": "White Pass",
      "lat": 46.6394,
      "lng": -121.3908,
      "snowfall_7day": 0,
      "forecast_text": "A chance of rain after 1am. Mostly cloudy, with a low around 39. West wind around 8 mph, with gusts as high as 22 mph. Chance of precipitation is 40%. New rainfall amounts less than a tenth of an inch possible.",
      "last_updated": "2025-11-10T06:39:32.031Z"
    },
    {
      "name": "49 Degrees North",
      "lat": 48.7511,
      "lng": -117.6369,
      "snowfall_7day": 0,
      "forecast_text": "A slight chance of rain after 4am. Mostly cloudy, with a low around 37. Southeast wind around 2 mph. Chance of precipitation is 20%. New rainfall amounts less than a tenth of an inch possible.",
      "last_updated": "2025-11-10T06:39:36.885Z"
    },
    {
      "name": "Red Mountain",
      "lat": 49.0917,
      "lng": -117.8233,
      "snowfall_7day": 0,
      "forecast_text": "Data unavailable",
      "last_updated": "2025-11-10T06:39:37.147Z",
      "error": "Point API failed: 404"
    },
    {
      "name": "Whitewater",
      "lat": 49.5394,
      "lng": -117.2717,
      "snowfall_7day": 0,
      "forecast_text": "Data unavailable",
      "last_updated": "2025-11-10T06:39:37.390Z",
      "error": "Point API failed: 404"
    },
    {
      "name": "Panorama",
      "lat": 50.8036,
      "lng": -116.0533,
      "snowfall_7day": 0,
      "forecast_text": "Data unavailable",
      "last_updated": "2025-11-10T06:39:38.625Z",
      "error": "Point API failed: 404"
    },
    {
      "name": "Marmot Basin",
      "lat": 52.8236,
      "lng": -118.0747,
      "snowfall_7day": 0,
      "forecast_text": "Data unavailable",
      "last_updated": "2025-11-10T06:39:38.874Z",
      "error": "Point API failed: 404"
    },
    {
      "name": "Nakiska",
      "lat": 50.98,
      "lng": -115.0733,
      "snowfall_7day": 0,
      "forecast_text": "Data unavailable",
      "last_updated": "2025-11-10T06:39:40.151Z",
      "error": "Point API failed: 404"
    },
    {
      "name": "Castle Mountain",
      "lat": 49.4058,
      "lng": -114.5169,
      "snowfall_7day": 0,
      "forecast_text": "Data unavailable",
      "last_updated": "2025-11-10T06:39:47.589Z",
      "error": "Point API failed: 404"
    },
    {
      "name": "Norquay",
      "lat": 51.1967,
      "lng": -115.5531,
      "snowfall_7day": 0,
      "forecast_text": "Data unavailable",
      "last_updated": "2025-11-10T06:39:49.445Z",
      "error": "Point API failed: 404"
    },
    {
      "name": "Le Massif",
      "lat": 47.3136,
      "lng": -70.6358,
      "snowfall_7day": 0,
      "forecast_text": "Data unavailable",
      "last_updated": "2025-11-10T06:39:49.696Z",
      "error": "Point API failed: 404"
    },
    {
      "name": "Calabogie",
      "lat": 45.2906,
      "lng": -76.7019,
      "snowfall_7day": 0,
      "forecast_text": "Data unavailable",
      "last_updated": "2025-11-10T06:39:51.985Z",
      "error": "Point API failed: 404"
    },
    {
      "name": "Sierra-at-Tahoe",
      "lat": 38.7986,
      "lng": -120.0828,
      "snowfall_7day": 0,
      "forecast_text": "Mostly sunny, with a high near 62. Northeast wind around 0 mph.",
      "last_updated": "2025-11-10T06:39:52.390Z"
    },
    {
      "name": "Kirkwood",
      "lat": 38.6867,
      "lng": -120.0656,
      "snowfall_7day": 0,
      "forecast_text": "Mostly sunny. High near 62, with temperatures falling to around 54 in the afternoon. Northeast wind around 2 mph.",
      "last_updated": "2025-11-10T06:39:52.804Z"
    },
    {
      "name": "Northstar",
      "lat": 39.2733,
      "lng": -120.1211,
      "snowfall_7day": 0,
      "forecast_text": "Patchy freezing fog after midnight. Partly cloudy, with a low around 44. South wind around 0 mph.",
      "last_updated": "2025-11-10T06:39:58.244Z"
    },
    {
      "name": "Homewood",
      "lat": 39.0833,
      "lng": -120.1667,
      "snowfall_7day": 0,
      "forecast_text": "Partly cloudy, with a low around 44. Northwest wind 0 to 5 mph.",
      "last_updated": "2025-11-10T06:40:00.287Z"
    },
    {
      "name": "Mt. Rose",
      "lat": 39.3397,
      "lng": -119.8894,
      "snowfall_7day": 0,
      "forecast_text": "Mostly cloudy, with a low around 42. Southwest wind around 5 mph.",
      "last_updated": "2025-11-10T06:40:01.013Z"
    },
    {
      "name": "Diamond Peak",
      "lat": 39.2525,
      "lng": -119.9169,
      "snowfall_7day": 0,
      "forecast_text": "Mostly cloudy, with a low around 43. Northwest wind 0 to 5 mph.",
      "last_updated": "2025-11-10T06:40:04.573Z"
    },
    {
      "name": "June Mountain",
      "lat": 37.7853,
      "lng": -119.0781,
      "snowfall_7day": 0,
      "forecast_text": "Partly cloudy, with a low around 42. Southwest wind around 0 mph.",
      "last_updated": "2025-11-10T06:40:13.172Z"
    },
    {
      "name": "Bear Mountain",
      "lat": 34.235,
      "lng": -116.865,
      "snowfall_7day": 0,
      "forecast_text": "Sunny, with a high near 67. East wind 10 to 15 mph, with gusts as high as 25 mph.",
      "last_updated": "2025-11-10T06:40:13.548Z"
    },
    {
      "name": "Snow Summit",
      "lat": 34.2306,
      "lng": -116.8886,
      "snowfall_7day": 0,
      "forecast_text": "Sunny, with a high near 65. East wind 5 to 10 mph.",
      "last_updated": "2025-11-10T06:40:13.864Z"
    },
    {
      "name": "Mountain High",
      "lat": 34.3811,
      "lng": -117.6881,
      "snowfall_7day": 0,
      "forecast_text": "Sunny, with a high near 68. Northeast wind 5 to 10 mph.",
      "last_updated": "2025-11-10T06:40:14.169Z"
    },
    {
      "name": "Ski Santa Fe",
      "lat": 35.7869,
      "lng": -105.7961,
      "snowfall_7day": 0,
      "forecast_text": "Clear, with a low around 26. North wind 5 to 10 mph.",
      "last_updated": "2025-11-10T06:40:16.254Z"
    },
    {
      "name": "Angel Fire",
      "lat": 36.3975,
      "lng": -105.2886,
      "snowfall_7day": 0,
      "forecast_text": "Mostly clear, with a low around 24. Southwest wind around 0 mph.",
      "last_updated": "2025-11-10T06:40:17.902Z"
    }
  ]
}