{
  "generated_at": "2025-12-23T02:20:22.177Z",
  "total_resorts": 115,
  "data_source": "Open-Meteo",
  "resorts": [
    {
      "name": "Whistler Blackcomb",
      "lat": 50.1163,
      "lng": -122.9574,
      "snowfall_24hr": 2.6,
      "snowfall_48hr": 4.1,
      "snowfall_7day": 6.4,
      "forecast_text": "2.6\" expected in next 24 hours",
      "last_updated": "2025-12-23T02:19:52.611Z"
    },
    {
      "name": "Vail",
      "lat": 39.6403,
      "lng": -106.3742,
      "snowfall_24hr": 0,
      "snowfall_48hr": 0,
      "snowfall_7day": 3.6,
      "forecast_text": "3.6\" expected in next 7 days",
      "last_updated": "2025-12-23T02:19:52.817Z"
    },
    {
      "name": "Park City",
      "lat": 40.6514,
      "lng": -111.5079,
      "snowfall_24hr": 0,
      "snowfall_48hr": 0,
      "snowfall_7day": 4.9,
      "forecast_text": "4.9\" expected in next 7 days",
      "last_updated": "2025-12-23T02:19:53.022Z"
    },
    {
      "name": "Breckenridge",
      "lat": 39.4817,
      "lng": -106.0384,
      "snowfall_24hr": 0,
      "snowfall_48hr": 0,
      "snowfall_7day": 0.9,
      "forecast_text": "0.9\" expected in next 7 days",
      "last_updated": "2025-12-23T02:19:53.226Z"
    },
    {
      "name": "Heavenly",
      "lat": 38.935,
      "lng": -119.9403,
      "snowfall_24hr": 0.3,
      "snowfall_48hr": 0.3,
      "snowfall_7day": 18.9,
      "forecast_text": "0.3\" expected in next 24 hours",
      "last_updated": "2025-12-23T02:19:53.431Z"
    },
    {
      "name": "Aspen Snowmass",
      "lat": 39.1911,
      "lng": -106.8175,
      "snowfall_24hr": 0,
      "snowfall_48hr": 0,
      "snowfall_7day": 3.4,
      "forecast_text": "3.4\" expected in next 7 days",
      "last_updated": "2025-12-23T02:19:53.636Z"
    },
    {
      "name": "Jackson Hole",
      "lat": 43.5875,
      "lng": -110.8278,
      "snowfall_24hr": 0.1,
      "snowfall_48hr": 0.1,
      "snowfall_7day": 7.2,
      "forecast_text": "0.1\" expected in next 24 hours",
      "last_updated": "2025-12-23T02:19:53.841Z"
    },
    {
      "name": "Banff Sunshine",
      "lat": 51.1158,
      "lng": -115.7631,
      "snowfall_24hr": 0.1,
      "snowfall_48hr": 1.7,
      "snowfall_7day": 5.1,
      "forecast_text": "0.1\" expected in next 24 hours",
      "last_updated": "2025-12-23T02:19:54.044Z"
    },
    {
      "name": "Lake Louise",
      "lat": 51.4254,
      "lng": -116.1773,
      "snowfall_24hr": 0.1,
      "snowfall_48hr": 1.5,
      "snowfall_7day": 4.2,
      "forecast_text": "0.1\" expected in next 24 hours",
      "last_updated": "2025-12-23T02:19:54.249Z"
    },
    {
      "name": "Big Sky",
      "lat": 45.2846,
      "lng": -111.4008,
      "snowfall_24hr": 0.2,
      "snowfall_48hr": 0.2,
      "snowfall_7day": 2.7,
      "forecast_text": "0.2\" expected in next 24 hours",
      "last_updated": "2025-12-23T02:19:54.454Z"
    },
    {
      "name": "Steamboat",
      "lat": 40.458,
      "lng": -106.8047,
      "snowfall_24hr": 0,
      "snowfall_48hr": 0,
      "snowfall_7day": 1.4,
      "forecast_text": "1.4\" expected in next 7 days",
      "last_updated": "2025-12-23T02:19:54.657Z"
    },
    {
      "name": "Mammoth Mountain",
      "lat": 37.6308,
      "lng": -119.0326,
      "snowfall_24hr": 0,
      "snowfall_48hr": 0.1,
      "snowfall_7day": 43.6,
      "forecast_text": "0.1\" expected in next 48 hours",
      "last_updated": "2025-12-23T02:19:54.861Z"
    },
    {
      "name": "Squaw Valley",
      "lat": 39.197,
      "lng": -120.2356,
      "snowfall_24hr": 1.3,
      "snowfall_48hr": 1.3,
      "snowfall_7day": 31.6,
      "forecast_text": "1.3\" expected in next 24 hours",
      "last_updated": "2025-12-23T02:19:55.064Z"
    },
    {
      "name": "Telluride",
      "lat": 37.9375,
      "lng": -107.8123,
      "snowfall_24hr": 0,
      "snowfall_48hr": 0,
      "snowfall_7day": 0.8,
      "forecast_text": "0.8\" expected in next 7 days",
      "last_updated": "2025-12-23T02:19:55.269Z"
    },
    {
      "name": "Sun Valley",
      "lat": 43.6966,
      "lng": -114.3553,
      "snowfall_24hr": 0,
      "snowfall_48hr": 0,
      "snowfall_7day": 5.3,
      "forecast_text": "5.3\" expected in next 7 days",
      "last_updated": "2025-12-23T02:19:55.471Z"
    },
    {
      "name": "Deer Valley",
      "lat": 40.6374,
      "lng": -111.4783,
      "snowfall_24hr": 0,
      "snowfall_48hr": 0,
      "snowfall_7day": 4.8,
      "forecast_text": "4.8\" expected in next 7 days",
      "last_updated": "2025-12-23T02:19:55.673Z"
    },
    {
      "name": "Killington",
      "lat": 43.6046,
      "lng": -72.822,
      "snowfall_24hr": 0,
      "snowfall_48hr": 2.2,
      "snowfall_7day": 4.1,
      "forecast_text": "0.0\" expected in next 24 hours",
      "last_updated": "2025-12-23T02:19:55.878Z"
    },
    {
      "name": "Stowe",
      "lat": 44.5303,
      "lng": -72.7817,
      "snowfall_24hr": 0.4,
      "snowfall_48hr": 1.5,
      "snowfall_7day": 6.2,
      "forecast_text": "0.4\" expected in next 24 hours",
      "last_updated": "2025-12-23T02:19:56.082Z"
    },
    {
      "name": "Alta",
      "lat": 40.5885,
      "lng": -111.6376,
      "snowfall_24hr": 0,
      "snowfall_48hr": 0,
      "snowfall_7day": 5.7,
      "forecast_text": "5.7\" expected in next 7 days",
      "last_updated": "2025-12-23T02:19:56.286Z"
    },
    {
      "name": "Snowbird",
      "lat": 40.5803,
      "lng": -111.6573,
      "snowfall_24hr": 0,
      "snowfall_48hr": 0,
      "snowfall_7day": 5.6,
      "forecast_text": "5.6\" expected in next 7 days",
      "last_updated": "2025-12-23T02:19:56.490Z"
    },
    {
      "name": "Taos",
      "lat": 36.5924,
      "lng": -105.4467,
      "snowfall_24hr": 0,
      "snowfall_48hr": 0,
      "snowfall_7day": 0.9,
      "forecast_text": "0.9\" expected in next 7 days",
      "last_updated": "2025-12-23T02:19:56.693Z"
    },
    {
      "name": "Copper Mountain",
      "lat": 39.5022,
      "lng": -106.1506,
      "snowfall_24hr": 0,
      "snowfall_48hr": 0,
      "snowfall_7day": 1.6,
      "forecast_text": "1.6\" expected in next 7 days",
      "last_updated": "2025-12-23T02:19:56.896Z"
    },
    {
      "name": "Winter Park",
      "lat": 39.8868,
      "lng": -105.7625,
      "snowfall_24hr": 0,
      "snowfall_48hr": 0,
      "snowfall_7day": 1.9,
      "forecast_text": "1.9\" expected in next 7 days",
      "last_updated": "2025-12-23T02:19:57.100Z"
    },
    {
      "name": "Keystone",
      "lat": 39.605,
      "lng": -105.9347,
      "snowfall_24hr": 0,
      "snowfall_48hr": 0,
      "snowfall_7day": 1.2,
      "forecast_text": "1.2\" expected in next 7 days",
      "last_updated": "2025-12-23T02:19:57.303Z"
    },
    {
      "name": "Arapahoe Basin",
      "lat": 39.6426,
      "lng": -105.8717,
      "snowfall_24hr": 0,
      "snowfall_48hr": 0,
      "snowfall_7day": 0.9,
      "forecast_text": "0.9\" expected in next 7 days",
      "last_updated": "2025-12-23T02:19:57.506Z"
    },
    {
      "name": "Crested Butte",
      "lat": 38.8997,
      "lng": -106.9653,
      "snowfall_24hr": 0,
      "snowfall_48hr": 0,
      "snowfall_7day": 6.7,
      "forecast_text": "6.7\" expected in next 7 days",
      "last_updated": "2025-12-23T02:19:57.710Z"
    },
    {
      "name": "Loveland",
      "lat": 39.6803,
      "lng": -105.8978,
      "snowfall_24hr": 0,
      "snowfall_48hr": 0,
      "snowfall_7day": 1.2,
      "forecast_text": "1.2\" expected in next 7 days",
      "last_updated": "2025-12-23T02:19:57.913Z"
    },
    {
      "name": "Mt. Bachelor",
      "lat": 43.979,
      "lng": -121.688,
      "snowfall_24hr": 0.4,
      "snowfall_48hr": 1.5,
      "snowfall_7day": 3.5,
      "forecast_text": "0.4\" expected in next 24 hours",
      "last_updated": "2025-12-23T02:19:58.117Z"
    },
    {
      "name": "Crystal Mountain",
      "lat": 46.9358,
      "lng": -121.4742,
      "snowfall_24hr": 1.3,
      "snowfall_48hr": 1.8,
      "snowfall_7day": 8.6,
      "forecast_text": "1.3\" expected in next 24 hours",
      "last_updated": "2025-12-23T02:19:58.322Z"
    },
    {
      "name": "Stevens Pass",
      "lat": 47.7453,
      "lng": -121.0892,
      "snowfall_24hr": 1.3,
      "snowfall_48hr": 1.6,
      "snowfall_7day": 6.6,
      "forecast_text": "1.3\" expected in next 24 hours",
      "last_updated": "2025-12-23T02:19:58.525Z"
    },
    {
      "name": "Mt. Baker",
      "lat": 48.8597,
      "lng": -121.6686,
      "snowfall_24hr": 4.6,
      "snowfall_48hr": 5.9,
      "snowfall_7day": 13.3,
      "forecast_text": "4.6\" expected in next 24 hours",
      "last_updated": "2025-12-23T02:19:58.730Z"
    },
    {
      "name": "Schweitzer",
      "lat": 48.3642,
      "lng": -116.6228,
      "snowfall_24hr": 1.6,
      "snowfall_48hr": 1.7,
      "snowfall_7day": 2,
      "forecast_text": "1.6\" expected in next 24 hours",
      "last_updated": "2025-12-23T02:19:58.935Z"
    },
    {
      "name": "Sun Peaks",
      "lat": 50.8817,
      "lng": -119.8847,
      "snowfall_24hr": 0.2,
      "snowfall_48hr": 0.2,
      "snowfall_7day": 2.9,
      "forecast_text": "0.2\" expected in next 24 hours",
      "last_updated": "2025-12-23T02:19:59.137Z"
    },
    {
      "name": "Revelstoke",
      "lat": 50.9981,
      "lng": -118.1956,
      "snowfall_24hr": 0.2,
      "snowfall_48hr": 0.8,
      "snowfall_7day": 5.5,
      "forecast_text": "0.2\" expected in next 24 hours",
      "last_updated": "2025-12-23T02:19:59.340Z"
    },
    {
      "name": "Fernie",
      "lat": 49.4653,
      "lng": -115.0636,
      "snowfall_24hr": 0.3,
      "snowfall_48hr": 0.3,
      "snowfall_7day": 5.2,
      "forecast_text": "0.3\" expected in next 24 hours",
      "last_updated": "2025-12-23T02:19:59.543Z"
    },
    {
      "name": "Big White",
      "lat": 49.7311,
      "lng": -118.935,
      "snowfall_24hr": 0.2,
      "snowfall_48hr": 0.2,
      "snowfall_7day": 5.2,
      "forecast_text": "0.2\" expected in next 24 hours",
      "last_updated": "2025-12-23T02:19:59.746Z"
    },
    {
      "name": "Kicking Horse",
      "lat": 51.2514,
      "lng": -117.0492,
      "snowfall_24hr": 0.1,
      "snowfall_48hr": 0.7,
      "snowfall_7day": 6.2,
      "forecast_text": "0.1\" expected in next 24 hours",
      "last_updated": "2025-12-23T02:19:59.944Z"
    },
    {
      "name": "Mont Tremblant",
      "lat": 46.2094,
      "lng": -74.5847,
      "snowfall_24hr": 0,
      "snowfall_48hr": 1.6,
      "snowfall_7day": 3.5,
      "forecast_text": "1.6\" expected in next 48 hours",
      "last_updated": "2025-12-23T02:20:00.150Z"
    },
    {
      "name": "Blue Mountain",
      "lat": 44.5075,
      "lng": -80.3231,
      "snowfall_24hr": 0,
      "snowfall_48hr": 0.2,
      "snowfall_7day": 0.8,
      "forecast_text": "0.2\" expected in next 48 hours",
      "last_updated": "2025-12-23T02:20:02.111Z"
    },
    {
      "name": "Sugarloaf",
      "lat": 45.0314,
      "lng": -70.3139,
      "snowfall_24hr": 0,
      "snowfall_48hr": 0.4,
      "snowfall_7day": 3.6,
      "forecast_text": "0.4\" expected in next 48 hours",
      "last_updated": "2025-12-23T02:20:03.014Z"
    },
    {
      "name": "Sunday River",
      "lat": 44.4697,
      "lng": -70.8561,
      "snowfall_24hr": 0,
      "snowfall_48hr": 0.9,
      "snowfall_7day": 3.7,
      "forecast_text": "0.9\" expected in next 48 hours",
      "last_updated": "2025-12-23T02:20:04.003Z"
    },
    {
      "name": "Sugarbush",
      "lat": 44.135,
      "lng": -72.9017,
      "snowfall_24hr": 0.2,
      "snowfall_48hr": 1.3,
      "snowfall_7day": 4.3,
      "forecast_text": "0.2\" expected in next 24 hours",
      "last_updated": "2025-12-23T02:20:05.151Z"
    },
    {
      "name": "Stratton",
      "lat": 43.1133,
      "lng": -72.9083,
      "snowfall_24hr": 0,
      "snowfall_48hr": 1.3,
      "snowfall_7day": 3,
      "forecast_text": "1.3\" expected in next 48 hours",
      "last_updated": "2025-12-23T02:20:06.008Z"
    },
    {
      "name": "Okemo",
      "lat": 43.4017,
      "lng": -72.7167,
      "snowfall_24hr": 0,
      "snowfall_48hr": 1.2,
      "snowfall_7day": 2.6,
      "forecast_text": "1.2\" expected in next 48 hours",
      "last_updated": "2025-12-23T02:20:06.489Z"
    },
    {
      "name": "Jay Peak",
      "lat": 44.9378,
      "lng": -72.5036,
      "snowfall_24hr": 0.2,
      "snowfall_48hr": 1.3,
      "snowfall_7day": 6.1,
      "forecast_text": "0.2\" expected in next 24 hours",
      "last_updated": "2025-12-23T02:20:06.905Z"
    },
    {
      "name": "Smugglers' Notch",
      "lat": 44.5458,
      "lng": -72.7872,
      "snowfall_24hr": 0.4,
      "snowfall_48hr": 1.7,
      "snowfall_7day": 6.6,
      "forecast_text": "0.4\" expected in next 24 hours",
      "last_updated": "2025-12-23T02:20:07.263Z"
    },
    {
      "name": "Loon Mountain",
      "lat": 44.0369,
      "lng": -71.6206,
      "snowfall_24hr": 0,
      "snowfall_48hr": 0.8,
      "snowfall_7day": 3.8,
      "forecast_text": "0.8\" expected in next 48 hours",
      "last_updated": "2025-12-23T02:20:07.594Z"
    },
    {
      "name": "Cannon Mountain",
      "lat": 44.1572,
      "lng": -71.6978,
      "snowfall_24hr": 0.1,
      "snowfall_48hr": 1.1,
      "snowfall_7day": 4.3,
      "forecast_text": "0.1\" expected in next 24 hours",
      "last_updated": "2025-12-23T02:20:08.071Z"
    },
    {
      "name": "Wildcat Mountain",
      "lat": 44.2636,
      "lng": -71.2328,
      "snowfall_24hr": 0,
      "snowfall_48hr": 1,
      "snowfall_7day": 4.6,
      "forecast_text": "1.0\" expected in next 48 hours",
      "last_updated": "2025-12-23T02:20:08.338Z"
    },
    {
      "name": "Bretton Woods",
      "lat": 44.2633,
      "lng": -71.4439,
      "snowfall_24hr": 0,
      "snowfall_48hr": 0.3,
      "snowfall_7day": 3.7,
      "forecast_text": "0.3\" expected in next 48 hours",
      "last_updated": "2025-12-23T02:20:08.570Z"
    },
    {
      "name": "Snowbasin",
      "lat": 41.2156,
      "lng": -111.8567,
      "snowfall_24hr": 0,
      "snowfall_48hr": 0,
      "snowfall_7day": 0.1,
      "forecast_text": "0.1\" expected in next 7 days",
      "last_updated": "2025-12-23T02:20:08.782Z"
    },
    {
      "name": "Powder Mountain",
      "lat": 41.3814,
      "lng": -111.7806,
      "snowfall_24hr": 0,
      "snowfall_48hr": 0,
      "snowfall_7day": 1.9,
      "forecast_text": "1.9\" expected in next 7 days",
      "last_updated": "2025-12-23T02:20:08.986Z"
    },
    {
      "name": "Solitude",
      "lat": 40.62,
      "lng": -111.5917,
      "snowfall_24hr": 0,
      "snowfall_48hr": 0,
      "snowfall_7day": 7.1,
      "forecast_text": "7.1\" expected in next 7 days",
      "last_updated": "2025-12-23T02:20:09.189Z"
    },
    {
      "name": "Brighton",
      "lat": 40.5981,
      "lng": -111.5831,
      "snowfall_24hr": 0,
      "snowfall_48hr": 0,
      "snowfall_7day": 7.2,
      "forecast_text": "7.2\" expected in next 7 days",
      "last_updated": "2025-12-23T02:20:09.392Z"
    },
    {
      "name": "Snowmass",
      "lat": 39.2133,
      "lng": -106.9378,
      "snowfall_24hr": 0,
      "snowfall_48hr": 0,
      "snowfall_7day": 4.6,
      "forecast_text": "4.6\" expected in next 7 days",
      "last_updated": "2025-12-23T02:20:09.594Z"
    },
    {
      "name": "Aspen Highlands",
      "lat": 39.1825,
      "lng": -106.8553,
      "snowfall_24hr": 0,
      "snowfall_48hr": 0,
      "snowfall_7day": 3.4,
      "forecast_text": "3.4\" expected in next 7 days",
      "last_updated": "2025-12-23T02:20:09.797Z"
    },
    {
      "name": "Buttermilk",
      "lat": 39.2078,
      "lng": -106.8608,
      "snowfall_24hr": 0,
      "snowfall_48hr": 0,
      "snowfall_7day": 3.4,
      "forecast_text": "3.4\" expected in next 7 days",
      "last_updated": "2025-12-23T02:20:10.002Z"
    },
    {
      "name": "Beaver Creek",
      "lat": 39.6042,
      "lng": -106.5164,
      "snowfall_24hr": 0,
      "snowfall_48hr": 0,
      "snowfall_7day": 3.2,
      "forecast_text": "3.2\" expected in next 7 days",
      "last_updated": "2025-12-23T02:20:10.203Z"
    },
    {
      "name": "Purgatory",
      "lat": 37.6303,
      "lng": -107.8139,
      "snowfall_24hr": 0,
      "snowfall_48hr": 0,
      "snowfall_7day": 3.7,
      "forecast_text": "3.7\" expected in next 7 days",
      "last_updated": "2025-12-23T02:20:10.426Z"
    },
    {
      "name": "Wolf Creek",
      "lat": 37.4722,
      "lng": -106.7931,
      "snowfall_24hr": 0,
      "snowfall_48hr": 0,
      "snowfall_7day": 5.9,
      "forecast_text": "5.9\" expected in next 7 days",
      "last_updated": "2025-12-23T02:20:10.630Z"
    },
    {
      "name": "Monarch Mountain",
      "lat": 38.5117,
      "lng": -106.3317,
      "snowfall_24hr": 0,
      "snowfall_48hr": 0,
      "snowfall_7day": 1.1,
      "forecast_text": "1.1\" expected in next 7 days",
      "last_updated": "2025-12-23T02:20:10.831Z"
    },
    {
      "name": "Eldora",
      "lat": 39.9372,
      "lng": -105.5828,
      "snowfall_24hr": 0,
      "snowfall_48hr": 0,
      "snowfall_7day": 0.9,
      "forecast_text": "0.9\" expected in next 7 days",
      "last_updated": "2025-12-23T02:20:11.034Z"
    },
    {
      "name": "Grand Targhee",
      "lat": 43.7886,
      "lng": -110.9586,
      "snowfall_24hr": 4.2,
      "snowfall_48hr": 4.2,
      "snowfall_7day": 7.3,
      "forecast_text": "4.2\" expected in next 24 hours",
      "last_updated": "2025-12-23T02:20:11.238Z"
    },
    {
      "name": "Snow King",
      "lat": 43.4783,
      "lng": -110.7628,
      "snowfall_24hr": 0.1,
      "snowfall_48hr": 0.1,
      "snowfall_7day": 3.3,
      "forecast_text": "0.1\" expected in next 24 hours",
      "last_updated": "2025-12-23T02:20:11.438Z"
    },
    {
      "name": "Bridger Bowl",
      "lat": 45.8167,
      "lng": -110.8969,
      "snowfall_24hr": 0,
      "snowfall_48hr": 0,
      "snowfall_7day": 0,
      "forecast_text": "No snow expected",
      "last_updated": "2025-12-23T02:20:11.642Z"
    },
    {
      "name": "Big Mountain",
      "lat": 48.4928,
      "lng": -114.3483,
      "snowfall_24hr": 0.3,
      "snowfall_48hr": 1,
      "snowfall_7day": 6.2,
      "forecast_text": "0.3\" expected in next 24 hours",
      "last_updated": "2025-12-23T02:20:11.845Z"
    },
    {
      "name": "Snowbowl",
      "lat": 46.9417,
      "lng": -113.9492,
      "snowfall_24hr": 0,
      "snowfall_48hr": 0,
      "snowfall_7day": 0.2,
      "forecast_text": "0.2\" expected in next 7 days",
      "last_updated": "2025-12-23T02:20:12.048Z"
    },
    {
      "name": "Bogus Basin",
      "lat": 43.7725,
      "lng": -116.0939,
      "snowfall_24hr": 1.4,
      "snowfall_48hr": 1.4,
      "snowfall_7day": 4.1,
      "forecast_text": "1.4\" expected in next 24 hours",
      "last_updated": "2025-12-23T02:20:12.251Z"
    },
    {
      "name": "Tamarack",
      "lat": 44.6922,
      "lng": -116.1344,
      "snowfall_24hr": 1.1,
      "snowfall_48hr": 1.5,
      "snowfall_7day": 2.6,
      "forecast_text": "1.1\" expected in next 24 hours",
      "last_updated": "2025-12-23T02:20:12.456Z"
    },
    {
      "name": "Silver Mountain",
      "lat": 47.6764,
      "lng": -116.0703,
      "snowfall_24hr": 0,
      "snowfall_48hr": 0,
      "snowfall_7day": 0.7,
      "forecast_text": "0.7\" expected in next 7 days",
      "last_updated": "2025-12-23T02:20:12.657Z"
    },
    {
      "name": "Mt. Hood Meadows",
      "lat": 45.3319,
      "lng": -121.6653,
      "snowfall_24hr": 1.3,
      "snowfall_48hr": 2,
      "snowfall_7day": 4.1,
      "forecast_text": "1.3\" expected in next 24 hours",
      "last_updated": "2025-12-23T02:20:12.861Z"
    },
    {
      "name": "Timberline",
      "lat": 45.3306,
      "lng": -121.7108,
      "snowfall_24hr": 1.8,
      "snowfall_48hr": 2.6,
      "snowfall_7day": 4.8,
      "forecast_text": "1.8\" expected in next 24 hours",
      "last_updated": "2025-12-23T02:20:13.064Z"
    },
    {
      "name": "Willamette Pass",
      "lat": 43.6006,
      "lng": -122.0336,
      "snowfall_24hr": 0.2,
      "snowfall_48hr": 1.2,
      "snowfall_7day": 1.5,
      "forecast_text": "0.2\" expected in next 24 hours",
      "last_updated": "2025-12-23T02:20:13.268Z"
    },
    {
      "name": "Mission Ridge",
      "lat": 47.2917,
      "lng": -120.3997,
      "snowfall_24hr": 0.8,
      "snowfall_48hr": 1,
      "snowfall_7day": 5.1,
      "forecast_text": "0.8\" expected in next 24 hours",
      "last_updated": "2025-12-23T02:20:13.470Z"
    },
    {
      "name": "Snoqualmie",
      "lat": 47.4219,
      "lng": -121.4136,
      "snowfall_24hr": 1.2,
      "snowfall_48hr": 1.4,
      "snowfall_7day": 5.8,
      "forecast_text": "1.2\" expected in next 24 hours",
      "last_updated": "2025-12-23T02:20:13.673Z"
    },
    {
      "name": "Mt. Spokane",
      "lat": 47.9208,
      "lng": -117.0856,
      "snowfall_24hr": 0.8,
      "snowfall_48hr": 1,
      "snowfall_7day": 1,
      "forecast_text": "0.8\" expected in next 24 hours",
      "last_updated": "2025-12-23T02:20:13.877Z"
    },
    {
      "name": "White Pass",
      "lat": 46.6394,
      "lng": -121.3908,
      "snowfall_24hr": 2.3,
      "snowfall_48hr": 2.8,
      "snowfall_7day": 8,
      "forecast_text": "2.3\" expected in next 24 hours",
      "last_updated": "2025-12-23T02:20:14.081Z"
    },
    {
      "name": "49 Degrees North",
      "lat": 48.7511,
      "lng": -117.6369,
      "snowfall_24hr": 0.2,
      "snowfall_48hr": 0.2,
      "snowfall_7day": 0.4,
      "forecast_text": "0.2\" expected in next 24 hours",
      "last_updated": "2025-12-23T02:20:14.284Z"
    },
    {
      "name": "Red Mountain",
      "lat": 49.0917,
      "lng": -117.8233,
      "snowfall_24hr": 0.3,
      "snowfall_48hr": 0.4,
      "snowfall_7day": 4.8,
      "forecast_text": "0.3\" expected in next 24 hours",
      "last_updated": "2025-12-23T02:20:14.486Z"
    },
    {
      "name": "Whitewater",
      "lat": 49.5394,
      "lng": -117.2717,
      "snowfall_24hr": 0.1,
      "snowfall_48hr": 0.1,
      "snowfall_7day": 3.8,
      "forecast_text": "0.1\" expected in next 24 hours",
      "last_updated": "2025-12-23T02:20:14.689Z"
    },
    {
      "name": "Panorama",
      "lat": 50.8036,
      "lng": -116.0533,
      "snowfall_24hr": 0,
      "snowfall_48hr": 0,
      "snowfall_7day": 2.1,
      "forecast_text": "2.1\" expected in next 7 days",
      "last_updated": "2025-12-23T02:20:14.893Z"
    },
    {
      "name": "Marmot Basin",
      "lat": 52.8236,
      "lng": -118.0747,
      "snowfall_24hr": 0.1,
      "snowfall_48hr": 0.3,
      "snowfall_7day": 3.4,
      "forecast_text": "0.1\" expected in next 24 hours",
      "last_updated": "2025-12-23T02:20:15.098Z"
    },
    {
      "name": "Nakiska",
      "lat": 50.98,
      "lng": -115.0733,
      "snowfall_24hr": 0.1,
      "snowfall_48hr": 0.1,
      "snowfall_7day": 2.2,
      "forecast_text": "0.1\" expected in next 24 hours",
      "last_updated": "2025-12-23T02:20:15.301Z"
    },
    {
      "name": "Castle Mountain",
      "lat": 49.4058,
      "lng": -114.5169,
      "snowfall_24hr": 0.2,
      "snowfall_48hr": 0.3,
      "snowfall_7day": 3.5,
      "forecast_text": "0.2\" expected in next 24 hours",
      "last_updated": "2025-12-23T02:20:15.505Z"
    },
    {
      "name": "Norquay",
      "lat": 51.1967,
      "lng": -115.5531,
      "snowfall_24hr": 0,
      "snowfall_48hr": 0.7,
      "snowfall_7day": 2.5,
      "forecast_text": "0.7\" expected in next 48 hours",
      "last_updated": "2025-12-23T02:20:15.708Z"
    },
    {
      "name": "Le Massif",
      "lat": 47.3136,
      "lng": -70.6358,
      "snowfall_24hr": 0,
      "snowfall_48hr": 0.1,
      "snowfall_7day": 1,
      "forecast_text": "0.1\" expected in next 48 hours",
      "last_updated": "2025-12-23T02:20:15.912Z"
    },
    {
      "name": "Calabogie",
      "lat": 45.2906,
      "lng": -76.7019,
      "snowfall_24hr": 0.2,
      "snowfall_48hr": 1.4,
      "snowfall_7day": 1.9,
      "forecast_text": "0.2\" expected in next 24 hours",
      "last_updated": "2025-12-23T02:20:16.115Z"
    },
    {
      "name": "Sierra-at-Tahoe",
      "lat": 38.7986,
      "lng": -120.0828,
      "snowfall_24hr": 2,
      "snowfall_48hr": 2,
      "snowfall_7day": 35.4,
      "forecast_text": "2.0\" expected in next 24 hours",
      "last_updated": "2025-12-23T02:20:16.319Z"
    },
    {
      "name": "Kirkwood",
      "lat": 38.6867,
      "lng": -120.0656,
      "snowfall_24hr": 4.2,
      "snowfall_48hr": 5,
      "snowfall_7day": 47.6,
      "forecast_text": "4.2\" expected in next 24 hours",
      "last_updated": "2025-12-23T02:20:16.523Z"
    },
    {
      "name": "Northstar",
      "lat": 39.2733,
      "lng": -120.1211,
      "snowfall_24hr": 0.6,
      "snowfall_48hr": 0.6,
      "snowfall_7day": 22.7,
      "forecast_text": "0.6\" expected in next 24 hours",
      "last_updated": "2025-12-23T02:20:16.726Z"
    },
    {
      "name": "Homewood",
      "lat": 39.0833,
      "lng": -120.1667,
      "snowfall_24hr": 3,
      "snowfall_48hr": 3.1,
      "snowfall_7day": 28,
      "forecast_text": "3.0\" expected in next 24 hours",
      "last_updated": "2025-12-23T02:20:16.929Z"
    },
    {
      "name": "Mt. Rose",
      "lat": 39.3397,
      "lng": -119.8894,
      "snowfall_24hr": 1.6,
      "snowfall_48hr": 1.6,
      "snowfall_7day": 22.7,
      "forecast_text": "1.6\" expected in next 24 hours",
      "last_updated": "2025-12-23T02:20:17.133Z"
    },
    {
      "name": "Diamond Peak",
      "lat": 39.2525,
      "lng": -119.9169,
      "snowfall_24hr": 5.8,
      "snowfall_48hr": 5.8,
      "snowfall_7day": 27.5,
      "forecast_text": "5.8\" expected in next 24 hours",
      "last_updated": "2025-12-23T02:20:17.335Z"
    },
    {
      "name": "June Mountain",
      "lat": 37.7853,
      "lng": -119.0781,
      "snowfall_24hr": 0,
      "snowfall_48hr": 0.7,
      "snowfall_7day": 36.2,
      "forecast_text": "0.7\" expected in next 48 hours",
      "last_updated": "2025-12-23T02:20:17.541Z"
    },
    {
      "name": "Bear Mountain",
      "lat": 34.235,
      "lng": -116.865,
      "snowfall_24hr": 0,
      "snowfall_48hr": 0,
      "snowfall_7day": 1.3,
      "forecast_text": "1.3\" expected in next 7 days",
      "last_updated": "2025-12-23T02:20:17.744Z"
    },
    {
      "name": "Snow Summit",
      "lat": 34.2306,
      "lng": -116.8886,
      "snowfall_24hr": 0,
      "snowfall_48hr": 0,
      "snowfall_7day": 1.3,
      "forecast_text": "1.3\" expected in next 7 days",
      "last_updated": "2025-12-23T02:20:17.948Z"
    },
    {
      "name": "Mountain High",
      "lat": 34.3811,
      "lng": -117.6881,
      "snowfall_24hr": 0,
      "snowfall_48hr": 0,
      "snowfall_7day": 1,
      "forecast_text": "1.0\" expected in next 7 days",
      "last_updated": "2025-12-23T02:20:18.151Z"
    },
    {
      "name": "Ski Santa Fe",
      "lat": 35.7869,
      "lng": -105.7961,
      "snowfall_24hr": 0,
      "snowfall_48hr": 0,
      "snowfall_7day": 1.1,
      "forecast_text": "1.1\" expected in next 7 days",
      "last_updated": "2025-12-23T02:20:18.353Z"
    },
    {
      "name": "Angel Fire",
      "lat": 36.3975,
      "lng": -105.2886,
      "snowfall_24hr": 0,
      "snowfall_48hr": 0,
      "snowfall_7day": 0.3,
      "forecast_text": "0.3\" expected in next 7 days",
      "last_updated": "2025-12-23T02:20:18.554Z"
    },
    {
      "name": "Whiteface Mountain",
      "lat": 44.3659,
      "lng": -73.9024,
      "snowfall_24hr": 0.4,
      "snowfall_48hr": 2,
      "snowfall_7day": 4.2,
      "forecast_text": "0.4\" expected in next 24 hours",
      "last_updated": "2025-12-23T02:20:18.760Z"
    },
    {
      "name": "Bristol Mountain",
      "lat": 42.7455,
      "lng": -77.4016,
      "snowfall_24hr": 0,
      "snowfall_48hr": 1.1,
      "snowfall_7day": 2.1,
      "forecast_text": "1.1\" expected in next 48 hours",
      "last_updated": "2025-12-23T02:20:19.264Z"
    },
    {
      "name": "Revelstoke Mountain Resort",
      "lat": 50.9981,
      "lng": -118.1958,
      "snowfall_24hr": 0.2,
      "snowfall_48hr": 0.8,
      "snowfall_7day": 5.5,
      "forecast_text": "0.2\" expected in next 24 hours",
      "last_updated": "2025-12-23T02:20:19.466Z"
    },
    {
      "name": "Big White Ski Resort",
      "lat": 49.7308,
      "lng": -118.9357,
      "snowfall_24hr": 0.2,
      "snowfall_48hr": 0.2,
      "snowfall_7day": 5.2,
      "forecast_text": "0.2\" expected in next 24 hours",
      "last_updated": "2025-12-23T02:20:19.668Z"
    },
    {
      "name": "Sun Peaks Resort",
      "lat": 50.8847,
      "lng": -119.8892,
      "snowfall_24hr": 0.2,
      "snowfall_48hr": 0.2,
      "snowfall_7day": 2.9,
      "forecast_text": "0.2\" expected in next 24 hours",
      "last_updated": "2025-12-23T02:20:19.869Z"
    },
    {
      "name": "Fernie Alpine Resort",
      "lat": 49.4651,
      "lng": -115.0764,
      "snowfall_24hr": 0.3,
      "snowfall_48hr": 0.3,
      "snowfall_7day": 5.2,
      "forecast_text": "0.3\" expected in next 24 hours",
      "last_updated": "2025-12-23T02:20:20.068Z"
    },
    {
      "name": "Kicking Horse Mountain Resort",
      "lat": 51.2983,
      "lng": -116.955,
      "snowfall_24hr": 0,
      "snowfall_48hr": 0.5,
      "snowfall_7day": 5.3,
      "forecast_text": "0.0\" expected in next 24 hours",
      "last_updated": "2025-12-23T02:20:20.270Z"
    },
    {
      "name": "Panorama Mountain Resort",
      "lat": 50.9806,
      "lng": -116.0972,
      "snowfall_24hr": 0,
      "snowfall_48hr": 0.6,
      "snowfall_7day": 4.3,
      "forecast_text": "0.6\" expected in next 48 hours",
      "last_updated": "2025-12-23T02:20:20.470Z"
    },
    {
      "name": "RED Mountain Resort",
      "lat": 49.0878,
      "lng": -117.8197,
      "snowfall_24hr": 0.2,
      "snowfall_48hr": 0.2,
      "snowfall_7day": 3.6,
      "forecast_text": "0.2\" expected in next 24 hours",
      "last_updated": "2025-12-23T02:20:20.670Z"
    },
    {
      "name": "SilverStar Mountain Resort",
      "lat": 50.4,
      "lng": -119.0833,
      "snowfall_24hr": 0.4,
      "snowfall_48hr": 0.6,
      "snowfall_7day": 5.4,
      "forecast_text": "0.4\" expected in next 24 hours",
      "last_updated": "2025-12-23T02:20:20.871Z"
    },
    {
      "name": "Lake Louise Ski Resort",
      "lat": 51.4254,
      "lng": -116.1773,
      "snowfall_24hr": 0.1,
      "snowfall_48hr": 1.5,
      "snowfall_7day": 4.2,
      "forecast_text": "0.1\" expected in next 24 hours",
      "last_updated": "2025-12-23T02:20:21.071Z"
    },
    {
      "name": "Sunshine Village",
      "lat": 51.1128,
      "lng": -115.7631,
      "snowfall_24hr": 0.1,
      "snowfall_48hr": 1.7,
      "snowfall_7day": 5.1,
      "forecast_text": "0.1\" expected in next 24 hours",
      "last_updated": "2025-12-23T02:20:21.273Z"
    },
    {
      "name": "Mount Norquay",
      "lat": 51.2094,
      "lng": -115.5797,
      "snowfall_24hr": 0.1,
      "snowfall_48hr": 1.3,
      "snowfall_7day": 3.4,
      "forecast_text": "0.1\" expected in next 24 hours",
      "last_updated": "2025-12-23T02:20:21.476Z"
    },
    {
      "name": "Nakiska Ski Area",
      "lat": 50.9042,
      "lng": -115.0856,
      "snowfall_24hr": 0.2,
      "snowfall_48hr": 0.7,
      "snowfall_7day": 2.7,
      "forecast_text": "0.2\" expected in next 24 hours",
      "last_updated": "2025-12-23T02:20:21.676Z"
    },
    {
      "name": "Le Massif de Charlevoix",
      "lat": 47.3389,
      "lng": -70.6375,
      "snowfall_24hr": 0,
      "snowfall_48hr": 0.1,
      "snowfall_7day": 1,
      "forecast_text": "0.1\" expected in next 48 hours",
      "last_updated": "2025-12-23T02:20:21.876Z"
    },
    {
      "name": "Blue Mountain Resort",
      "lat": 44.5067,
      "lng": -80.3158,
      "snowfall_24hr": 0,
      "snowfall_48hr": 0.2,
      "snowfall_7day": 0.8,
      "forecast_text": "0.2\" expected in next 48 hours",
      "last_updated": "2025-12-23T02:20:22.077Z"
    }
  ]
}