{
  "generated_at": "2025-11-15T06:45:59.941Z",
  "total_resorts": 100,
  "resorts": [
    {
      "name": "Whistler Blackcomb",
      "lat": 50.1163,
      "lng": -122.9574,
      "snowfall_24hr": 0,
      "snowfall_48hr": 0,
      "snowfall_7day": 0,
      "forecast_text": "Data unavailable",
      "last_updated": "2025-11-15T06:36:23.591Z",
      "error": "Point API failed: 404"
    },
    {
      "name": "Vail",
      "lat": 39.6403,
      "lng": -106.3742,
      "snowfall_24hr": 0,
      "snowfall_48hr": 0.8,
      "snowfall_7day": 1.2,
      "forecast_text": "Mostly clear, with a low around 31. West northwest wind around 5 mph.",
      "last_updated": "2025-11-15T06:36:30.356Z"
    },
    {
      "name": "Park City",
      "lat": 40.6514,
      "lng": -111.5079,
      "snowfall_24hr": 0,
      "snowfall_48hr": 0,
      "snowfall_7day": 0.6,
      "forecast_text": "Partly cloudy. Low around 39, with temperatures rising to around 41 overnight. South wind 2 to 6 mph.",
      "last_updated": "2025-11-15T06:36:32.318Z"
    },
    {
      "name": "Breckenridge",
      "lat": 39.4817,
      "lng": -106.0384,
      "snowfall_24hr": 0,
      "snowfall_48hr": 0.8,
      "snowfall_7day": 1.3,
      "forecast_text": "Mostly clear, with a low around 29. West northwest wind around 8 mph.",
      "last_updated": "2025-11-15T06:36:37.138Z"
    },
    {
      "name": "Heavenly",
      "lat": 38.935,
      "lng": -119.9403,
      "snowfall_24hr": 0,
      "snowfall_48hr": 0.1,
      "snowfall_7day": 1.8,
      "forecast_text": "A slight chance of rain. Mostly cloudy, with a low around 39. Southeast wind around 0 mph. Chance of precipitation is 20%.",
      "last_updated": "2025-11-15T06:37:00.205Z"
    },
    {
      "name": "Aspen Snowmass",
      "lat": 39.1911,
      "lng": -106.8175,
      "snowfall_24hr": 0,
      "snowfall_48hr": 0.1,
      "snowfall_7day": 0.3,
      "forecast_text": "Partly cloudy, with a low around 37. South southeast wind around 5 mph.",
      "last_updated": "2025-11-15T06:37:02.439Z"
    },
    {
      "name": "Jackson Hole",
      "lat": 43.5875,
      "lng": -110.8278,
      "snowfall_24hr": 0,
      "snowfall_48hr": 0,
      "snowfall_7day": 0.2,
      "forecast_text": "A slight chance of rain showers. Mostly cloudy, with a low around 37. South southwest wind 5 to 10 mph, with gusts as high as 22 mph. Chance of precipitation is 20%.",
      "last_updated": "2025-11-15T06:37:10.048Z"
    },
    {
      "name": "Banff Sunshine",
      "lat": 51.1158,
      "lng": -115.7631,
      "snowfall_24hr": 0,
      "snowfall_48hr": 0,
      "snowfall_7day": 0,
      "forecast_text": "Data unavailable",
      "last_updated": "2025-11-15T06:37:10.487Z",
      "error": "Point API failed: 404"
    },
    {
      "name": "Lake Louise",
      "lat": 51.4254,
      "lng": -116.1773,
      "snowfall_24hr": 0,
      "snowfall_48hr": 0,
      "snowfall_7day": 0,
      "forecast_text": "Data unavailable",
      "last_updated": "2025-11-15T06:37:11.589Z",
      "error": "Point API failed: 404"
    },
    {
      "name": "Big Sky",
      "lat": 45.2846,
      "lng": -111.4008,
      "snowfall_24hr": 0,
      "snowfall_48hr": 0,
      "snowfall_7day": 1.3,
      "forecast_text": "Partly cloudy, with a low around 32. West wind 9 to 13 mph, with gusts as high as 26 mph.",
      "last_updated": "2025-11-15T06:37:16.024Z"
    },
    {
      "name": "Steamboat",
      "lat": 40.458,
      "lng": -106.8047,
      "snowfall_24hr": 0,
      "snowfall_48hr": 0,
      "snowfall_7day": 0.4,
      "forecast_text": "Partly cloudy, with a low around 35. Northeast wind 0 to 5 mph.",
      "last_updated": "2025-11-15T06:37:18.177Z"
    },
    {
      "name": "Mammoth Mountain",
      "lat": 37.6308,
      "lng": -119.0326,
      "snowfall_24hr": 5.1,
      "snowfall_48hr": 11.1,
      "snowfall_7day": 23.7,
      "forecast_text": "A chance of snow. Cloudy, with a low around 31. Wind chill values as low as 21. East northeast wind 15 to 20 mph, with gusts as high as 30 mph. Chance of precipitation is 50%. New snow accumulation of less than half an inch possible.",
      "last_updated": "2025-11-15T06:37:22.315Z"
    },
    {
      "name": "Squaw Valley",
      "lat": 39.197,
      "lng": -120.2356,
      "snowfall_24hr": 0,
      "snowfall_48hr": 1,
      "snowfall_7day": 3.4,
      "forecast_text": "A slight chance of rain. Mostly cloudy, with a low around 32. East wind 0 to 5 mph. Chance of precipitation is 20%.",
      "last_updated": "2025-11-15T06:37:27.191Z"
    },
    {
      "name": "Telluride",
      "lat": 37.9375,
      "lng": -107.8123,
      "snowfall_24hr": 0,
      "snowfall_48hr": 1.6,
      "snowfall_7day": 3.6,
      "forecast_text": "Partly cloudy, with a low around 27. Southeast wind around 5 mph.",
      "last_updated": "2025-11-15T06:37:31.056Z"
    },
    {
      "name": "Sun Valley",
      "lat": 43.6966,
      "lng": -114.3553,
      "snowfall_24hr": 0,
      "snowfall_48hr": 0,
      "snowfall_7day": 0,
      "forecast_text": "Partly cloudy, with a low around 29. North wind around 6 mph.",
      "last_updated": "2025-11-15T06:37:50.336Z"
    },
    {
      "name": "Deer Valley",
      "lat": 40.6374,
      "lng": -111.4783,
      "snowfall_24hr": 0,
      "snowfall_48hr": 0.6,
      "snowfall_7day": 1.7,
      "forecast_text": "Partly cloudy. Low around 37, with temperatures rising to around 39 overnight. South wind around 6 mph.",
      "last_updated": "2025-11-15T06:38:01.836Z"
    },
    {
      "name": "Killington",
      "lat": 43.6046,
      "lng": -72.822,
      "snowfall_24hr": 0.2,
      "snowfall_48hr": 2,
      "snowfall_7day": 2,
      "forecast_text": "Mostly cloudy, with a low around 20. Northwest wind around 10 mph.",
      "last_updated": "2025-11-15T06:38:11.648Z"
    },
    {
      "name": "Stowe",
      "lat": 44.5303,
      "lng": -72.7817,
      "snowfall_24hr": 1,
      "snowfall_48hr": 6.5,
      "snowfall_7day": 10.9,
      "forecast_text": "Isolated snow showers before 2am. Mostly cloudy, with a low around 20. Northwest wind around 5 mph. Chance of precipitation is 20%. New snow accumulation of less than half an inch possible.",
      "last_updated": "2025-11-15T06:38:18.397Z"
    },
    {
      "name": "Alta",
      "lat": 40.5885,
      "lng": -111.6376,
      "snowfall_24hr": 0,
      "snowfall_48hr": 5.5,
      "snowfall_7day": 13.2,
      "forecast_text": "Partly cloudy, with a low around 36. Southwest wind around 8 mph.",
      "last_updated": "2025-11-15T06:38:21.284Z"
    },
    {
      "name": "Snowbird",
      "lat": 40.5803,
      "lng": -111.6573,
      "snowfall_24hr": 0,
      "snowfall_48hr": 3.1,
      "snowfall_7day": 9.7,
      "forecast_text": "Partly cloudy, with a low around 36. Southwest wind around 6 mph.",
      "last_updated": "2025-11-15T06:38:24.871Z"
    },
    {
      "name": "Taos",
      "lat": 36.5924,
      "lng": -105.4467,
      "snowfall_24hr": 0,
      "snowfall_48hr": 0.6,
      "snowfall_7day": 3.3,
      "forecast_text": "Partly cloudy, with a low around 32. West wind around 10 mph.",
      "last_updated": "2025-11-15T06:38:27.041Z"
    },
    {
      "name": "Copper Mountain",
      "lat": 39.5022,
      "lng": -106.1506,
      "snowfall_24hr": 0,
      "snowfall_48hr": 1.4,
      "snowfall_7day": 2,
      "forecast_text": "Mostly clear, with a low around 24. West southwest wind around 8 mph.",
      "last_updated": "2025-11-15T06:38:29.866Z"
    },
    {
      "name": "Winter Park",
      "lat": 39.8868,
      "lng": -105.7625,
      "snowfall_24hr": 0,
      "snowfall_48hr": 1,
      "snowfall_7day": 3.1,
      "forecast_text": "Mostly clear, with a low around 29. West northwest wind around 15 mph, with gusts as high as 24 mph.",
      "last_updated": "2025-11-15T06:38:38.898Z"
    },
    {
      "name": "Keystone",
      "lat": 39.605,
      "lng": -105.9347,
      "snowfall_24hr": 0,
      "snowfall_48hr": 1,
      "snowfall_7day": 2,
      "forecast_text": "Mostly clear, with a low around 28. West wind around 10 mph, with gusts as high as 16 mph.",
      "last_updated": "2025-11-15T06:38:46.005Z"
    },
    {
      "name": "Arapahoe Basin",
      "lat": 39.6426,
      "lng": -105.8717,
      "snowfall_24hr": 0,
      "snowfall_48hr": 2.2,
      "snowfall_7day": 4.8,
      "forecast_text": "Mostly clear, with a low around 30. West wind around 20 mph, with gusts as high as 31 mph.",
      "last_updated": "2025-11-15T06:38:51.609Z"
    },
    {
      "name": "Crested Butte",
      "lat": 38.8997,
      "lng": -106.9653,
      "snowfall_24hr": 0,
      "snowfall_48hr": 1.3,
      "snowfall_7day": 1.8,
      "forecast_text": "Partly cloudy, with a low around 30. West northwest wind around 5 mph.",
      "last_updated": "2025-11-15T06:39:01.352Z"
    },
    {
      "name": "Loveland",
      "lat": 39.6803,
      "lng": -105.8978,
      "snowfall_24hr": 0,
      "snowfall_48hr": 2.7,
      "snowfall_7day": 5,
      "forecast_text": "Mostly clear, with a low around 29. West wind 17 to 21 mph, with gusts as high as 33 mph.",
      "last_updated": "2025-11-15T06:39:03.664Z"
    },
    {
      "name": "Mt. Bachelor",
      "lat": 43.979,
      "lng": -121.688,
      "snowfall_24hr": 0,
      "snowfall_48hr": 0.4,
      "snowfall_7day": 5.7,
      "forecast_text": "A slight chance of rain and snow after 4am. Mostly cloudy. Low around 31, with temperatures rising to around 34 overnight. West wind around 12 mph. Chance of precipitation is 20%.",
      "last_updated": "2025-11-15T06:39:12.428Z"
    },
    {
      "name": "Crystal Mountain",
      "lat": 46.9358,
      "lng": -121.4742,
      "snowfall_24hr": 0,
      "snowfall_48hr": 0,
      "snowfall_7day": 7,
      "forecast_text": "Rain. Cloudy. Low around 37, with temperatures rising to around 39 overnight. Southwest wind around 16 mph, with gusts as high as 23 mph. Chance of precipitation is 90%. New rainfall amounts less than a tenth of an inch possible.",
      "last_updated": "2025-11-15T06:39:15.310Z"
    },
    {
      "name": "Stevens Pass",
      "lat": 47.7453,
      "lng": -121.0892,
      "snowfall_24hr": 0,
      "snowfall_48hr": 0,
      "snowfall_7day": 5.7,
      "forecast_text": "Rain. Cloudy. Low around 39, with temperatures rising to around 41 overnight. West southwest wind around 10 mph. Chance of precipitation is 100%. New rainfall amounts between a half and three quarters of an inch possible.",
      "last_updated": "2025-11-15T06:39:19.033Z"
    },
    {
      "name": "Mt. Baker",
      "lat": 48.8597,
      "lng": -121.6686,
      "snowfall_24hr": 0.1,
      "snowfall_48hr": 0.1,
      "snowfall_7day": 10,
      "forecast_text": "Rain. Cloudy. Low around 34, with temperatures rising to around 39 overnight. South wind around 10 mph. Chance of precipitation is 100%. New rainfall amounts between a quarter and half of an inch possible.",
      "last_updated": "2025-11-15T06:39:20.411Z"
    },
    {
      "name": "Schweitzer",
      "lat": 48.3642,
      "lng": -116.6228,
      "snowfall_24hr": 0,
      "snowfall_48hr": 0,
      "snowfall_7day": 1.3,
      "forecast_text": "Rain before 2am, then rain and snow. Cloudy, with a low around 38. Southwest wind around 15 mph, with gusts as high as 28 mph. Chance of precipitation is 100%. New rainfall amounts between a quarter and half of an inch possible.",
      "last_updated": "2025-11-15T06:39:31.364Z"
    },
    {
      "name": "Sun Peaks",
      "lat": 50.8817,
      "lng": -119.8847,
      "snowfall_24hr": 0,
      "snowfall_48hr": 0,
      "snowfall_7day": 0,
      "forecast_text": "Data unavailable",
      "last_updated": "2025-11-15T06:39:33.019Z",
      "error": "Point API failed: 404"
    },
    {
      "name": "Revelstoke",
      "lat": 50.9981,
      "lng": -118.1956,
      "snowfall_24hr": 0,
      "snowfall_48hr": 0,
      "snowfall_7day": 0,
      "forecast_text": "Data unavailable",
      "last_updated": "2025-11-15T06:39:36.309Z",
      "error": "Point API failed: 404"
    },
    {
      "name": "Fernie",
      "lat": 49.4653,
      "lng": -115.0636,
      "snowfall_24hr": 0,
      "snowfall_48hr": 0,
      "snowfall_7day": 0,
      "forecast_text": "Data unavailable",
      "last_updated": "2025-11-15T06:39:36.635Z",
      "error": "Point API failed: 404"
    },
    {
      "name": "Big White",
      "lat": 49.7311,
      "lng": -118.935,
      "snowfall_24hr": 0,
      "snowfall_48hr": 0,
      "snowfall_7day": 0,
      "forecast_text": "Data unavailable",
      "last_updated": "2025-11-15T06:39:39.157Z",
      "error": "Point API failed: 404"
    },
    {
      "name": "Kicking Horse",
      "lat": 51.2514,
      "lng": -117.0492,
      "snowfall_24hr": 0,
      "snowfall_48hr": 0,
      "snowfall_7day": 0,
      "forecast_text": "Data unavailable",
      "last_updated": "2025-11-15T06:39:39.416Z",
      "error": "Point API failed: 404"
    },
    {
      "name": "Mont Tremblant",
      "lat": 46.2094,
      "lng": -74.5847,
      "snowfall_24hr": 0,
      "snowfall_48hr": 0,
      "snowfall_7day": 0,
      "forecast_text": "Data unavailable",
      "last_updated": "2025-11-15T06:39:39.934Z",
      "error": "Point API failed: 404"
    },
    {
      "name": "Blue Mountain",
      "lat": 44.5075,
      "lng": -80.3231,
      "snowfall_24hr": 0,
      "snowfall_48hr": 0,
      "snowfall_7day": 0,
      "forecast_text": "Data unavailable",
      "last_updated": "2025-11-15T06:39:41.250Z",
      "error": "Point API failed: 404"
    },
    {
      "name": "Sugarloaf",
      "lat": 45.0314,
      "lng": -70.3139,
      "snowfall_24hr": 2.2,
      "snowfall_48hr": 3.6,
      "snowfall_7day": 4,
      "forecast_text": "Partly cloudy, with a low around 17. Northwest wind around 20 mph, with gusts as high as 35 mph.",
      "last_updated": "2025-11-15T06:39:50.049Z"
    },
    {
      "name": "Sunday River",
      "lat": 44.4697,
      "lng": -70.8561,
      "snowfall_24hr": 1.8,
      "snowfall_48hr": 2.5,
      "snowfall_7day": 2.7,
      "forecast_text": "Partly cloudy, with a low around 24. Northwest wind 5 to 10 mph.",
      "last_updated": "2025-11-15T06:39:52.019Z"
    },
    {
      "name": "Sugarbush",
      "lat": 44.135,
      "lng": -72.9017,
      "snowfall_24hr": 0.8,
      "snowfall_48hr": 3.5,
      "snowfall_7day": 4,
      "forecast_text": "Scattered snow showers before 5am. Mostly cloudy, with a low around 21. Northwest wind around 6 mph. Chance of precipitation is 30%. New snow accumulation of less than half an inch possible.",
      "last_updated": "2025-11-15T06:40:03.352Z"
    },
    {
      "name": "Stratton",
      "lat": 43.1133,
      "lng": -72.9083,
      "snowfall_24hr": 0,
      "snowfall_48hr": 1.4,
      "snowfall_7day": 1.4,
      "forecast_text": "Mostly cloudy, with a low around 22. Northwest wind around 2 mph.",
      "last_updated": "2025-11-15T06:40:13.052Z"
    },
    {
      "name": "Okemo",
      "lat": 43.4017,
      "lng": -72.7167,
      "snowfall_24hr": 0,
      "snowfall_48hr": 0.3,
      "snowfall_7day": 0.3,
      "forecast_text": "Partly cloudy, with a low around 25. Northwest wind around 5 mph.",
      "last_updated": "2025-11-15T06:40:14.207Z"
    },
    {
      "name": "Jay Peak",
      "lat": 44.9378,
      "lng": -72.5036,
      "snowfall_24hr": 0.6,
      "snowfall_48hr": 7.4,
      "snowfall_7day": 12.1,
      "forecast_text": "Mostly cloudy, with a low around 19. Northwest wind around 3 mph.",
      "last_updated": "2025-11-15T06:40:18.589Z"
    },
    {
      "name": "Smugglers' Notch",
      "lat": 44.5458,
      "lng": -72.7872,
      "snowfall_24hr": 0.9,
      "snowfall_48hr": 6.9,
      "snowfall_7day": 11.6,
      "forecast_text": "Isolated snow showers before 2am. Mostly cloudy, with a low around 20. Northwest wind around 6 mph. Chance of precipitation is 20%. New snow accumulation of less than half an inch possible.",
      "last_updated": "2025-11-15T06:40:25.028Z"
    },
    {
      "name": "Loon Mountain",
      "lat": 44.0369,
      "lng": -71.6206,
      "snowfall_24hr": 0.9,
      "snowfall_48hr": 2.6,
      "snowfall_7day": 2.8,
      "forecast_text": "Mostly cloudy, with a low around 20. Northwest wind around 10 mph, with gusts as high as 25 mph.",
      "last_updated": "2025-11-15T06:40:38.323Z"
    },
    {
      "name": "Cannon Mountain",
      "lat": 44.1572,
      "lng": -71.6978,
      "snowfall_24hr": 0.9,
      "snowfall_48hr": 3.4,
      "snowfall_7day": 4,
      "forecast_text": "Mostly cloudy, with a low around 14. Northwest wind around 20 mph, with gusts as high as 40 mph.",
      "last_updated": "2025-11-15T06:40:41.367Z"
    },
    {
      "name": "Wildcat Mountain",
      "lat": 44.2636,
      "lng": -71.2328,
      "snowfall_24hr": 1.1,
      "snowfall_48hr": 4.4,
      "snowfall_7day": 5.1,
      "forecast_text": "Partly cloudy, with a low around 19. North wind around 10 mph, with gusts as high as 25 mph.",
      "last_updated": "2025-11-15T06:40:49.864Z"
    },
    {
      "name": "Bretton Woods",
      "lat": 44.2633,
      "lng": -71.4439,
      "snowfall_24hr": 0.5,
      "snowfall_48hr": 2.3,
      "snowfall_7day": 3,
      "forecast_text": "Mostly cloudy, with a low around 19. Northwest wind around 5 mph.",
      "last_updated": "2025-11-15T06:40:56.244Z"
    },
    {
      "name": "Snowbasin",
      "lat": 41.2156,
      "lng": -111.8567,
      "snowfall_24hr": 0,
      "snowfall_48hr": 0,
      "snowfall_7day": 0.4,
      "forecast_text": "Partly cloudy. Low around 41, with temperatures rising to around 43 overnight. South southwest wind around 5 mph.",
      "last_updated": "2025-11-15T06:40:57.938Z"
    },
    {
      "name": "Powder Mountain",
      "lat": 41.3814,
      "lng": -111.7806,
      "snowfall_24hr": 0,
      "snowfall_48hr": 2.9,
      "snowfall_7day": 5.7,
      "forecast_text": "Partly cloudy. Low around 38, with temperatures rising to around 40 overnight. Southwest wind around 6 mph.",
      "last_updated": "2025-11-15T06:41:05.041Z"
    },
    {
      "name": "Solitude",
      "lat": 40.62,
      "lng": -111.5917,
      "snowfall_24hr": 0,
      "snowfall_48hr": 3.2,
      "snowfall_7day": 8.6,
      "forecast_text": "Partly cloudy. Low around 36, with temperatures rising to around 39 overnight. Southwest wind around 6 mph.",
      "last_updated": "2025-11-15T06:41:11.898Z"
    },
    {
      "name": "Brighton",
      "lat": 40.5981,
      "lng": -111.5831,
      "snowfall_24hr": 0,
      "snowfall_48hr": 3.2,
      "snowfall_7day": 9.1,
      "forecast_text": "Partly cloudy. Low around 36, with temperatures rising to around 38 overnight. Southwest wind around 6 mph.",
      "last_updated": "2025-11-15T06:41:14.364Z"
    },
    {
      "name": "Snowmass",
      "lat": 39.2133,
      "lng": -106.9378,
      "snowfall_24hr": 0,
      "snowfall_48hr": 0.5,
      "snowfall_7day": 0.9,
      "forecast_text": "Partly cloudy, with a low around 35. South southwest wind around 5 mph.",
      "last_updated": "2025-11-15T06:41:16.513Z"
    },
    {
      "name": "Aspen Highlands",
      "lat": 39.1825,
      "lng": -106.8553,
      "snowfall_24hr": 0,
      "snowfall_48hr": 0.3,
      "snowfall_7day": 0.5,
      "forecast_text": "Partly cloudy, with a low around 34. South wind around 5 mph.",
      "last_updated": "2025-11-15T06:41:22.010Z"
    },
    {
      "name": "Buttermilk",
      "lat": 39.2078,
      "lng": -106.8608,
      "snowfall_24hr": 0,
      "snowfall_48hr": 0.1,
      "snowfall_7day": 0.2,
      "forecast_text": "Partly cloudy, with a low around 34. South southeast wind around 5 mph.",
      "last_updated": "2025-11-15T06:41:23.529Z"
    },
    {
      "name": "Beaver Creek",
      "lat": 39.6042,
      "lng": -106.5164,
      "snowfall_24hr": 0,
      "snowfall_48hr": 0.4,
      "snowfall_7day": 0.9,
      "forecast_text": "Mostly clear, with a low around 32. Southwest wind around 5 mph.",
      "last_updated": "2025-11-15T06:41:36.305Z"
    },
    {
      "name": "Purgatory",
      "lat": 37.6303,
      "lng": -107.8139,
      "snowfall_24hr": 0,
      "snowfall_48hr": 1.8,
      "snowfall_7day": 6,
      "forecast_text": "Partly cloudy, with a low around 31. North wind around 5 mph.",
      "last_updated": "2025-11-15T06:41:40.909Z"
    },
    {
      "name": "Wolf Creek",
      "lat": 37.4722,
      "lng": -106.7931,
      "snowfall_24hr": 0,
      "snowfall_48hr": 6.4,
      "snowfall_7day": 13.9,
      "forecast_text": "Partly cloudy, with a low around 32. Southwest wind around 10 mph.",
      "last_updated": "2025-11-15T06:41:47.699Z"
    },
    {
      "name": "Monarch Mountain",
      "lat": 38.5117,
      "lng": -106.3317,
      "snowfall_24hr": 0,
      "snowfall_48hr": 1.4,
      "snowfall_7day": 2.3,
      "forecast_text": "Partly cloudy, with a low around 31. West wind around 15 mph.",
      "last_updated": "2025-11-15T06:41:50.362Z"
    },
    {
      "name": "Eldora",
      "lat": 39.9372,
      "lng": -105.5828,
      "snowfall_24hr": 0,
      "snowfall_48hr": 1.1,
      "snowfall_7day": 2.6,
      "forecast_text": "Partly cloudy, with a low around 34. West wind around 17 mph, with gusts as high as 28 mph.",
      "last_updated": "2025-11-15T06:42:14.818Z"
    },
    {
      "name": "Grand Targhee",
      "lat": 43.7886,
      "lng": -110.9586,
      "snowfall_24hr": 0,
      "snowfall_48hr": 1.6,
      "snowfall_7day": 5.7,
      "forecast_text": "A slight chance of rain and snow showers. Mostly cloudy, with a low around 30. West southwest wind 10 to 16 mph, with gusts as high as 24 mph. Chance of precipitation is 20%.",
      "last_updated": "2025-11-15T06:42:17.458Z"
    },
    {
      "name": "Snow King",
      "lat": 43.4783,
      "lng": -110.7628,
      "snowfall_24hr": 0,
      "snowfall_48hr": 0,
      "snowfall_7day": 0.1,
      "forecast_text": "A slight chance of rain showers before 5am. Mostly cloudy. Low around 35, with temperatures rising to around 38 overnight. South wind 7 to 10 mph. Chance of precipitation is 20%.",
      "last_updated": "2025-11-15T06:42:20.584Z"
    },
    {
      "name": "Bridger Bowl",
      "lat": 45.8167,
      "lng": -110.8969,
      "snowfall_24hr": 0,
      "snowfall_48hr": 0,
      "snowfall_7day": 0.7,
      "forecast_text": "Partly cloudy, with a low around 37. West southwest wind 8 to 12 mph, with gusts as high as 28 mph.",
      "last_updated": "2025-11-15T06:42:28.988Z"
    },
    {
      "name": "Big Mountain",
      "lat": 48.4928,
      "lng": -114.3483,
      "snowfall_24hr": 0,
      "snowfall_48hr": 0,
      "snowfall_7day": 2.5,
      "forecast_text": "Rain and snow. Cloudy, with a low around 33. Southwest wind 15 to 20 mph, with gusts as high as 24 mph. Chance of precipitation is 90%. New rainfall amounts between a tenth and quarter of an inch possible.",
      "last_updated": "2025-11-15T06:42:35.903Z"
    },
    {
      "name": "Snowbowl",
      "lat": 46.9417,
      "lng": -113.9492,
      "snowfall_24hr": 0,
      "snowfall_48hr": 0,
      "snowfall_7day": 0,
      "forecast_text": "A chance of rain. Cloudy, with a low around 40. West wind around 13 mph. Chance of precipitation is 50%.",
      "last_updated": "2025-11-15T06:42:42.896Z"
    },
    {
      "name": "Bogus Basin",
      "lat": 43.7725,
      "lng": -116.0939,
      "snowfall_24hr": 0,
      "snowfall_48hr": 0,
      "snowfall_7day": 0.7,
      "forecast_text": "Partly cloudy, with a low around 38. Southwest wind around 7 mph.",
      "last_updated": "2025-11-15T06:42:48.102Z"
    },
    {
      "name": "Tamarack",
      "lat": 44.6922,
      "lng": -116.1344,
      "snowfall_24hr": 0,
      "snowfall_48hr": 0,
      "snowfall_7day": 0.6,
      "forecast_text": "Partly cloudy, with a low around 33. Southwest wind around 6 mph.",
      "last_updated": "2025-11-15T06:42:59.898Z"
    },
    {
      "name": "Silver Mountain",
      "lat": 47.6764,
      "lng": -116.0703,
      "snowfall_24hr": 0,
      "snowfall_48hr": 0,
      "snowfall_7day": 0,
      "forecast_text": "Rain before 1am, then rain and patchy fog. Cloudy, with a low around 43. Southwest wind around 9 mph, with gusts as high as 24 mph. Chance of precipitation is 100%. New rainfall amounts between a tenth and quarter of an inch possible.",
      "last_updated": "2025-11-15T06:43:08.081Z"
    },
    {
      "name": "Mt. Hood Meadows",
      "lat": 45.3319,
      "lng": -121.6653,
      "snowfall_24hr": 0,
      "snowfall_48hr": 0,
      "snowfall_7day": 4.5,
      "forecast_text": "Rain showers likely. Mostly cloudy, with a low around 38. West southwest wind around 7 mph, with gusts as high as 22 mph. Chance of precipitation is 60%. New rainfall amounts less than a tenth of an inch possible.",
      "last_updated": "2025-11-15T06:43:09.768Z"
    },
    {
      "name": "Timberline",
      "lat": 45.3306,
      "lng": -121.7108,
      "snowfall_24hr": 0,
      "snowfall_48hr": 0,
      "snowfall_7day": 8.2,
      "forecast_text": "Rain showers likely. Mostly cloudy, with a low around 36. West wind around 12 mph, with gusts as high as 24 mph. Chance of precipitation is 60%. New rainfall amounts less than a tenth of an inch possible.",
      "last_updated": "2025-11-15T06:43:12.216Z"
    },
    {
      "name": "Willamette Pass",
      "lat": 43.6006,
      "lng": -122.0336,
      "snowfall_24hr": 0,
      "snowfall_48hr": 0,
      "snowfall_7day": 2.5,
      "forecast_text": "Mostly cloudy. Low around 34, with temperatures rising to around 36 overnight. West northwest wind around 5 mph.",
      "last_updated": "2025-11-15T06:43:17.420Z"
    },
    {
      "name": "Mission Ridge",
      "lat": 47.2917,
      "lng": -120.3997,
      "snowfall_24hr": 0,
      "snowfall_48hr": 0,
      "snowfall_7day": 2,
      "forecast_text": "Rain likely. Mostly cloudy. Low around 38, with temperatures rising to around 41 overnight. Southwest wind around 10 mph. Chance of precipitation is 60%. New rainfall amounts less than a tenth of an inch possible.",
      "last_updated": "2025-11-15T06:43:20.368Z"
    },
    {
      "name": "Snoqualmie",
      "lat": 47.4219,
      "lng": -121.4136,
      "snowfall_24hr": 0,
      "snowfall_48hr": 0,
      "snowfall_7day": 0.8,
      "forecast_text": "Rain. Cloudy. Low around 41, with temperatures rising to around 43 overnight. West wind around 3 mph. Chance of precipitation is 100%. New rainfall amounts between three quarters and one inch possible.",
      "last_updated": "2025-11-15T06:43:23.983Z"
    },
    {
      "name": "Mt. Spokane",
      "lat": 47.9208,
      "lng": -117.0856,
      "snowfall_24hr": 0,
      "snowfall_48hr": 0,
      "snowfall_7day": 0.5,
      "forecast_text": "Rain. Cloudy, with a low around 40. Southwest wind around 14 mph, with gusts as high as 28 mph. Chance of precipitation is 90%. New rainfall amounts between a tenth and quarter of an inch possible.",
      "last_updated": "2025-11-15T06:43:36.986Z"
    },
    {
      "name": "White Pass",
      "lat": 46.6394,
      "lng": -121.3908,
      "snowfall_24hr": 0,
      "snowfall_48hr": 0,
      "snowfall_7day": 3.7,
      "forecast_text": "Rain. Cloudy. Low around 38, with temperatures rising to around 40 overnight. West wind around 9 mph, with gusts as high as 23 mph. Chance of precipitation is 90%. New rainfall amounts between a quarter and half of an inch possible.",
      "last_updated": "2025-11-15T06:43:39.076Z"
    },
    {
      "name": "49 Degrees North",
      "lat": 48.7511,
      "lng": -117.6369,
      "snowfall_24hr": 0,
      "snowfall_48hr": 0,
      "snowfall_7day": 0.1,
      "forecast_text": "Rain and patchy fog. Cloudy, with a low around 41. South wind around 3 mph. Chance of precipitation is 80%. New rainfall amounts less than a tenth of an inch possible.",
      "last_updated": "2025-11-15T06:43:41.737Z"
    },
    {
      "name": "Red Mountain",
      "lat": 49.0917,
      "lng": -117.8233,
      "snowfall_24hr": 0,
      "snowfall_48hr": 0,
      "snowfall_7day": 0,
      "forecast_text": "Data unavailable",
      "last_updated": "2025-11-15T06:43:51.925Z",
      "error": "Point API failed: 404"
    },
    {
      "name": "Whitewater",
      "lat": 49.5394,
      "lng": -117.2717,
      "snowfall_24hr": 0,
      "snowfall_48hr": 0,
      "snowfall_7day": 0,
      "forecast_text": "Data unavailable",
      "last_updated": "2025-11-15T06:43:52.412Z",
      "error": "Point API failed: 404"
    },
    {
      "name": "Panorama",
      "lat": 50.8036,
      "lng": -116.0533,
      "snowfall_24hr": 0,
      "snowfall_48hr": 0,
      "snowfall_7day": 0,
      "forecast_text": "Data unavailable",
      "last_updated": "2025-11-15T06:43:53.428Z",
      "error": "Point API failed: 404"
    },
    {
      "name": "Marmot Basin",
      "lat": 52.8236,
      "lng": -118.0747,
      "snowfall_24hr": 0,
      "snowfall_48hr": 0,
      "snowfall_7day": 0,
      "forecast_text": "Data unavailable",
      "last_updated": "2025-11-15T06:43:56.745Z",
      "error": "Point API failed: 404"
    },
    {
      "name": "Nakiska",
      "lat": 50.98,
      "lng": -115.0733,
      "snowfall_24hr": 0,
      "snowfall_48hr": 0,
      "snowfall_7day": 0,
      "forecast_text": "Data unavailable",
      "last_updated": "2025-11-15T06:43:57.218Z",
      "error": "Point API failed: 404"
    },
    {
      "name": "Castle Mountain",
      "lat": 49.4058,
      "lng": -114.5169,
      "snowfall_24hr": 0,
      "snowfall_48hr": 0,
      "snowfall_7day": 0,
      "forecast_text": "Data unavailable",
      "last_updated": "2025-11-15T06:44:00.206Z",
      "error": "Point API failed: 404"
    },
    {
      "name": "Norquay",
      "lat": 51.1967,
      "lng": -115.5531,
      "snowfall_24hr": 0,
      "snowfall_48hr": 0,
      "snowfall_7day": 0,
      "forecast_text": "Data unavailable",
      "last_updated": "2025-11-15T06:44:00.517Z",
      "error": "Point API failed: 404"
    },
    {
      "name": "Le Massif",
      "lat": 47.3136,
      "lng": -70.6358,
      "snowfall_24hr": 0,
      "snowfall_48hr": 0,
      "snowfall_7day": 0,
      "forecast_text": "Data unavailable",
      "last_updated": "2025-11-15T06:44:00.774Z",
      "error": "Point API failed: 404"
    },
    {
      "name": "Calabogie",
      "lat": 45.2906,
      "lng": -76.7019,
      "snowfall_24hr": 0,
      "snowfall_48hr": 0,
      "snowfall_7day": 0,
      "forecast_text": "Data unavailable",
      "last_updated": "2025-11-15T06:44:04.587Z",
      "error": "Point API failed: 404"
    },
    {
      "name": "Sierra-at-Tahoe",
      "lat": 38.7986,
      "lng": -120.0828,
      "snowfall_24hr": 0,
      "snowfall_48hr": 4.6,
      "snowfall_7day": 10.9,
      "forecast_text": "A slight chance of rain showers between midnight and 4am. Mostly cloudy, with a low around 38. Northeast wind 0 to 5 mph. Chance of precipitation is 20%.",
      "last_updated": "2025-11-15T06:44:13.777Z"
    },
    {
      "name": "Kirkwood",
      "lat": 38.6867,
      "lng": -120.0656,
      "snowfall_24hr": 0.8,
      "snowfall_48hr": 10.6,
      "snowfall_7day": 21.6,
      "forecast_text": "A chance of rain showers between midnight and 4am. Mostly cloudy, with a low around 33. Southeast wind 6 to 13 mph, with gusts as high as 23 mph. Chance of precipitation is 30%.",
      "last_updated": "2025-11-15T06:44:26.409Z"
    },
    {
      "name": "Northstar",
      "lat": 39.2733,
      "lng": -120.1211,
      "snowfall_24hr": 0,
      "snowfall_48hr": 0.2,
      "snowfall_7day": 1.7,
      "forecast_text": "A slight chance of rain. Mostly cloudy, with a low around 38. East wind 0 to 5 mph. Chance of precipitation is 20%.",
      "last_updated": "2025-11-15T06:44:30.963Z"
    },
    {
      "name": "Homewood",
      "lat": 39.0833,
      "lng": -120.1667,
      "snowfall_24hr": 0,
      "snowfall_48hr": 0.8,
      "snowfall_7day": 2.7,
      "forecast_text": "A slight chance of rain. Mostly cloudy, with a low around 39. East wind 0 to 5 mph. Chance of precipitation is 20%.",
      "last_updated": "2025-11-15T06:44:34.715Z"
    },
    {
      "name": "Mt. Rose",
      "lat": 39.3397,
      "lng": -119.8894,
      "snowfall_24hr": 0.1,
      "snowfall_48hr": 4,
      "snowfall_7day": 8.2,
      "forecast_text": "A slight chance of rain after 4am. Mostly cloudy, with a low around 35. Southeast wind around 5 mph. Chance of precipitation is 20%.",
      "last_updated": "2025-11-15T06:44:39.621Z"
    },
    {
      "name": "Diamond Peak",
      "lat": 39.2525,
      "lng": -119.9169,
      "snowfall_24hr": 0,
      "snowfall_48hr": 1.2,
      "snowfall_7day": 3.2,
      "forecast_text": "A slight chance of rain after 1am. Mostly cloudy, with a low around 38. Northeast wind 0 to 5 mph. Chance of precipitation is 20%.",
      "last_updated": "2025-11-15T06:44:45.957Z"
    },
    {
      "name": "June Mountain",
      "lat": 37.7853,
      "lng": -119.0781,
      "snowfall_24hr": 0.5,
      "snowfall_48hr": 2.3,
      "snowfall_7day": 5.9,
      "forecast_text": "A chance of rain before 4am, then a chance of rain and snow. Cloudy, with a low around 37. East wind 0 to 5 mph. Chance of precipitation is 40%.",
      "last_updated": "2025-11-15T06:44:48.799Z"
    },
    {
      "name": "Bear Mountain",
      "lat": 34.235,
      "lng": -116.865,
      "snowfall_24hr": 0.4,
      "snowfall_48hr": 0.6,
      "snowfall_7day": 3.9,
      "forecast_text": "Rain showers before 4am, then showers and thunderstorms. Cloudy, with a low around 35. South wind 0 to 10 mph. Chance of precipitation is 90%. New rainfall amounts between a half and three quarters of an inch possible.",
      "last_updated": "2025-11-15T06:45:05.788Z"
    },
    {
      "name": "Snow Summit",
      "lat": 34.2306,
      "lng": -116.8886,
      "snowfall_24hr": 0.5,
      "snowfall_48hr": 0.7,
      "snowfall_7day": 4.6,
      "forecast_text": "Rain showers before 4am, then showers and thunderstorms. Cloudy, with a low around 37. South wind 0 to 10 mph. Chance of precipitation is 90%. New rainfall amounts between a half and three quarters of an inch possible.",
      "last_updated": "2025-11-15T06:45:20.706Z"
    },
    {
      "name": "Mountain High",
      "lat": 34.3811,
      "lng": -117.6881,
      "snowfall_24hr": 0.2,
      "snowfall_48hr": 0.2,
      "snowfall_7day": 1.1,
      "forecast_text": "Showers and thunderstorms. Cloudy, with a low around 45. South southeast wind around 5 mph. Chance of precipitation is 100%. New rainfall amounts between three quarters and one inch possible.",
      "last_updated": "2025-11-15T06:45:31.707Z"
    },
    {
      "name": "Ski Santa Fe",
      "lat": 35.7869,
      "lng": -105.7961,
      "snowfall_24hr": 0,
      "snowfall_48hr": 0,
      "snowfall_7day": 3.1,
      "forecast_text": "Mostly clear, with a low around 34. Northwest wind 10 to 15 mph.",
      "last_updated": "2025-11-15T06:45:43.226Z"
    },
    {
      "name": "Angel Fire",
      "lat": 36.3975,
      "lng": -105.2886,
      "snowfall_24hr": 0,
      "snowfall_48hr": 0,
      "snowfall_7day": 0.3,
      "forecast_text": "Partly cloudy, with a low around 34. Southwest wind 5 to 15 mph.",
      "last_updated": "2025-11-15T06:45:46.871Z"
    },
    {
      "name": "Whiteface Mountain",
      "lat": 44.3659,
      "lng": -73.9024,
      "snowfall_24hr": 0.8,
      "snowfall_48hr": 3.8,
      "snowfall_7day": 4.2,
      "forecast_text": "Isolated snow showers before 2am. Mostly cloudy, with a low around 17. Northwest wind around 7 mph. Chance of precipitation is 20%. New rainfall amounts less than a tenth of an inch possible.",
      "last_updated": "2025-11-15T06:45:59.740Z"
    }
  ]
}