{
  "generated_at": "2025-11-13T01:46:36.132Z",
  "total_resorts": 100,
  "resorts": [
    {
      "name": "Whistler Blackcomb",
      "lat": 50.1163,
      "lng": -122.9574,
      "snowfall_7day": 0,
      "forecast_text": "Data unavailable",
      "last_updated": "2025-11-13T01:40:20.164Z",
      "error": "Point API failed: 404"
    },
    {
      "name": "Vail",
      "lat": 39.6403,
      "lng": -106.3742,
      "snowfall_7day": 0,
      "forecast_text": "Partly cloudy, with a low around 28. South southeast wind around 5 mph.",
      "last_updated": "2025-11-13T01:40:22.087Z"
    },
    {
      "name": "Park City",
      "lat": 40.6514,
      "lng": -111.5079,
      "snowfall_7day": 3,
      "forecast_text": "Mostly cloudy. Low around 39, with temperatures rising to around 41 overnight. South wind around 8 mph.",
      "last_updated": "2025-11-13T01:40:32.766Z"
    },
    {
      "name": "Breckenridge",
      "lat": 39.4817,
      "lng": -106.0384,
      "snowfall_7day": 0,
      "forecast_text": "Partly cloudy, with a low around 29. West northwest wind around 6 mph.",
      "last_updated": "2025-11-13T01:40:33.957Z"
    },
    {
      "name": "Heavenly",
      "lat": 38.935,
      "lng": -119.9403,
      "snowfall_7day": 1.5,
      "forecast_text": "Mostly sunny, with a high near 56. Southwest wind around 5 mph.",
      "last_updated": "2025-11-13T01:40:40.233Z"
    },
    {
      "name": "Aspen Snowmass",
      "lat": 39.1911,
      "lng": -106.8175,
      "snowfall_7day": 0,
      "forecast_text": "Partly cloudy, with a low around 32. South wind 0 to 5 mph.",
      "last_updated": "2025-11-13T01:40:47.674Z"
    },
    {
      "name": "Jackson Hole",
      "lat": 43.5875,
      "lng": -110.8278,
      "snowfall_7day": 0,
      "forecast_text": "Mostly cloudy, with a low around 32. Southwest wind around 9 mph.",
      "last_updated": "2025-11-13T01:40:50.848Z"
    },
    {
      "name": "Banff Sunshine",
      "lat": 51.1158,
      "lng": -115.7631,
      "snowfall_7day": 0,
      "forecast_text": "Data unavailable",
      "last_updated": "2025-11-13T01:40:51.206Z",
      "error": "Point API failed: 404"
    },
    {
      "name": "Lake Louise",
      "lat": 51.4254,
      "lng": -116.1773,
      "snowfall_7day": 0,
      "forecast_text": "Data unavailable",
      "last_updated": "2025-11-13T01:40:57.800Z",
      "error": "Point API failed: 404"
    },
    {
      "name": "Big Sky",
      "lat": 45.2846,
      "lng": -111.4008,
      "snowfall_7day": 7,
      "forecast_text": "Mostly cloudy, with a low around 34. Southwest wind around 8 mph, with gusts as high as 20 mph.",
      "last_updated": "2025-11-13T01:41:00.760Z"
    },
    {
      "name": "Steamboat",
      "lat": 40.458,
      "lng": -106.8047,
      "snowfall_7day": 0,
      "forecast_text": "Partly cloudy, with a low around 29. Southeast wind around 0 mph.",
      "last_updated": "2025-11-13T01:41:06.868Z"
    },
    {
      "name": "Mammoth Mountain",
      "lat": 37.6308,
      "lng": -119.0326,
      "snowfall_7day": 27.5,
      "forecast_text": "Sunny. High near 41, with temperatures falling to around 36 in the afternoon. Wind chill values as low as 25. Southwest wind around 20 mph, with gusts as high as 40 mph.",
      "last_updated": "2025-11-13T01:41:13.208Z"
    },
    {
      "name": "Squaw Valley",
      "lat": 39.197,
      "lng": -120.2356,
      "snowfall_7day": 4,
      "forecast_text": "Sunny, with a high near 58. Southwest wind around 10 mph.",
      "last_updated": "2025-11-13T01:41:17.688Z"
    },
    {
      "name": "Telluride",
      "lat": 37.9375,
      "lng": -107.8123,
      "snowfall_7day": 8,
      "forecast_text": "Mostly cloudy, with a low around 24. Southeast wind 0 to 5 mph.",
      "last_updated": "2025-11-13T01:41:20.371Z"
    },
    {
      "name": "Sun Valley",
      "lat": 43.6966,
      "lng": -114.3553,
      "snowfall_7day": 0,
      "forecast_text": "Mostly cloudy, with a low around 34. North northeast wind 2 to 6 mph.",
      "last_updated": "2025-11-13T01:41:22.409Z"
    },
    {
      "name": "Deer Valley",
      "lat": 40.6374,
      "lng": -111.4783,
      "snowfall_7day": 3.5,
      "forecast_text": "Mostly cloudy. Low around 37, with temperatures rising to around 39 overnight. South wind 6 to 9 mph.",
      "last_updated": "2025-11-13T01:41:24.054Z"
    },
    {
      "name": "Killington",
      "lat": 43.6046,
      "lng": -72.822,
      "snowfall_7day": 8,
      "forecast_text": "Snow showers likely. Cloudy, with a low around 27. West wind around 17 mph, with gusts as high as 28 mph. Chance of precipitation is 60%. New snow accumulation of 1 to 3 inches possible.",
      "last_updated": "2025-11-13T01:41:27.103Z"
    },
    {
      "name": "Stowe",
      "lat": 44.5303,
      "lng": -72.7817,
      "snowfall_7day": 23,
      "forecast_text": "Snow showers. Cloudy, with a low around 28. West wind around 8 mph. Chance of precipitation is 100%. New snow accumulation of 3 to 5 inches possible.",
      "last_updated": "2025-11-13T01:41:27.965Z"
    },
    {
      "name": "Alta",
      "lat": 40.5885,
      "lng": -111.6376,
      "snowfall_7day": 31,
      "forecast_text": "Partly cloudy. Low around 36, with temperatures rising to around 38 overnight. South southwest wind 7 to 12 mph.",
      "last_updated": "2025-11-13T01:41:31.503Z"
    },
    {
      "name": "Snowbird",
      "lat": 40.5803,
      "lng": -111.6573,
      "snowfall_7day": 26,
      "forecast_text": "Partly cloudy, with a low around 37. South southwest wind 6 to 10 mph.",
      "last_updated": "2025-11-13T01:41:33.076Z"
    },
    {
      "name": "Taos",
      "lat": 36.5924,
      "lng": -105.4467,
      "snowfall_7day": 3.5,
      "forecast_text": "Mostly cloudy, with a low around 32. West wind 5 to 10 mph.",
      "last_updated": "2025-11-13T01:41:40.086Z"
    },
    {
      "name": "Copper Mountain",
      "lat": 39.5022,
      "lng": -106.1506,
      "snowfall_7day": 2,
      "forecast_text": "Partly cloudy, with a low around 25. Southwest wind around 7 mph.",
      "last_updated": "2025-11-13T01:41:40.907Z"
    },
    {
      "name": "Winter Park",
      "lat": 39.8868,
      "lng": -105.7625,
      "snowfall_7day": 3,
      "forecast_text": "Partly cloudy, with a low around 31. West northwest wind around 7 mph.",
      "last_updated": "2025-11-13T01:41:43.251Z"
    },
    {
      "name": "Keystone",
      "lat": 39.605,
      "lng": -105.9347,
      "snowfall_7day": 1.5,
      "forecast_text": "Partly cloudy, with a low around 28. West southwest wind around 6 mph.",
      "last_updated": "2025-11-13T01:41:44.418Z"
    },
    {
      "name": "Arapahoe Basin",
      "lat": 39.6426,
      "lng": -105.8717,
      "snowfall_7day": 8.5,
      "forecast_text": "Partly cloudy. Low around 29, with temperatures rising to around 32 overnight. West wind 7 to 12 mph, with gusts as high as 18 mph.",
      "last_updated": "2025-11-13T01:41:47.605Z"
    },
    {
      "name": "Crested Butte",
      "lat": 38.8997,
      "lng": -106.9653,
      "snowfall_7day": 2,
      "forecast_text": "Partly cloudy, with a low around 26. Northwest wind 0 to 5 mph.",
      "last_updated": "2025-11-13T01:41:51.252Z"
    },
    {
      "name": "Loveland",
      "lat": 39.6803,
      "lng": -105.8978,
      "snowfall_7day": 10.5,
      "forecast_text": "Partly cloudy. Low around 27, with temperatures rising to around 29 overnight. West wind 7 to 12 mph, with gusts as high as 18 mph.",
      "last_updated": "2025-11-13T01:42:00.968Z"
    },
    {
      "name": "Mt. Bachelor",
      "lat": 43.979,
      "lng": -121.688,
      "snowfall_7day": 7,
      "forecast_text": "Partly sunny. High near 47, with temperatures falling to around 43 in the afternoon. South wind around 9 mph.",
      "last_updated": "2025-11-13T01:42:02.155Z"
    },
    {
      "name": "Crystal Mountain",
      "lat": 46.9358,
      "lng": -121.4742,
      "snowfall_7day": 0,
      "forecast_text": "A chance of rain. Mostly cloudy. High near 49, with temperatures falling to around 42 in the afternoon. South wind around 5 mph. Chance of precipitation is 40%. New rainfall amounts less than a tenth of an inch possible.",
      "last_updated": "2025-11-13T01:42:03.424Z"
    },
    {
      "name": "Stevens Pass",
      "lat": 47.7453,
      "lng": -121.0892,
      "snowfall_7day": 0,
      "forecast_text": "A slight chance of rain. Mostly cloudy. High near 43, with temperatures falling to around 41 in the afternoon. East southeast wind around 3 mph. Chance of precipitation is 20%. New rainfall amounts less than a tenth of an inch possible.",
      "last_updated": "2025-11-13T01:42:04.589Z"
    },
    {
      "name": "Mt. Baker",
      "lat": 48.8597,
      "lng": -121.6686,
      "snowfall_7day": 7.5,
      "forecast_text": "Rain likely. Cloudy. High near 43, with temperatures falling to around 41 in the afternoon. South wind around 8 mph. Chance of precipitation is 60%. New rainfall amounts between a quarter and half of an inch possible.",
      "last_updated": "2025-11-13T01:42:16.704Z"
    },
    {
      "name": "Schweitzer",
      "lat": 48.3642,
      "lng": -116.6228,
      "snowfall_7day": 0,
      "forecast_text": "Partly sunny. High near 43, with temperatures falling to around 40 in the afternoon. Southwest wind around 5 mph.",
      "last_updated": "2025-11-13T01:42:19.605Z"
    },
    {
      "name": "Sun Peaks",
      "lat": 50.8817,
      "lng": -119.8847,
      "snowfall_7day": 0,
      "forecast_text": "Data unavailable",
      "last_updated": "2025-11-13T01:42:20.004Z",
      "error": "Point API failed: 404"
    },
    {
      "name": "Revelstoke",
      "lat": 50.9981,
      "lng": -118.1956,
      "snowfall_7day": 0,
      "forecast_text": "Data unavailable",
      "last_updated": "2025-11-13T01:42:20.634Z",
      "error": "Point API failed: 404"
    },
    {
      "name": "Fernie",
      "lat": 49.4653,
      "lng": -115.0636,
      "snowfall_7day": 0,
      "forecast_text": "Data unavailable",
      "last_updated": "2025-11-13T01:42:28.094Z",
      "error": "Point API failed: 404"
    },
    {
      "name": "Big White",
      "lat": 49.7311,
      "lng": -118.935,
      "snowfall_7day": 0,
      "forecast_text": "Data unavailable",
      "last_updated": "2025-11-13T01:42:28.386Z",
      "error": "Point API failed: 404"
    },
    {
      "name": "Kicking Horse",
      "lat": 51.2514,
      "lng": -117.0492,
      "snowfall_7day": 0,
      "forecast_text": "Data unavailable",
      "last_updated": "2025-11-13T01:42:28.666Z",
      "error": "Point API failed: 404"
    },
    {
      "name": "Mont Tremblant",
      "lat": 46.2094,
      "lng": -74.5847,
      "snowfall_7day": 0,
      "forecast_text": "Data unavailable",
      "last_updated": "2025-11-13T01:42:28.992Z",
      "error": "Point API failed: 404"
    },
    {
      "name": "Blue Mountain",
      "lat": 44.5075,
      "lng": -80.3231,
      "snowfall_7day": 0,
      "forecast_text": "Data unavailable",
      "last_updated": "2025-11-13T01:42:29.337Z",
      "error": "Point API failed: 404"
    },
    {
      "name": "Sugarloaf",
      "lat": 45.0314,
      "lng": -70.3139,
      "snowfall_7day": 3.5,
      "forecast_text": "Snow showers likely after 11pm. Mostly cloudy, with a low around 27. Northwest wind 5 to 10 mph. Chance of precipitation is 70%. New snow accumulation of less than one inch possible.",
      "last_updated": "2025-11-13T01:42:44.270Z"
    },
    {
      "name": "Sunday River",
      "lat": 44.4697,
      "lng": -70.8561,
      "snowfall_7day": 0,
      "forecast_text": "A slight chance of snow showers between 9pm and 10pm, then a chance of rain and snow showers. Mostly cloudy, with a low around 31. Northwest wind around 0 mph. Chance of precipitation is 50%. New snow accumulation of less than half an inch possible.",
      "last_updated": "2025-11-13T01:42:45.883Z"
    },
    {
      "name": "Sugarbush",
      "lat": 44.135,
      "lng": -72.9017,
      "snowfall_7day": 10,
      "forecast_text": "Snow showers likely. Cloudy, with a low around 27. West wind 6 to 10 mph. Chance of precipitation is 70%. New snow accumulation of 1 to 3 inches possible.",
      "last_updated": "2025-11-13T01:42:57.089Z"
    },
    {
      "name": "Stratton",
      "lat": 43.1133,
      "lng": -72.9083,
      "snowfall_7day": 0,
      "forecast_text": "A chance of rain and snow showers before 1am. Mostly cloudy, with a low around 31. West wind around 8 mph. Chance of precipitation is 40%. New snow accumulation of less than half an inch possible.",
      "last_updated": "2025-11-13T01:42:59.857Z"
    },
    {
      "name": "Okemo",
      "lat": 43.4017,
      "lng": -72.7167,
      "snowfall_7day": 0,
      "forecast_text": "A chance of rain and snow showers before 3am. Mostly cloudy, with a low around 30. West wind around 8 mph. Chance of precipitation is 40%. New rainfall amounts less than a tenth of an inch possible.",
      "last_updated": "2025-11-13T01:43:01.556Z"
    },
    {
      "name": "Jay Peak",
      "lat": 44.9378,
      "lng": -72.5036,
      "snowfall_7day": 22,
      "forecast_text": "Snow showers. Cloudy, with a low around 27. Southwest wind around 6 mph. Chance of precipitation is 100%. New snow accumulation of 4 to 8 inches possible.",
      "last_updated": "2025-11-13T01:43:03.251Z"
    },
    {
      "name": "Smugglers' Notch",
      "lat": 44.5458,
      "lng": -72.7872,
      "snowfall_7day": 24,
      "forecast_text": "Snow showers. Cloudy, with a low around 27. West wind around 9 mph, with gusts as high as 21 mph. Chance of precipitation is 100%. New snow accumulation of 3 to 5 inches possible.",
      "last_updated": "2025-11-13T01:43:10.611Z"
    },
    {
      "name": "Loon Mountain",
      "lat": 44.0369,
      "lng": -71.6206,
      "snowfall_7day": 3,
      "forecast_text": "Snow showers. Cloudy, with a low around 28. West wind around 5 mph. Chance of precipitation is 80%. New snow accumulation of around one inch possible.",
      "last_updated": "2025-11-13T01:43:16.854Z"
    },
    {
      "name": "Cannon Mountain",
      "lat": 44.1572,
      "lng": -71.6978,
      "snowfall_7day": 14,
      "forecast_text": "Snow showers. Cloudy, with a low around 24. West wind 15 to 20 mph, with gusts as high as 35 mph. Chance of precipitation is 80%. New snow accumulation of 2 to 4 inches possible.",
      "last_updated": "2025-11-13T01:43:25.009Z"
    },
    {
      "name": "Wildcat Mountain",
      "lat": 44.2636,
      "lng": -71.2328,
      "snowfall_7day": 5.5,
      "forecast_text": "Snow showers likely before 1am, then a chance of rain and snow showers. Mostly cloudy, with a low around 28. West wind 0 to 5 mph. Chance of precipitation is 70%. New snow accumulation of 1 to 3 inches possible.",
      "last_updated": "2025-11-13T01:43:29.148Z"
    },
    {
      "name": "Bretton Woods",
      "lat": 44.2633,
      "lng": -71.4439,
      "snowfall_7day": 8,
      "forecast_text": "Snow showers. Cloudy. Low around 26, with temperatures rising to around 32 overnight. North wind 0 to 5 mph. Chance of precipitation is 80%. New snow accumulation of 1 to 3 inches possible.",
      "last_updated": "2025-11-13T01:43:30.668Z"
    },
    {
      "name": "Snowbasin",
      "lat": 41.2156,
      "lng": -111.8567,
      "snowfall_7day": 3.5,
      "forecast_text": "Mostly cloudy. Low around 40, with temperatures rising to around 42 overnight. South southwest wind 2 to 6 mph.",
      "last_updated": "2025-11-13T01:43:32.113Z"
    },
    {
      "name": "Powder Mountain",
      "lat": 41.3814,
      "lng": -111.7806,
      "snowfall_7day": 16.5,
      "forecast_text": "Mostly cloudy. Low around 37, with temperatures rising to around 39 overnight. South southwest wind 5 to 9 mph.",
      "last_updated": "2025-11-13T01:43:32.792Z"
    },
    {
      "name": "Solitude",
      "lat": 40.62,
      "lng": -111.5917,
      "snowfall_7day": 17.5,
      "forecast_text": "Mostly cloudy. Low around 37, with temperatures rising to around 40 overnight. South southwest wind 6 to 10 mph.",
      "last_updated": "2025-11-13T01:43:33.798Z"
    },
    {
      "name": "Brighton",
      "lat": 40.5981,
      "lng": -111.5831,
      "snowfall_7day": 21,
      "forecast_text": "Partly cloudy. Low around 36, with temperatures rising to around 39 overnight. South southwest wind 6 to 9 mph.",
      "last_updated": "2025-11-13T01:43:35.967Z"
    },
    {
      "name": "Snowmass",
      "lat": 39.2133,
      "lng": -106.9378,
      "snowfall_7day": 0,
      "forecast_text": "Partly cloudy, with a low around 33. West southwest wind around 5 mph.",
      "last_updated": "2025-11-13T01:43:39.708Z"
    },
    {
      "name": "Aspen Highlands",
      "lat": 39.1825,
      "lng": -106.8553,
      "snowfall_7day": 0,
      "forecast_text": "Partly cloudy, with a low around 30. Southwest wind around 5 mph.",
      "last_updated": "2025-11-13T01:43:44.620Z"
    },
    {
      "name": "Buttermilk",
      "lat": 39.2078,
      "lng": -106.8608,
      "snowfall_7day": 0,
      "forecast_text": "Partly cloudy, with a low around 29. Southwest wind around 5 mph.",
      "last_updated": "2025-11-13T01:43:47.024Z"
    },
    {
      "name": "Beaver Creek",
      "lat": 39.6042,
      "lng": -106.5164,
      "snowfall_7day": 0,
      "forecast_text": "Partly cloudy, with a low around 29. South southwest wind around 5 mph.",
      "last_updated": "2025-11-13T01:43:49.416Z"
    },
    {
      "name": "Purgatory",
      "lat": 37.6303,
      "lng": -107.8139,
      "snowfall_7day": 14.5,
      "forecast_text": "Mostly cloudy, with a low around 29. North northwest wind 0 to 5 mph.",
      "last_updated": "2025-11-13T01:43:52.601Z"
    },
    {
      "name": "Wolf Creek",
      "lat": 37.4722,
      "lng": -106.7931,
      "snowfall_7day": 28,
      "forecast_text": "Partly cloudy, with a low around 31. Southwest wind 5 to 10 mph.",
      "last_updated": "2025-11-13T01:43:54.306Z"
    },
    {
      "name": "Monarch Mountain",
      "lat": 38.5117,
      "lng": -106.3317,
      "snowfall_7day": 3.5,
      "forecast_text": "Partly cloudy, with a low around 29. West wind 10 to 15 mph.",
      "last_updated": "2025-11-13T01:44:00.900Z"
    },
    {
      "name": "Eldora",
      "lat": 39.9372,
      "lng": -105.5828,
      "snowfall_7day": 3.5,
      "forecast_text": "Mostly cloudy. Low around 31, with temperatures rising to around 33 overnight. West wind 8 to 13 mph, with gusts as high as 21 mph.",
      "last_updated": "2025-11-13T01:44:02.660Z"
    },
    {
      "name": "Grand Targhee",
      "lat": 43.7886,
      "lng": -110.9586,
      "snowfall_7day": 7,
      "forecast_text": "Mostly cloudy, with a low around 32. South wind around 10 mph.",
      "last_updated": "2025-11-13T01:44:03.953Z"
    },
    {
      "name": "Snow King",
      "lat": 43.4783,
      "lng": -110.7628,
      "snowfall_7day": 0,
      "forecast_text": "Mostly cloudy, with a low around 31. South southeast wind around 8 mph.",
      "last_updated": "2025-11-13T01:44:15.987Z"
    },
    {
      "name": "Bridger Bowl",
      "lat": 45.8167,
      "lng": -110.8969,
      "snowfall_7day": 2,
      "forecast_text": "Mostly cloudy, with a low around 37. South southwest wind around 6 mph.",
      "last_updated": "2025-11-13T01:44:19.592Z"
    },
    {
      "name": "Big Mountain",
      "lat": 48.4928,
      "lng": -114.3483,
      "snowfall_7day": 3,
      "forecast_text": "Mostly cloudy, with a low around 32. South southwest wind around 3 mph.",
      "last_updated": "2025-11-13T01:44:26.852Z"
    },
    {
      "name": "Snowbowl",
      "lat": 46.9417,
      "lng": -113.9492,
      "snowfall_7day": 0,
      "forecast_text": "Mostly cloudy, with a low around 40. East wind 2 to 6 mph.",
      "last_updated": "2025-11-13T01:44:28.446Z"
    },
    {
      "name": "Bogus Basin",
      "lat": 43.7725,
      "lng": -116.0939,
      "snowfall_7day": 2,
      "forecast_text": "Partly cloudy, with a low around 44. Southeast wind 8 to 13 mph.",
      "last_updated": "2025-11-13T01:44:32.541Z"
    },
    {
      "name": "Tamarack",
      "lat": 44.6922,
      "lng": -116.1344,
      "snowfall_7day": 3,
      "forecast_text": "Partly cloudy, with a low around 38. South southwest wind 6 to 9 mph.",
      "last_updated": "2025-11-13T01:44:34.418Z"
    },
    {
      "name": "Silver Mountain",
      "lat": 47.6764,
      "lng": -116.0703,
      "snowfall_7day": 0,
      "forecast_text": "Partly sunny. High near 55, with temperatures falling to around 50 in the afternoon. East wind around 2 mph.",
      "last_updated": "2025-11-13T01:44:36.355Z"
    },
    {
      "name": "Mt. Hood Meadows",
      "lat": 45.3319,
      "lng": -121.6653,
      "snowfall_7day": 4,
      "forecast_text": "A slight chance of rain. Mostly cloudy. High near 51, with temperatures falling to around 46 in the afternoon. West southwest wind around 1 mph. Chance of precipitation is 20%.",
      "last_updated": "2025-11-13T01:44:44.870Z"
    },
    {
      "name": "Timberline",
      "lat": 45.3306,
      "lng": -121.7108,
      "snowfall_7day": 8,
      "forecast_text": "A slight chance of rain. Mostly cloudy. High near 47, with temperatures falling to around 44 in the afternoon. South southeast wind around 2 mph. Chance of precipitation is 20%.",
      "last_updated": "2025-11-13T01:44:47.831Z"
    },
    {
      "name": "Willamette Pass",
      "lat": 43.6006,
      "lng": -122.0336,
      "snowfall_7day": 0,
      "forecast_text": "Partly sunny. High near 54, with temperatures falling to around 49 in the afternoon. Southeast wind around 9 mph.",
      "last_updated": "2025-11-13T01:44:50.756Z"
    },
    {
      "name": "Mission Ridge",
      "lat": 47.2917,
      "lng": -120.3997,
      "snowfall_7day": 0,
      "forecast_text": "Patchy fog. Mostly cloudy. High near 42, with temperatures falling to around 40 in the afternoon. Southwest wind around 2 mph.",
      "last_updated": "2025-11-13T01:44:52.989Z"
    },
    {
      "name": "Snoqualmie",
      "lat": 47.4219,
      "lng": -121.4136,
      "snowfall_7day": 0,
      "forecast_text": "A chance of rain. Mostly cloudy. High near 48, with temperatures falling to around 44 in the afternoon. Southeast wind around 2 mph. Chance of precipitation is 30%. New rainfall amounts less than a tenth of an inch possible.",
      "last_updated": "2025-11-13T01:44:58.953Z"
    },
    {
      "name": "Mt. Spokane",
      "lat": 47.9208,
      "lng": -117.0856,
      "snowfall_7day": 0,
      "forecast_text": "Mostly cloudy. High near 46, with temperatures falling to around 42 in the afternoon. South wind around 3 mph.",
      "last_updated": "2025-11-13T01:45:04.623Z"
    },
    {
      "name": "White Pass",
      "lat": 46.6394,
      "lng": -121.3908,
      "snowfall_7day": 0,
      "forecast_text": "A chance of rain. Mostly cloudy. High near 49, with temperatures falling to around 45 in the afternoon. Southwest wind around 2 mph. Chance of precipitation is 40%. New rainfall amounts less than a tenth of an inch possible.",
      "last_updated": "2025-11-13T01:45:19.328Z"
    },
    {
      "name": "49 Degrees North",
      "lat": 48.7511,
      "lng": -117.6369,
      "snowfall_7day": 0,
      "forecast_text": "A slight chance of rain. Mostly cloudy. High near 45, with temperatures falling to around 43 in the afternoon. Southeast wind around 1 mph. Chance of precipitation is 20%.",
      "last_updated": "2025-11-13T01:45:31.295Z"
    },
    {
      "name": "Red Mountain",
      "lat": 49.0917,
      "lng": -117.8233,
      "snowfall_7day": 0,
      "forecast_text": "Data unavailable",
      "last_updated": "2025-11-13T01:45:31.672Z",
      "error": "Point API failed: 404"
    },
    {
      "name": "Whitewater",
      "lat": 49.5394,
      "lng": -117.2717,
      "snowfall_7day": 0,
      "forecast_text": "Data unavailable",
      "last_updated": "2025-11-13T01:45:31.989Z",
      "error": "Point API failed: 404"
    },
    {
      "name": "Panorama",
      "lat": 50.8036,
      "lng": -116.0533,
      "snowfall_7day": 0,
      "forecast_text": "Data unavailable",
      "last_updated": "2025-11-13T01:45:32.676Z",
      "error": "Point API failed: 404"
    },
    {
      "name": "Marmot Basin",
      "lat": 52.8236,
      "lng": -118.0747,
      "snowfall_7day": 0,
      "forecast_text": "Data unavailable",
      "last_updated": "2025-11-13T01:45:34.845Z",
      "error": "Point API failed: 404"
    },
    {
      "name": "Nakiska",
      "lat": 50.98,
      "lng": -115.0733,
      "snowfall_7day": 0,
      "forecast_text": "Data unavailable",
      "last_updated": "2025-11-13T01:45:35.160Z",
      "error": "Point API failed: 404"
    },
    {
      "name": "Castle Mountain",
      "lat": 49.4058,
      "lng": -114.5169,
      "snowfall_7day": 0,
      "forecast_text": "Data unavailable",
      "last_updated": "2025-11-13T01:45:35.470Z",
      "error": "Point API failed: 404"
    },
    {
      "name": "Norquay",
      "lat": 51.1967,
      "lng": -115.5531,
      "snowfall_7day": 0,
      "forecast_text": "Data unavailable",
      "last_updated": "2025-11-13T01:45:35.727Z",
      "error": "Point API failed: 404"
    },
    {
      "name": "Le Massif",
      "lat": 47.3136,
      "lng": -70.6358,
      "snowfall_7day": 0,
      "forecast_text": "Data unavailable",
      "last_updated": "2025-11-13T01:45:36.301Z",
      "error": "Point API failed: 404"
    },
    {
      "name": "Calabogie",
      "lat": 45.2906,
      "lng": -76.7019,
      "snowfall_7day": 0,
      "forecast_text": "Data unavailable",
      "last_updated": "2025-11-13T01:45:36.912Z",
      "error": "Point API failed: 404"
    },
    {
      "name": "Sierra-at-Tahoe",
      "lat": 38.7986,
      "lng": -120.0828,
      "snowfall_7day": 6,
      "forecast_text": "Sunny, with a high near 52. Southwest wind around 10 mph, with gusts as high as 25 mph.",
      "last_updated": "2025-11-13T01:45:45.779Z"
    },
    {
      "name": "Kirkwood",
      "lat": 38.6867,
      "lng": -120.0656,
      "snowfall_7day": 17,
      "forecast_text": "Sunny. High near 51, with temperatures falling to around 46 in the afternoon. South wind around 10 mph, with gusts as high as 25 mph.",
      "last_updated": "2025-11-13T01:45:47.718Z"
    },
    {
      "name": "Northstar",
      "lat": 39.2733,
      "lng": -120.1211,
      "snowfall_7day": 3,
      "forecast_text": "Sunny, with a high near 59. South wind around 10 mph.",
      "last_updated": "2025-11-13T01:45:48.973Z"
    },
    {
      "name": "Homewood",
      "lat": 39.0833,
      "lng": -120.1667,
      "snowfall_7day": 4,
      "forecast_text": "Sunny, with a high near 54. Southwest wind around 10 mph, with gusts as high as 25 mph.",
      "last_updated": "2025-11-13T01:45:51.077Z"
    },
    {
      "name": "Mt. Rose",
      "lat": 39.3397,
      "lng": -119.8894,
      "snowfall_7day": 5,
      "forecast_text": "Mostly sunny, with a high near 51. Southwest wind around 15 mph, with gusts as high as 25 mph.",
      "last_updated": "2025-11-13T01:45:52.826Z"
    },
    {
      "name": "Diamond Peak",
      "lat": 39.2525,
      "lng": -119.9169,
      "snowfall_7day": 3.5,
      "forecast_text": "Mostly sunny, with a high near 54. Southwest wind around 5 mph.",
      "last_updated": "2025-11-13T01:45:56.817Z"
    },
    {
      "name": "June Mountain",
      "lat": 37.7853,
      "lng": -119.0781,
      "snowfall_7day": 3.5,
      "forecast_text": "Sunny. High near 57, with temperatures falling to around 48 in the afternoon. Southwest wind around 15 mph.",
      "last_updated": "2025-11-13T01:45:59.239Z"
    },
    {
      "name": "Bear Mountain",
      "lat": 34.235,
      "lng": -116.865,
      "snowfall_7day": 1.5,
      "forecast_text": "Mostly cloudy, with a high near 63. Southwest wind around 5 mph.",
      "last_updated": "2025-11-13T01:46:00.088Z"
    },
    {
      "name": "Snow Summit",
      "lat": 34.2306,
      "lng": -116.8886,
      "snowfall_7day": 1.5,
      "forecast_text": "Mostly cloudy, with a high near 59. Southwest wind around 5 mph.",
      "last_updated": "2025-11-13T01:46:03.545Z"
    },
    {
      "name": "Mountain High",
      "lat": 34.3811,
      "lng": -117.6881,
      "snowfall_7day": 1.5,
      "forecast_text": "Partly sunny, with a high near 61. South southwest wind around 15 mph, with gusts as high as 25 mph.",
      "last_updated": "2025-11-13T01:46:07.708Z"
    },
    {
      "name": "Ski Santa Fe",
      "lat": 35.7869,
      "lng": -105.7961,
      "snowfall_7day": 0,
      "forecast_text": "Partly cloudy, with a low around 33. Northwest wind 5 to 10 mph.",
      "last_updated": "2025-11-13T01:46:17.557Z"
    },
    {
      "name": "Angel Fire",
      "lat": 36.3975,
      "lng": -105.2886,
      "snowfall_7day": 0,
      "forecast_text": "Mostly cloudy, with a low around 34. Southwest wind around 5 mph.",
      "last_updated": "2025-11-13T01:46:26.740Z"
    },
    {
      "name": "Whiteface Mountain",
      "lat": 44.3659,
      "lng": -73.9024,
      "snowfall_7day": 6,
      "forecast_text": "Snow showers. Cloudy, with a low around 24. West wind around 16 mph. Chance of precipitation is 90%. New snow accumulation of 1 to 3 inches possible.",
      "last_updated": "2025-11-13T01:46:35.932Z"
    }
  ]
}