{
  "generated_at": "2025-11-14T22:47:21.654Z",
  "total_resorts": 100,
  "resorts": [
    {
      "name": "Whistler Blackcomb",
      "lat": 50.1163,
      "lng": -122.9574,
      "snowfall_24hr": 0,
      "snowfall_48hr": 0,
      "snowfall_7day": 0,
      "forecast_text": "Data unavailable",
      "last_updated": "2025-11-14T22:36:49.619Z",
      "error": "Point API failed: 404"
    },
    {
      "name": "Vail",
      "lat": 39.6403,
      "lng": -106.3742,
      "snowfall_24hr": 0,
      "snowfall_48hr": 0,
      "snowfall_7day": 1.2,
      "forecast_text": "Sunny, with a high near 57. West wind 5 to 10 mph.",
      "last_updated": "2025-11-14T22:36:53.178Z"
    },
    {
      "name": "Park City",
      "lat": 40.6514,
      "lng": -111.5079,
      "snowfall_24hr": 0,
      "snowfall_48hr": 0,
      "snowfall_7day": 0.6,
      "forecast_text": "A chance of rain before 5pm. Partly sunny. High near 57, with temperatures falling to around 49 in the afternoon. South wind 6 to 9 mph. Chance of precipitation is 30%.",
      "last_updated": "2025-11-14T22:36:55.391Z"
    },
    {
      "name": "Breckenridge",
      "lat": 39.4817,
      "lng": -106.0384,
      "snowfall_24hr": 0,
      "snowfall_48hr": 0,
      "snowfall_7day": 1.3,
      "forecast_text": "Mostly sunny. High near 55, with temperatures falling to around 43 in the afternoon. West wind 8 to 12 mph, with gusts as high as 18 mph.",
      "last_updated": "2025-11-14T22:37:01.662Z"
    },
    {
      "name": "Heavenly",
      "lat": 38.935,
      "lng": -119.9403,
      "snowfall_24hr": 0,
      "snowfall_48hr": 0,
      "snowfall_7day": 1.8,
      "forecast_text": "A chance of rain before 4pm. Partly sunny, with a high near 44. South wind 0 to 5 mph. Chance of precipitation is 50%.",
      "last_updated": "2025-11-14T22:37:05.590Z"
    },
    {
      "name": "Aspen Snowmass",
      "lat": 39.1911,
      "lng": -106.8175,
      "snowfall_24hr": 0,
      "snowfall_48hr": 0,
      "snowfall_7day": 0.3,
      "forecast_text": "Mostly sunny, with a high near 64. West southwest wind around 5 mph.",
      "last_updated": "2025-11-14T22:37:13.305Z"
    },
    {
      "name": "Jackson Hole",
      "lat": 43.5875,
      "lng": -110.8278,
      "snowfall_24hr": 0,
      "snowfall_48hr": 0,
      "snowfall_7day": 0.2,
      "forecast_text": "Scattered rain showers. Mostly cloudy. High near 53, with temperatures falling to around 46 in the afternoon. Southwest wind around 10 mph, with gusts as high as 23 mph. Chance of precipitation is 50%. New rainfall amounts between a tenth and quarter of an inch possible.",
      "last_updated": "2025-11-14T22:37:21.472Z"
    },
    {
      "name": "Banff Sunshine",
      "lat": 51.1158,
      "lng": -115.7631,
      "snowfall_24hr": 0,
      "snowfall_48hr": 0,
      "snowfall_7day": 0,
      "forecast_text": "Data unavailable",
      "last_updated": "2025-11-14T22:37:26.107Z",
      "error": "Point API failed: 404"
    },
    {
      "name": "Lake Louise",
      "lat": 51.4254,
      "lng": -116.1773,
      "snowfall_24hr": 0,
      "snowfall_48hr": 0,
      "snowfall_7day": 0,
      "forecast_text": "Data unavailable",
      "last_updated": "2025-11-14T22:37:26.398Z",
      "error": "Point API failed: 404"
    },
    {
      "name": "Big Sky",
      "lat": 45.2846,
      "lng": -111.4008,
      "snowfall_24hr": 0,
      "snowfall_48hr": 0,
      "snowfall_7day": 1.3,
      "forecast_text": "A chance of rain before 5pm. Mostly cloudy. High near 43, with temperatures falling to around 38 in the afternoon. Southwest wind around 16 mph, with gusts as high as 32 mph. Chance of precipitation is 40%.",
      "last_updated": "2025-11-14T22:37:29.366Z"
    },
    {
      "name": "Steamboat",
      "lat": 40.458,
      "lng": -106.8047,
      "snowfall_24hr": 0,
      "snowfall_48hr": 0,
      "snowfall_7day": 0.4,
      "forecast_text": "Mostly sunny, with a high near 62. West wind 5 to 10 mph, with gusts as high as 25 mph.",
      "last_updated": "2025-11-14T22:37:31.025Z"
    },
    {
      "name": "Mammoth Mountain",
      "lat": 37.6308,
      "lng": -119.0326,
      "snowfall_24hr": 3.3,
      "snowfall_48hr": 11.4,
      "snowfall_7day": 26.4,
      "forecast_text": "Snow showers likely and a slight chance of thunderstorms before 4pm, then a slight chance of snow. Partly sunny. High near 34, with temperatures falling to around 32 in the afternoon. Wind chill values as low as 23. South southwest wind 10 to 15 mph, with gusts as high as 25 mph. Chance of precipitation is 70%. New snow accumulation of 1 to 2 inches possible.",
      "last_updated": "2025-11-14T22:37:34.643Z"
    },
    {
      "name": "Squaw Valley",
      "lat": 39.197,
      "lng": -120.2356,
      "snowfall_24hr": 0,
      "snowfall_48hr": 0.4,
      "snowfall_7day": 3.4,
      "forecast_text": "A chance of rain. Partly sunny, with a high near 48. South wind around 0 mph. Chance of precipitation is 50%.",
      "last_updated": "2025-11-14T22:37:38.842Z"
    },
    {
      "name": "Telluride",
      "lat": 37.9375,
      "lng": -107.8123,
      "snowfall_24hr": 0,
      "snowfall_48hr": 0,
      "snowfall_7day": 3.6,
      "forecast_text": "Mostly sunny, with a high near 61. West southwest wind around 5 mph.",
      "last_updated": "2025-11-14T22:37:40.482Z"
    },
    {
      "name": "Sun Valley",
      "lat": 43.6966,
      "lng": -114.3553,
      "snowfall_24hr": 0,
      "snowfall_48hr": 0,
      "snowfall_7day": 0,
      "forecast_text": "Mostly sunny. High near 52, with temperatures falling to around 48 in the afternoon. South wind around 9 mph.",
      "last_updated": "2025-11-14T22:37:51.500Z"
    },
    {
      "name": "Deer Valley",
      "lat": 40.6374,
      "lng": -111.4783,
      "snowfall_24hr": 0,
      "snowfall_48hr": 0,
      "snowfall_7day": 1.7,
      "forecast_text": "A chance of rain before 5pm. Partly sunny. High near 53, with temperatures falling to around 46 in the afternoon. South wind 7 to 10 mph. Chance of precipitation is 30%.",
      "last_updated": "2025-11-14T22:37:58.132Z"
    },
    {
      "name": "Killington",
      "lat": 43.6046,
      "lng": -72.822,
      "snowfall_24hr": 0.3,
      "snowfall_48hr": 0.9,
      "snowfall_7day": 1.6,
      "forecast_text": "Scattered snow showers. Mostly cloudy, with a high near 26. Northwest wind around 10 mph. Chance of precipitation is 30%. New snow accumulation of less than half an inch possible.",
      "last_updated": "2025-11-14T22:38:04.432Z"
    },
    {
      "name": "Stowe",
      "lat": 44.5303,
      "lng": -72.7817,
      "snowfall_24hr": 1.6,
      "snowfall_48hr": 4.2,
      "snowfall_7day": 10.1,
      "forecast_text": "Scattered snow showers. Cloudy, with a high near 28. Northwest wind around 7 mph. Chance of precipitation is 40%. New snow accumulation of less than one inch possible.",
      "last_updated": "2025-11-14T22:38:37.788Z"
    },
    {
      "name": "Alta",
      "lat": 40.5885,
      "lng": -111.6376,
      "snowfall_24hr": 0,
      "snowfall_48hr": 2.3,
      "snowfall_7day": 13.2,
      "forecast_text": "A slight chance of rain and snow before 5pm. Partly sunny. High near 44, with temperatures falling to around 40 in the afternoon. Southwest wind around 9 mph. Chance of precipitation is 20%.",
      "last_updated": "2025-11-14T22:38:44.290Z"
    },
    {
      "name": "Snowbird",
      "lat": 40.5803,
      "lng": -111.6573,
      "snowfall_24hr": 0,
      "snowfall_48hr": 0.1,
      "snowfall_7day": 9.7,
      "forecast_text": "A slight chance of rain and snow before 5pm. Partly sunny. High near 49, with temperatures falling to around 45 in the afternoon. Southwest wind around 9 mph. Chance of precipitation is 20%.",
      "last_updated": "2025-11-14T22:38:45.722Z"
    },
    {
      "name": "Taos",
      "lat": 36.5924,
      "lng": -105.4467,
      "snowfall_24hr": 0,
      "snowfall_48hr": 0,
      "snowfall_7day": 5,
      "forecast_text": "Mostly sunny. High near 50, with temperatures falling to around 40 in the afternoon. Southwest wind 5 to 10 mph.",
      "last_updated": "2025-11-14T22:38:47.526Z"
    },
    {
      "name": "Copper Mountain",
      "lat": 39.5022,
      "lng": -106.1506,
      "snowfall_24hr": 0,
      "snowfall_48hr": 0,
      "snowfall_7day": 2,
      "forecast_text": "Sunny. High near 53, with temperatures falling to around 40 in the afternoon. West wind 8 to 12 mph, with gusts as high as 18 mph.",
      "last_updated": "2025-11-14T22:38:54.641Z"
    },
    {
      "name": "Winter Park",
      "lat": 39.8868,
      "lng": -105.7625,
      "snowfall_24hr": 0,
      "snowfall_48hr": 0,
      "snowfall_7day": 3.1,
      "forecast_text": "Sunny. High near 53, with temperatures falling to around 45 in the afternoon. West wind around 16 mph, with gusts as high as 25 mph.",
      "last_updated": "2025-11-14T22:39:04.197Z"
    },
    {
      "name": "Keystone",
      "lat": 39.605,
      "lng": -105.9347,
      "snowfall_24hr": 0,
      "snowfall_48hr": 0,
      "snowfall_7day": 2,
      "forecast_text": "Mostly sunny. High near 56, with temperatures falling to around 45 in the afternoon. West wind 9 to 13 mph, with gusts as high as 21 mph.",
      "last_updated": "2025-11-14T22:39:13.035Z"
    },
    {
      "name": "Arapahoe Basin",
      "lat": 39.6426,
      "lng": -105.8717,
      "snowfall_24hr": 0,
      "snowfall_48hr": 0,
      "snowfall_7day": 4.8,
      "forecast_text": "Mostly sunny. High near 50, with temperatures falling to around 42 in the afternoon. West wind around 18 mph, with gusts as high as 30 mph.",
      "last_updated": "2025-11-14T22:39:22.662Z"
    },
    {
      "name": "Crested Butte",
      "lat": 38.8997,
      "lng": -106.9653,
      "snowfall_24hr": 0,
      "snowfall_48hr": 0,
      "snowfall_7day": 1.8,
      "forecast_text": "Mostly sunny, with a high near 55. West northwest wind 5 to 10 mph.",
      "last_updated": "2025-11-14T22:39:26.293Z"
    },
    {
      "name": "Loveland",
      "lat": 39.6803,
      "lng": -105.8978,
      "snowfall_24hr": 0,
      "snowfall_48hr": 0,
      "snowfall_7day": 5,
      "forecast_text": "Sunny. High near 43, with temperatures falling to around 38 in the afternoon. West wind around 18 mph, with gusts as high as 30 mph.",
      "last_updated": "2025-11-14T22:39:37.942Z"
    },
    {
      "name": "Mt. Bachelor",
      "lat": 43.979,
      "lng": -121.688,
      "snowfall_24hr": 0,
      "snowfall_48hr": 0,
      "snowfall_7day": 6.2,
      "forecast_text": "Mostly sunny. High near 38, with temperatures falling to around 35 in the afternoon. West wind around 7 mph.",
      "last_updated": "2025-11-14T22:39:57.480Z"
    },
    {
      "name": "Crystal Mountain",
      "lat": 46.9358,
      "lng": -121.4742,
      "snowfall_24hr": 0,
      "snowfall_48hr": 0,
      "snowfall_7day": 7,
      "forecast_text": "Rain. Cloudy, with a high near 38. South southwest wind 10 to 16 mph, with gusts as high as 21 mph. Chance of precipitation is 90%. New rainfall amounts between a tenth and quarter of an inch possible.",
      "last_updated": "2025-11-14T22:40:11.550Z"
    },
    {
      "name": "Stevens Pass",
      "lat": 47.7453,
      "lng": -121.0892,
      "snowfall_24hr": 0,
      "snowfall_48hr": 0,
      "snowfall_7day": 5.7,
      "forecast_text": "Rain before 4pm, then rain and snow. Cloudy, with a high near 40. West southwest wind 8 to 14 mph. Chance of precipitation is 100%. New rainfall amounts between three quarters and one inch possible.",
      "last_updated": "2025-11-14T22:40:19.408Z"
    },
    {
      "name": "Mt. Baker",
      "lat": 48.8597,
      "lng": -121.6686,
      "snowfall_24hr": 0.1,
      "snowfall_48hr": 0.1,
      "snowfall_7day": 10,
      "forecast_text": "Rain and snow. Cloudy. High near 39, with temperatures falling to around 35 in the afternoon. South wind 6 to 9 mph. Chance of precipitation is 90%. New snow accumulation of less than half an inch possible.",
      "last_updated": "2025-11-14T22:40:22.236Z"
    },
    {
      "name": "Schweitzer",
      "lat": 48.3642,
      "lng": -116.6228,
      "snowfall_24hr": 0,
      "snowfall_48hr": 0,
      "snowfall_7day": 3.4,
      "forecast_text": "Rain and snow. Cloudy, with a high near 39. Southwest wind around 15 mph, with gusts as high as 26 mph. Chance of precipitation is 90%. New rainfall amounts between a half and three quarters of an inch possible.",
      "last_updated": "2025-11-14T22:40:28.448Z"
    },
    {
      "name": "Sun Peaks",
      "lat": 50.8817,
      "lng": -119.8847,
      "snowfall_24hr": 0,
      "snowfall_48hr": 0,
      "snowfall_7day": 0,
      "forecast_text": "Data unavailable",
      "last_updated": "2025-11-14T22:40:29.468Z",
      "error": "Point API failed: 404"
    },
    {
      "name": "Revelstoke",
      "lat": 50.9981,
      "lng": -118.1956,
      "snowfall_24hr": 0,
      "snowfall_48hr": 0,
      "snowfall_7day": 0,
      "forecast_text": "Data unavailable",
      "last_updated": "2025-11-14T22:40:30.747Z",
      "error": "Point API failed: 404"
    },
    {
      "name": "Fernie",
      "lat": 49.4653,
      "lng": -115.0636,
      "snowfall_24hr": 0,
      "snowfall_48hr": 0,
      "snowfall_7day": 0,
      "forecast_text": "Data unavailable",
      "last_updated": "2025-11-14T22:40:31.215Z",
      "error": "Point API failed: 404"
    },
    {
      "name": "Big White",
      "lat": 49.7311,
      "lng": -118.935,
      "snowfall_24hr": 0,
      "snowfall_48hr": 0,
      "snowfall_7day": 0,
      "forecast_text": "Data unavailable",
      "last_updated": "2025-11-14T22:40:33.247Z",
      "error": "Point API failed: 404"
    },
    {
      "name": "Kicking Horse",
      "lat": 51.2514,
      "lng": -117.0492,
      "snowfall_24hr": 0,
      "snowfall_48hr": 0,
      "snowfall_7day": 0,
      "forecast_text": "Data unavailable",
      "last_updated": "2025-11-14T22:40:33.607Z",
      "error": "Point API failed: 404"
    },
    {
      "name": "Mont Tremblant",
      "lat": 46.2094,
      "lng": -74.5847,
      "snowfall_24hr": 0,
      "snowfall_48hr": 0,
      "snowfall_7day": 0,
      "forecast_text": "Data unavailable",
      "last_updated": "2025-11-14T22:40:33.899Z",
      "error": "Point API failed: 404"
    },
    {
      "name": "Blue Mountain",
      "lat": 44.5075,
      "lng": -80.3231,
      "snowfall_24hr": 0,
      "snowfall_48hr": 0,
      "snowfall_7day": 0,
      "forecast_text": "Data unavailable",
      "last_updated": "2025-11-14T22:40:34.188Z",
      "error": "Point API failed: 404"
    },
    {
      "name": "Sugarloaf",
      "lat": 45.0314,
      "lng": -70.3139,
      "snowfall_24hr": 0,
      "snowfall_48hr": 3.1,
      "snowfall_7day": 4.1,
      "forecast_text": "Partly sunny, with a high near 28. Northwest wind around 15 mph, with gusts as high as 25 mph.",
      "last_updated": "2025-11-14T22:40:47.560Z"
    },
    {
      "name": "Sunday River",
      "lat": 44.4697,
      "lng": -70.8561,
      "snowfall_24hr": 0,
      "snowfall_48hr": 1,
      "snowfall_7day": 1.7,
      "forecast_text": "Partly sunny, with a high near 35. Northwest wind around 10 mph.",
      "last_updated": "2025-11-14T22:41:00.189Z"
    },
    {
      "name": "Sugarbush",
      "lat": 44.135,
      "lng": -72.9017,
      "snowfall_24hr": 1.3,
      "snowfall_48hr": 2.4,
      "snowfall_7day": 4.3,
      "forecast_text": "Scattered snow showers. Cloudy, with a high near 26. Northwest wind around 6 mph. Chance of precipitation is 40%. New snow accumulation of less than one inch possible.",
      "last_updated": "2025-11-14T22:41:02.121Z"
    },
    {
      "name": "Stratton",
      "lat": 43.1133,
      "lng": -72.9083,
      "snowfall_24hr": 0,
      "snowfall_48hr": 0.1,
      "snowfall_7day": 0.1,
      "forecast_text": "Scattered snow showers. Mostly cloudy, with a high near 36. Northwest wind around 2 mph. Chance of precipitation is 30%.",
      "last_updated": "2025-11-14T22:41:05.551Z"
    },
    {
      "name": "Okemo",
      "lat": 43.4017,
      "lng": -72.7167,
      "snowfall_24hr": 0,
      "snowfall_48hr": 0,
      "snowfall_7day": 0.2,
      "forecast_text": "Scattered snow showers. Mostly cloudy, with a high near 39. Northwest wind around 5 mph. Chance of precipitation is 30%. New rainfall amounts less than a tenth of an inch possible.",
      "last_updated": "2025-11-14T22:41:10.293Z"
    },
    {
      "name": "Jay Peak",
      "lat": 44.9378,
      "lng": -72.5036,
      "snowfall_24hr": 0.9,
      "snowfall_48hr": 4.7,
      "snowfall_7day": 10.7,
      "forecast_text": "Scattered snow showers. Cloudy, with a high near 26. Northwest wind around 5 mph. Chance of precipitation is 30%. New snow accumulation of less than half an inch possible.",
      "last_updated": "2025-11-14T22:41:12.551Z"
    },
    {
      "name": "Smugglers' Notch",
      "lat": 44.5458,
      "lng": -72.7872,
      "snowfall_24hr": 1.5,
      "snowfall_48hr": 4.3,
      "snowfall_7day": 10.5,
      "forecast_text": "Scattered snow showers. Cloudy, with a high near 27. Northwest wind around 8 mph. Chance of precipitation is 40%. New snow accumulation of less than one inch possible.",
      "last_updated": "2025-11-14T22:41:17.339Z"
    },
    {
      "name": "Loon Mountain",
      "lat": 44.0369,
      "lng": -71.6206,
      "snowfall_24hr": 0,
      "snowfall_48hr": 0.9,
      "snowfall_7day": 1.7,
      "forecast_text": "Partly sunny, with a high near 29. Northwest wind around 10 mph.",
      "last_updated": "2025-11-14T22:41:20.431Z"
    },
    {
      "name": "Cannon Mountain",
      "lat": 44.1572,
      "lng": -71.6978,
      "snowfall_24hr": 0.8,
      "snowfall_48hr": 2.9,
      "snowfall_7day": 3.9,
      "forecast_text": "Mostly cloudy, with a high near 24. Northwest wind around 15 mph, with gusts as high as 30 mph.",
      "last_updated": "2025-11-14T22:41:25.925Z"
    },
    {
      "name": "Wildcat Mountain",
      "lat": 44.2636,
      "lng": -71.2328,
      "snowfall_24hr": 0,
      "snowfall_48hr": 0,
      "snowfall_7day": 0,
      "forecast_text": "Data unavailable",
      "last_updated": "2025-11-14T22:42:27.947Z",
      "error": "Grid API failed: 504"
    },
    {
      "name": "Bretton Woods",
      "lat": 44.2633,
      "lng": -71.4439,
      "snowfall_24hr": 0.3,
      "snowfall_48hr": 1.6,
      "snowfall_7day": 2.5,
      "forecast_text": "A slight chance of snow showers. Mostly cloudy, with a high near 31. Northwest wind around 10 mph. Chance of precipitation is 20%.",
      "last_updated": "2025-11-14T22:42:41.938Z"
    },
    {
      "name": "Snowbasin",
      "lat": 41.2156,
      "lng": -111.8567,
      "snowfall_24hr": 0,
      "snowfall_48hr": 0,
      "snowfall_7day": 0.4,
      "forecast_text": "A slight chance of rain before 5pm. Partly sunny. High near 55, with temperatures falling to around 50 in the afternoon. South southwest wind around 8 mph. Chance of precipitation is 20%.",
      "last_updated": "2025-11-14T22:42:52.988Z"
    },
    {
      "name": "Powder Mountain",
      "lat": 41.3814,
      "lng": -111.7806,
      "snowfall_24hr": 0,
      "snowfall_48hr": 0,
      "snowfall_7day": 5.7,
      "forecast_text": "A chance of rain before 5pm. Mostly cloudy. High near 44, with temperatures falling to around 40 in the afternoon. Southwest wind 8 to 12 mph. Chance of precipitation is 30%.",
      "last_updated": "2025-11-14T22:42:54.900Z"
    },
    {
      "name": "Solitude",
      "lat": 40.62,
      "lng": -111.5917,
      "snowfall_24hr": 0,
      "snowfall_48hr": 0.4,
      "snowfall_7day": 8.6,
      "forecast_text": "A chance of rain before 5pm. Partly sunny. High near 47, with temperatures falling to around 44 in the afternoon. Southwest wind around 9 mph. Chance of precipitation is 30%.",
      "last_updated": "2025-11-14T22:43:00.470Z"
    },
    {
      "name": "Brighton",
      "lat": 40.5981,
      "lng": -111.5831,
      "snowfall_24hr": 0,
      "snowfall_48hr": 0.2,
      "snowfall_7day": 9.1,
      "forecast_text": "A chance of rain and snow before 5pm. Partly sunny. High near 46, with temperatures falling to around 42 in the afternoon. South southwest wind 6 to 9 mph. Chance of precipitation is 30%.",
      "last_updated": "2025-11-14T22:43:02.288Z"
    },
    {
      "name": "Snowmass",
      "lat": 39.2133,
      "lng": -106.9378,
      "snowfall_24hr": 0,
      "snowfall_48hr": 0,
      "snowfall_7day": 0.9,
      "forecast_text": "Mostly sunny, with a high near 59. West southwest wind around 5 mph.",
      "last_updated": "2025-11-14T22:43:04.781Z"
    },
    {
      "name": "Aspen Highlands",
      "lat": 39.1825,
      "lng": -106.8553,
      "snowfall_24hr": 0,
      "snowfall_48hr": 0,
      "snowfall_7day": 0.5,
      "forecast_text": "Mostly sunny, with a high near 63. West southwest wind around 5 mph.",
      "last_updated": "2025-11-14T22:43:07.865Z"
    },
    {
      "name": "Buttermilk",
      "lat": 39.2078,
      "lng": -106.8608,
      "snowfall_24hr": 0,
      "snowfall_48hr": 0,
      "snowfall_7day": 0.2,
      "forecast_text": "Mostly sunny, with a high near 63. West southwest wind around 5 mph.",
      "last_updated": "2025-11-14T22:43:12.143Z"
    },
    {
      "name": "Beaver Creek",
      "lat": 39.6042,
      "lng": -106.5164,
      "snowfall_24hr": 0,
      "snowfall_48hr": 0,
      "snowfall_7day": 0.9,
      "forecast_text": "Sunny, with a high near 60. West wind 5 to 10 mph.",
      "last_updated": "2025-11-14T22:43:16.457Z"
    },
    {
      "name": "Purgatory",
      "lat": 37.6303,
      "lng": -107.8139,
      "snowfall_24hr": 0,
      "snowfall_48hr": 0,
      "snowfall_7day": 6,
      "forecast_text": "Mostly sunny, with a high near 57. South southwest wind around 5 mph.",
      "last_updated": "2025-11-14T22:43:21.066Z"
    },
    {
      "name": "Wolf Creek",
      "lat": 37.4722,
      "lng": -106.7931,
      "snowfall_24hr": 0,
      "snowfall_48hr": 1.2,
      "snowfall_7day": 13.9,
      "forecast_text": "Sunny, with a high near 47. Southwest wind 10 to 15 mph.",
      "last_updated": "2025-11-14T22:43:22.880Z"
    },
    {
      "name": "Monarch Mountain",
      "lat": 38.5117,
      "lng": -106.3317,
      "snowfall_24hr": 0,
      "snowfall_48hr": 0,
      "snowfall_7day": 2.3,
      "forecast_text": "Sunny, with a high near 46. West wind around 20 mph, with gusts as high as 35 mph.",
      "last_updated": "2025-11-14T22:43:25.133Z"
    },
    {
      "name": "Eldora",
      "lat": 39.9372,
      "lng": -105.5828,
      "snowfall_24hr": 0,
      "snowfall_48hr": 0,
      "snowfall_7day": 2.6,
      "forecast_text": "Mostly sunny. High near 55, with temperatures falling to around 47 in the afternoon. West wind around 15 mph, with gusts as high as 24 mph.",
      "last_updated": "2025-11-14T22:43:32.577Z"
    },
    {
      "name": "Grand Targhee",
      "lat": 43.7886,
      "lng": -110.9586,
      "snowfall_24hr": 0.1,
      "snowfall_48hr": 0.1,
      "snowfall_7day": 5.8,
      "forecast_text": "A chance of rain and snow showers before 5pm, then scattered rain and snow showers. Cloudy. High near 39, with temperatures falling to around 34 in the afternoon. West southwest wind 14 to 20 mph, with gusts as high as 30 mph. Chance of precipitation is 60%. New snow accumulation of less than half an inch possible.",
      "last_updated": "2025-11-14T22:43:35.796Z"
    },
    {
      "name": "Snow King",
      "lat": 43.4783,
      "lng": -110.7628,
      "snowfall_24hr": 0,
      "snowfall_48hr": 0,
      "snowfall_7day": 0.1,
      "forecast_text": "Scattered rain showers. Cloudy. High near 56, with temperatures falling to around 50 in the afternoon. South southwest wind around 12 mph, with gusts as high as 22 mph. Chance of precipitation is 40%.",
      "last_updated": "2025-11-14T22:43:40.388Z"
    },
    {
      "name": "Bridger Bowl",
      "lat": 45.8167,
      "lng": -110.8969,
      "snowfall_24hr": 0,
      "snowfall_48hr": 0,
      "snowfall_7day": 0.7,
      "forecast_text": "A chance of rain. Mostly cloudy. High near 57, with temperatures falling to around 45 in the afternoon. West southwest wind around 15 mph, with gusts as high as 32 mph. Chance of precipitation is 50%.",
      "last_updated": "2025-11-14T22:43:45.294Z"
    },
    {
      "name": "Big Mountain",
      "lat": 48.4928,
      "lng": -114.3483,
      "snowfall_24hr": 0,
      "snowfall_48hr": 0,
      "snowfall_7day": 2.5,
      "forecast_text": "Rain before 5pm, then rain and snow likely. Cloudy, with a high near 35. West southwest wind around 10 mph, with gusts as high as 21 mph. Chance of precipitation is 90%. New rainfall amounts between a tenth and quarter of an inch possible.",
      "last_updated": "2025-11-14T22:43:51.968Z"
    },
    {
      "name": "Snowbowl",
      "lat": 46.9417,
      "lng": -113.9492,
      "snowfall_24hr": 0,
      "snowfall_48hr": 0,
      "snowfall_7day": 0,
      "forecast_text": "A chance of rain. Cloudy. High near 49, with temperatures falling to around 43 in the afternoon. West wind around 12 mph, with gusts as high as 23 mph. Chance of precipitation is 30%.",
      "last_updated": "2025-11-14T22:44:05.688Z"
    },
    {
      "name": "Bogus Basin",
      "lat": 43.7725,
      "lng": -116.0939,
      "snowfall_24hr": 0,
      "snowfall_48hr": 0,
      "snowfall_7day": 0.7,
      "forecast_text": "Sunny, with a high near 45. West wind around 3 mph.",
      "last_updated": "2025-11-14T22:44:16.943Z"
    },
    {
      "name": "Tamarack",
      "lat": 44.6922,
      "lng": -116.1344,
      "snowfall_24hr": 0,
      "snowfall_48hr": 0,
      "snowfall_7day": 0.6,
      "forecast_text": "A slight chance of rain before 5pm. Mostly sunny. High near 42, with temperatures falling to around 38 in the afternoon. Southwest wind around 8 mph. Chance of precipitation is 20%.",
      "last_updated": "2025-11-14T22:44:31.930Z"
    },
    {
      "name": "Silver Mountain",
      "lat": 47.6764,
      "lng": -116.0703,
      "snowfall_24hr": 0,
      "snowfall_48hr": 0,
      "snowfall_7day": 0,
      "forecast_text": "Rain. Cloudy, with a high near 46. Southwest wind around 10 mph, with gusts as high as 26 mph. Chance of precipitation is 90%. New rainfall amounts between a tenth and quarter of an inch possible.",
      "last_updated": "2025-11-14T22:44:36.315Z"
    },
    {
      "name": "Mt. Hood Meadows",
      "lat": 45.3319,
      "lng": -121.6653,
      "snowfall_24hr": 0,
      "snowfall_48hr": 0,
      "snowfall_7day": 4.5,
      "forecast_text": "A chance of rain showers. Mostly cloudy. High near 42, with temperatures falling to around 40 in the afternoon. West southwest wind around 5 mph. Chance of precipitation is 50%. New rainfall amounts less than a tenth of an inch possible.",
      "last_updated": "2025-11-14T22:44:39.071Z"
    },
    {
      "name": "Timberline",
      "lat": 45.3306,
      "lng": -121.7108,
      "snowfall_24hr": 0,
      "snowfall_48hr": 0,
      "snowfall_7day": 8.2,
      "forecast_text": "A chance of snow showers before 5pm, then a chance of rain and snow showers. Mostly cloudy. High near 38, with temperatures falling to around 36 in the afternoon. West wind around 7 mph, with gusts as high as 18 mph. Chance of precipitation is 50%. New rainfall amounts less than a tenth of an inch possible.",
      "last_updated": "2025-11-14T22:44:45.682Z"
    },
    {
      "name": "Willamette Pass",
      "lat": 43.6006,
      "lng": -122.0336,
      "snowfall_24hr": 0,
      "snowfall_48hr": 0,
      "snowfall_7day": 5,
      "forecast_text": "Mostly sunny. High near 46, with temperatures falling to around 40 in the afternoon. West wind around 6 mph.",
      "last_updated": "2025-11-14T22:44:56.307Z"
    },
    {
      "name": "Mission Ridge",
      "lat": 47.2917,
      "lng": -120.3997,
      "snowfall_24hr": 0,
      "snowfall_48hr": 0,
      "snowfall_7day": 1.3,
      "forecast_text": "Rain and snow likely. Mostly cloudy. High near 41, with temperatures falling to around 39 in the afternoon. Southwest wind around 9 mph. Chance of precipitation is 60%. New rainfall amounts less than a tenth of an inch possible.",
      "last_updated": "2025-11-14T22:44:58.887Z"
    },
    {
      "name": "Snoqualmie",
      "lat": 47.4219,
      "lng": -121.4136,
      "snowfall_24hr": 0,
      "snowfall_48hr": 0,
      "snowfall_7day": 0.3,
      "forecast_text": "Rain. Cloudy, with a high near 43. Southwest wind around 5 mph. Chance of precipitation is 100%. New rainfall amounts between three quarters and one inch possible.",
      "last_updated": "2025-11-14T22:45:04.761Z"
    },
    {
      "name": "Mt. Spokane",
      "lat": 47.9208,
      "lng": -117.0856,
      "snowfall_24hr": 0,
      "snowfall_48hr": 0,
      "snowfall_7day": 0.5,
      "forecast_text": "Rain. Cloudy, with a high near 42. Southwest wind around 13 mph, with gusts as high as 26 mph. Chance of precipitation is 80%. New rainfall amounts between a quarter and half of an inch possible.",
      "last_updated": "2025-11-14T22:45:12.660Z"
    },
    {
      "name": "White Pass",
      "lat": 46.6394,
      "lng": -121.3908,
      "snowfall_24hr": 0,
      "snowfall_48hr": 0,
      "snowfall_7day": 3.7,
      "forecast_text": "Rain. Mostly cloudy, with a high near 40. West wind around 8 mph, with gusts as high as 22 mph. Chance of precipitation is 90%. New rainfall amounts between a quarter and half of an inch possible.",
      "last_updated": "2025-11-14T22:45:35.111Z"
    },
    {
      "name": "49 Degrees North",
      "lat": 48.7511,
      "lng": -117.6369,
      "snowfall_24hr": 0,
      "snowfall_48hr": 0,
      "snowfall_7day": 0,
      "forecast_text": "Rain and patchy fog. Cloudy, with a high near 43. Southwest wind around 3 mph. Chance of precipitation is 90%. New rainfall amounts between a tenth and quarter of an inch possible.",
      "last_updated": "2025-11-14T22:45:41.606Z"
    },
    {
      "name": "Red Mountain",
      "lat": 49.0917,
      "lng": -117.8233,
      "snowfall_24hr": 0,
      "snowfall_48hr": 0,
      "snowfall_7day": 0,
      "forecast_text": "Data unavailable",
      "last_updated": "2025-11-14T22:45:43.986Z",
      "error": "Point API failed: 404"
    },
    {
      "name": "Whitewater",
      "lat": 49.5394,
      "lng": -117.2717,
      "snowfall_24hr": 0,
      "snowfall_48hr": 0,
      "snowfall_7day": 0,
      "forecast_text": "Data unavailable",
      "last_updated": "2025-11-14T22:45:51.255Z",
      "error": "Point API failed: 404"
    },
    {
      "name": "Panorama",
      "lat": 50.8036,
      "lng": -116.0533,
      "snowfall_24hr": 0,
      "snowfall_48hr": 0,
      "snowfall_7day": 0,
      "forecast_text": "Data unavailable",
      "last_updated": "2025-11-14T22:45:51.822Z",
      "error": "Point API failed: 404"
    },
    {
      "name": "Marmot Basin",
      "lat": 52.8236,
      "lng": -118.0747,
      "snowfall_24hr": 0,
      "snowfall_48hr": 0,
      "snowfall_7day": 0,
      "forecast_text": "Data unavailable",
      "last_updated": "2025-11-14T22:46:05.812Z",
      "error": "Point API failed: 404"
    },
    {
      "name": "Nakiska",
      "lat": 50.98,
      "lng": -115.0733,
      "snowfall_24hr": 0,
      "snowfall_48hr": 0,
      "snowfall_7day": 0,
      "forecast_text": "Data unavailable",
      "last_updated": "2025-11-14T22:46:16.620Z",
      "error": "Point API failed: 404"
    },
    {
      "name": "Castle Mountain",
      "lat": 49.4058,
      "lng": -114.5169,
      "snowfall_24hr": 0,
      "snowfall_48hr": 0,
      "snowfall_7day": 0,
      "forecast_text": "Data unavailable",
      "last_updated": "2025-11-14T22:46:16.909Z",
      "error": "Point API failed: 404"
    },
    {
      "name": "Norquay",
      "lat": 51.1967,
      "lng": -115.5531,
      "snowfall_24hr": 0,
      "snowfall_48hr": 0,
      "snowfall_7day": 0,
      "forecast_text": "Data unavailable",
      "last_updated": "2025-11-14T22:46:17.332Z",
      "error": "Point API failed: 404"
    },
    {
      "name": "Le Massif",
      "lat": 47.3136,
      "lng": -70.6358,
      "snowfall_24hr": 0,
      "snowfall_48hr": 0,
      "snowfall_7day": 0,
      "forecast_text": "Data unavailable",
      "last_updated": "2025-11-14T22:46:17.626Z",
      "error": "Point API failed: 404"
    },
    {
      "name": "Calabogie",
      "lat": 45.2906,
      "lng": -76.7019,
      "snowfall_24hr": 0,
      "snowfall_48hr": 0,
      "snowfall_7day": 0,
      "forecast_text": "Data unavailable",
      "last_updated": "2025-11-14T22:46:17.914Z",
      "error": "Point API failed: 404"
    },
    {
      "name": "Sierra-at-Tahoe",
      "lat": 38.7986,
      "lng": -120.0828,
      "snowfall_24hr": 0,
      "snowfall_48hr": 2.5,
      "snowfall_7day": 10.9,
      "forecast_text": "A chance of rain showers before 5pm. Partly sunny, with a high near 41. South wind around 0 mph. Chance of precipitation is 40%.",
      "last_updated": "2025-11-14T22:46:20.375Z"
    },
    {
      "name": "Kirkwood",
      "lat": 38.6867,
      "lng": -120.0656,
      "snowfall_24hr": 0,
      "snowfall_48hr": 6.4,
      "snowfall_7day": 21.6,
      "forecast_text": "A chance of rain showers. Partly sunny. High near 41, with temperatures falling to around 39 in the afternoon. South southeast wind around 2 mph. Chance of precipitation is 40%. New rainfall amounts between a tenth and quarter of an inch possible.",
      "last_updated": "2025-11-14T22:46:22.721Z"
    },
    {
      "name": "Northstar",
      "lat": 39.2733,
      "lng": -120.1211,
      "snowfall_24hr": 0,
      "snowfall_48hr": 0,
      "snowfall_7day": 1.7,
      "forecast_text": "A chance of rain. Mostly sunny, with a high near 49. South wind around 0 mph. Chance of precipitation is 40%.",
      "last_updated": "2025-11-14T22:46:24.764Z"
    },
    {
      "name": "Homewood",
      "lat": 39.0833,
      "lng": -120.1667,
      "snowfall_24hr": 0,
      "snowfall_48hr": 0.1,
      "snowfall_7day": 2.7,
      "forecast_text": "A chance of rain. Partly sunny, with a high near 43. Southeast wind around 0 mph. Chance of precipitation is 50%.",
      "last_updated": "2025-11-14T22:46:45.000Z"
    },
    {
      "name": "Mt. Rose",
      "lat": 39.3397,
      "lng": -119.8894,
      "snowfall_24hr": 0,
      "snowfall_48hr": 2.2,
      "snowfall_7day": 8.2,
      "forecast_text": "A chance of rain before 4pm. Mostly sunny, with a high near 41. South wind around 5 mph. Chance of precipitation is 30%.",
      "last_updated": "2025-11-14T22:46:48.141Z"
    },
    {
      "name": "Diamond Peak",
      "lat": 39.2525,
      "lng": -119.9169,
      "snowfall_24hr": 0,
      "snowfall_48hr": 0.4,
      "snowfall_7day": 3.2,
      "forecast_text": "A chance of rain before 4pm. Mostly sunny, with a high near 44. South wind 0 to 5 mph. Chance of precipitation is 40%.",
      "last_updated": "2025-11-14T22:46:51.202Z"
    },
    {
      "name": "June Mountain",
      "lat": 37.7853,
      "lng": -119.0781,
      "snowfall_24hr": 0,
      "snowfall_48hr": 1.7,
      "snowfall_7day": 5.9,
      "forecast_text": "Showers and thunderstorms likely before 4pm, then a slight chance of rain. Partly sunny, with a high near 47. South wind 0 to 5 mph. Chance of precipitation is 70%. New rainfall amounts between a quarter and half of an inch possible.",
      "last_updated": "2025-11-14T22:46:56.148Z"
    },
    {
      "name": "Bear Mountain",
      "lat": 34.235,
      "lng": -116.865,
      "snowfall_24hr": 0,
      "snowfall_48hr": 0.6,
      "snowfall_7day": 3.9,
      "forecast_text": "Rain showers likely. Mostly cloudy, with a high near 52. South wind 0 to 5 mph. Chance of precipitation is 70%. New rainfall amounts between a tenth and quarter of an inch possible.",
      "last_updated": "2025-11-14T22:46:59.571Z"
    },
    {
      "name": "Snow Summit",
      "lat": 34.2306,
      "lng": -116.8886,
      "snowfall_24hr": 0,
      "snowfall_48hr": 0.7,
      "snowfall_7day": 4.6,
      "forecast_text": "Rain showers likely. Cloudy, with a high near 48. Southwest wind 0 to 5 mph. Chance of precipitation is 70%. New rainfall amounts between a tenth and quarter of an inch possible.",
      "last_updated": "2025-11-14T22:47:03.117Z"
    },
    {
      "name": "Mountain High",
      "lat": 34.3811,
      "lng": -117.6881,
      "snowfall_24hr": 0,
      "snowfall_48hr": 0.2,
      "snowfall_7day": 1.1,
      "forecast_text": "Rain showers before 4pm, then showers and thunderstorms. Cloudy, with a high near 45. South wind 5 to 15 mph, with gusts as high as 20 mph. Chance of precipitation is 80%. New rainfall amounts between a half and three quarters of an inch possible.",
      "last_updated": "2025-11-14T22:47:08.349Z"
    },
    {
      "name": "Ski Santa Fe",
      "lat": 35.7869,
      "lng": -105.7961,
      "snowfall_24hr": 0,
      "snowfall_48hr": 0,
      "snowfall_7day": 4.7,
      "forecast_text": "Sunny. High near 49, with temperatures falling to around 41 in the afternoon. Northwest wind 5 to 10 mph.",
      "last_updated": "2025-11-14T22:47:09.883Z"
    },
    {
      "name": "Angel Fire",
      "lat": 36.3975,
      "lng": -105.2886,
      "snowfall_24hr": 0,
      "snowfall_48hr": 0,
      "snowfall_7day": 0.4,
      "forecast_text": "Sunny. High near 60, with temperatures falling to around 50 in the afternoon. West wind 5 to 10 mph.",
      "last_updated": "2025-11-14T22:47:18.787Z"
    },
    {
      "name": "Whiteface Mountain",
      "lat": 44.3659,
      "lng": -73.9024,
      "snowfall_24hr": 1,
      "snowfall_48hr": 3.1,
      "snowfall_7day": 4.4,
      "forecast_text": "Scattered snow showers. Cloudy, with a high near 24. Northwest wind around 9 mph. Chance of precipitation is 30%. New snow accumulation of less than one inch possible.",
      "last_updated": "2025-11-14T22:47:21.453Z"
    }
  ]
}