{
  "generated_at": "2026-02-23T07:17:44.413Z",
  "total_resorts": 115,
  "data_source": "Open-Meteo",
  "resorts": [
    {
      "name": "Whistler Blackcomb",
      "lat": 50.1163,
      "lng": -122.9574,
      "snowfall_24hr": 1.7,
      "snowfall_48hr": 4.3,
      "snowfall_7day": 9,
      "forecast_text": "1.7\" expected in next 24 hours",
      "last_updated": "2026-02-23T07:17:19.409Z"
    },
    {
      "name": "Vail",
      "lat": 39.6403,
      "lng": -106.3742,
      "snowfall_24hr": 0,
      "snowfall_48hr": 0,
      "snowfall_7day": 2,
      "forecast_text": "2.0\" expected in next 7 days",
      "last_updated": "2026-02-23T07:17:19.626Z"
    },
    {
      "name": "Park City",
      "lat": 40.6514,
      "lng": -111.5079,
      "snowfall_24hr": 0,
      "snowfall_48hr": 0,
      "snowfall_7day": 1.2,
      "forecast_text": "0.0\" expected in next 48 hours",
      "last_updated": "2026-02-23T07:17:19.842Z"
    },
    {
      "name": "Breckenridge",
      "lat": 39.4817,
      "lng": -106.0384,
      "snowfall_24hr": 0,
      "snowfall_48hr": 0,
      "snowfall_7day": 0.5,
      "forecast_text": "0.5\" expected in next 7 days",
      "last_updated": "2026-02-23T07:17:20.059Z"
    },
    {
      "name": "Heavenly",
      "lat": 38.935,
      "lng": -119.9403,
      "snowfall_24hr": 0,
      "snowfall_48hr": 0,
      "snowfall_7day": 0,
      "forecast_text": "No snow expected",
      "last_updated": "2026-02-23T07:17:20.275Z"
    },
    {
      "name": "Aspen Snowmass",
      "lat": 39.1911,
      "lng": -106.8175,
      "snowfall_24hr": 0,
      "snowfall_48hr": 0.2,
      "snowfall_7day": 1.3,
      "forecast_text": "0.2\" expected in next 48 hours",
      "last_updated": "2026-02-23T07:17:20.491Z"
    },
    {
      "name": "Jackson Hole",
      "lat": 43.5875,
      "lng": -110.8278,
      "snowfall_24hr": 0,
      "snowfall_48hr": 5.4,
      "snowfall_7day": 8.6,
      "forecast_text": "5.4\" expected in next 48 hours",
      "last_updated": "2026-02-23T07:17:20.706Z"
    },
    {
      "name": "Banff Sunshine",
      "lat": 51.1158,
      "lng": -115.7631,
      "snowfall_24hr": 1.2,
      "snowfall_48hr": 1.2,
      "snowfall_7day": 2.6,
      "forecast_text": "1.2\" expected in next 24 hours",
      "last_updated": "2026-02-23T07:17:20.922Z"
    },
    {
      "name": "Lake Louise",
      "lat": 51.4254,
      "lng": -116.1773,
      "snowfall_24hr": 1.4,
      "snowfall_48hr": 1.4,
      "snowfall_7day": 2.7,
      "forecast_text": "1.4\" expected in next 24 hours",
      "last_updated": "2026-02-23T07:17:21.137Z"
    },
    {
      "name": "Big Sky",
      "lat": 45.2846,
      "lng": -111.4008,
      "snowfall_24hr": 0,
      "snowfall_48hr": 2,
      "snowfall_7day": 2.1,
      "forecast_text": "2.0\" expected in next 48 hours",
      "last_updated": "2026-02-23T07:17:21.352Z"
    },
    {
      "name": "Steamboat",
      "lat": 40.458,
      "lng": -106.8047,
      "snowfall_24hr": 0,
      "snowfall_48hr": 0.1,
      "snowfall_7day": 0.8,
      "forecast_text": "0.1\" expected in next 48 hours",
      "last_updated": "2026-02-23T07:17:21.567Z"
    },
    {
      "name": "Mammoth Mountain",
      "lat": 37.6308,
      "lng": -119.0326,
      "snowfall_24hr": 0,
      "snowfall_48hr": 0,
      "snowfall_7day": 0.6,
      "forecast_text": "0.6\" expected in next 7 days",
      "last_updated": "2026-02-23T07:17:21.782Z"
    },
    {
      "name": "Squaw Valley",
      "lat": 39.197,
      "lng": -120.2356,
      "snowfall_24hr": 0,
      "snowfall_48hr": 0,
      "snowfall_7day": 0.1,
      "forecast_text": "0.1\" expected in next 7 days",
      "last_updated": "2026-02-23T07:17:21.997Z"
    },
    {
      "name": "Telluride",
      "lat": 37.9375,
      "lng": -107.8123,
      "snowfall_24hr": 0,
      "snowfall_48hr": 0,
      "snowfall_7day": 0.7,
      "forecast_text": "0.7\" expected in next 7 days",
      "last_updated": "2026-02-23T07:17:22.213Z"
    },
    {
      "name": "Sun Valley",
      "lat": 43.6966,
      "lng": -114.3553,
      "snowfall_24hr": 0,
      "snowfall_48hr": 1.4,
      "snowfall_7day": 1.9,
      "forecast_text": "1.4\" expected in next 48 hours",
      "last_updated": "2026-02-23T07:17:22.429Z"
    },
    {
      "name": "Deer Valley",
      "lat": 40.6374,
      "lng": -111.4783,
      "snowfall_24hr": 0,
      "snowfall_48hr": 0.1,
      "snowfall_7day": 0.5,
      "forecast_text": "0.1\" expected in next 48 hours",
      "last_updated": "2026-02-23T07:17:22.643Z"
    },
    {
      "name": "Killington",
      "lat": 43.6046,
      "lng": -72.822,
      "snowfall_24hr": 0,
      "snowfall_48hr": 0,
      "snowfall_7day": 2.4,
      "forecast_text": "2.4\" expected in next 7 days",
      "last_updated": "2026-02-23T07:17:22.859Z"
    },
    {
      "name": "Stowe",
      "lat": 44.5303,
      "lng": -72.7817,
      "snowfall_24hr": 0,
      "snowfall_48hr": 0,
      "snowfall_7day": 1.1,
      "forecast_text": "1.1\" expected in next 7 days",
      "last_updated": "2026-02-23T07:17:23.074Z"
    },
    {
      "name": "Alta",
      "lat": 40.5885,
      "lng": -111.6376,
      "snowfall_24hr": 0,
      "snowfall_48hr": 0.3,
      "snowfall_7day": 2.6,
      "forecast_text": "0.3\" expected in next 48 hours",
      "last_updated": "2026-02-23T07:17:23.289Z"
    },
    {
      "name": "Snowbird",
      "lat": 40.5803,
      "lng": -111.6573,
      "snowfall_24hr": 0,
      "snowfall_48hr": 0.1,
      "snowfall_7day": 2.4,
      "forecast_text": "0.1\" expected in next 48 hours",
      "last_updated": "2026-02-23T07:17:23.503Z"
    },
    {
      "name": "Taos",
      "lat": 36.5924,
      "lng": -105.4467,
      "snowfall_24hr": 0,
      "snowfall_48hr": 0,
      "snowfall_7day": 0,
      "forecast_text": "No snow expected",
      "last_updated": "2026-02-23T07:17:23.718Z"
    },
    {
      "name": "Copper Mountain",
      "lat": 39.5022,
      "lng": -106.1506,
      "snowfall_24hr": 0,
      "snowfall_48hr": 0,
      "snowfall_7day": 0.8,
      "forecast_text": "0.8\" expected in next 7 days",
      "last_updated": "2026-02-23T07:17:23.933Z"
    },
    {
      "name": "Winter Park",
      "lat": 39.8868,
      "lng": -105.7625,
      "snowfall_24hr": 0,
      "snowfall_48hr": 0,
      "snowfall_7day": 1.3,
      "forecast_text": "1.3\" expected in next 7 days",
      "last_updated": "2026-02-23T07:17:24.147Z"
    },
    {
      "name": "Keystone",
      "lat": 39.605,
      "lng": -105.9347,
      "snowfall_24hr": 0,
      "snowfall_48hr": 0,
      "snowfall_7day": 1.1,
      "forecast_text": "1.1\" expected in next 7 days",
      "last_updated": "2026-02-23T07:17:24.362Z"
    },
    {
      "name": "Arapahoe Basin",
      "lat": 39.6426,
      "lng": -105.8717,
      "snowfall_24hr": 0,
      "snowfall_48hr": 0,
      "snowfall_7day": 1.1,
      "forecast_text": "1.1\" expected in next 7 days",
      "last_updated": "2026-02-23T07:17:24.577Z"
    },
    {
      "name": "Crested Butte",
      "lat": 38.8997,
      "lng": -106.9653,
      "snowfall_24hr": 0,
      "snowfall_48hr": 0.1,
      "snowfall_7day": 1.9,
      "forecast_text": "0.1\" expected in next 48 hours",
      "last_updated": "2026-02-23T07:17:24.792Z"
    },
    {
      "name": "Loveland",
      "lat": 39.6803,
      "lng": -105.8978,
      "snowfall_24hr": 0,
      "snowfall_48hr": 0,
      "snowfall_7day": 1.1,
      "forecast_text": "1.1\" expected in next 7 days",
      "last_updated": "2026-02-23T07:17:25.007Z"
    },
    {
      "name": "Mt. Bachelor",
      "lat": 43.979,
      "lng": -121.688,
      "snowfall_24hr": 0.8,
      "snowfall_48hr": 6.5,
      "snowfall_7day": 13.9,
      "forecast_text": "0.8\" expected in next 24 hours",
      "last_updated": "2026-02-23T07:17:25.222Z"
    },
    {
      "name": "Crystal Mountain",
      "lat": 46.9358,
      "lng": -121.4742,
      "snowfall_24hr": 1.3,
      "snowfall_48hr": 5.3,
      "snowfall_7day": 7.2,
      "forecast_text": "1.3\" expected in next 24 hours",
      "last_updated": "2026-02-23T07:17:25.435Z"
    },
    {
      "name": "Stevens Pass",
      "lat": 47.7453,
      "lng": -121.0892,
      "snowfall_24hr": 0.4,
      "snowfall_48hr": 5.1,
      "snowfall_7day": 12.2,
      "forecast_text": "0.4\" expected in next 24 hours",
      "last_updated": "2026-02-23T07:17:25.650Z"
    },
    {
      "name": "Mt. Baker",
      "lat": 48.8597,
      "lng": -121.6686,
      "snowfall_24hr": 3.4,
      "snowfall_48hr": 8.2,
      "snowfall_7day": 17.2,
      "forecast_text": "3.4\" expected in next 24 hours",
      "last_updated": "2026-02-23T07:17:25.865Z"
    },
    {
      "name": "Schweitzer",
      "lat": 48.3642,
      "lng": -116.6228,
      "snowfall_24hr": 0.1,
      "snowfall_48hr": 4.3,
      "snowfall_7day": 6.4,
      "forecast_text": "0.1\" expected in next 24 hours",
      "last_updated": "2026-02-23T07:17:26.080Z"
    },
    {
      "name": "Sun Peaks",
      "lat": 50.8817,
      "lng": -119.8847,
      "snowfall_24hr": 0.1,
      "snowfall_48hr": 0.2,
      "snowfall_7day": 0.4,
      "forecast_text": "0.1\" expected in next 24 hours",
      "last_updated": "2026-02-23T07:17:26.294Z"
    },
    {
      "name": "Revelstoke",
      "lat": 50.9981,
      "lng": -118.1956,
      "snowfall_24hr": 0.6,
      "snowfall_48hr": 1.5,
      "snowfall_7day": 6.8,
      "forecast_text": "0.6\" expected in next 24 hours",
      "last_updated": "2026-02-23T07:17:26.509Z"
    },
    {
      "name": "Fernie",
      "lat": 49.4653,
      "lng": -115.0636,
      "snowfall_24hr": 0.4,
      "snowfall_48hr": 0.5,
      "snowfall_7day": 7.2,
      "forecast_text": "0.4\" expected in next 24 hours",
      "last_updated": "2026-02-23T07:17:26.723Z"
    },
    {
      "name": "Big White",
      "lat": 49.7311,
      "lng": -118.935,
      "snowfall_24hr": 0.1,
      "snowfall_48hr": 1.8,
      "snowfall_7day": 2.9,
      "forecast_text": "0.1\" expected in next 24 hours",
      "last_updated": "2026-02-23T07:17:26.937Z"
    },
    {
      "name": "Kicking Horse",
      "lat": 51.2514,
      "lng": -117.0492,
      "snowfall_24hr": 1.8,
      "snowfall_48hr": 1.8,
      "snowfall_7day": 2.8,
      "forecast_text": "1.8\" expected in next 24 hours",
      "last_updated": "2026-02-23T07:17:27.153Z"
    },
    {
      "name": "Mont Tremblant",
      "lat": 46.2094,
      "lng": -74.5847,
      "snowfall_24hr": 0,
      "snowfall_48hr": 0,
      "snowfall_7day": 1.9,
      "forecast_text": "1.9\" expected in next 7 days",
      "last_updated": "2026-02-23T07:17:27.368Z"
    },
    {
      "name": "Blue Mountain",
      "lat": 44.5075,
      "lng": -80.3231,
      "snowfall_24hr": 0.4,
      "snowfall_48hr": 1.2,
      "snowfall_7day": 1.9,
      "forecast_text": "0.4\" expected in next 24 hours",
      "last_updated": "2026-02-23T07:17:27.583Z"
    },
    {
      "name": "Sugarloaf",
      "lat": 45.0314,
      "lng": -70.3139,
      "snowfall_24hr": 0.7,
      "snowfall_48hr": 0.9,
      "snowfall_7day": 1.8,
      "forecast_text": "0.7\" expected in next 24 hours",
      "last_updated": "2026-02-23T07:17:27.798Z"
    },
    {
      "name": "Sunday River",
      "lat": 44.4697,
      "lng": -70.8561,
      "snowfall_24hr": 0,
      "snowfall_48hr": 0,
      "snowfall_7day": 1,
      "forecast_text": "1.0\" expected in next 7 days",
      "last_updated": "2026-02-23T07:17:28.013Z"
    },
    {
      "name": "Sugarbush",
      "lat": 44.135,
      "lng": -72.9017,
      "snowfall_24hr": 0,
      "snowfall_48hr": 0,
      "snowfall_7day": 1.3,
      "forecast_text": "1.3\" expected in next 7 days",
      "last_updated": "2026-02-23T07:17:28.229Z"
    },
    {
      "name": "Stratton",
      "lat": 43.1133,
      "lng": -72.9083,
      "snowfall_24hr": 0.1,
      "snowfall_48hr": 0.2,
      "snowfall_7day": 3.5,
      "forecast_text": "0.1\" expected in next 24 hours",
      "last_updated": "2026-02-23T07:17:28.443Z"
    },
    {
      "name": "Okemo",
      "lat": 43.4017,
      "lng": -72.7167,
      "snowfall_24hr": 0,
      "snowfall_48hr": 0,
      "snowfall_7day": 2.6,
      "forecast_text": "2.6\" expected in next 7 days",
      "last_updated": "2026-02-23T07:17:28.658Z"
    },
    {
      "name": "Jay Peak",
      "lat": 44.9378,
      "lng": -72.5036,
      "snowfall_24hr": 0,
      "snowfall_48hr": 0,
      "snowfall_7day": 1.2,
      "forecast_text": "1.2\" expected in next 7 days",
      "last_updated": "2026-02-23T07:17:28.874Z"
    },
    {
      "name": "Smugglers' Notch",
      "lat": 44.5458,
      "lng": -72.7872,
      "snowfall_24hr": 0,
      "snowfall_48hr": 0.1,
      "snowfall_7day": 1.3,
      "forecast_text": "0.1\" expected in next 48 hours",
      "last_updated": "2026-02-23T07:17:29.089Z"
    },
    {
      "name": "Loon Mountain",
      "lat": 44.0369,
      "lng": -71.6206,
      "snowfall_24hr": 0.2,
      "snowfall_48hr": 0.2,
      "snowfall_7day": 2.4,
      "forecast_text": "0.2\" expected in next 24 hours",
      "last_updated": "2026-02-23T07:17:29.304Z"
    },
    {
      "name": "Cannon Mountain",
      "lat": 44.1572,
      "lng": -71.6978,
      "snowfall_24hr": 0.3,
      "snowfall_48hr": 0.3,
      "snowfall_7day": 2.5,
      "forecast_text": "0.3\" expected in next 24 hours",
      "last_updated": "2026-02-23T07:17:29.520Z"
    },
    {
      "name": "Wildcat Mountain",
      "lat": 44.2636,
      "lng": -71.2328,
      "snowfall_24hr": 0.3,
      "snowfall_48hr": 0.3,
      "snowfall_7day": 2,
      "forecast_text": "0.3\" expected in next 24 hours",
      "last_updated": "2026-02-23T07:17:29.734Z"
    },
    {
      "name": "Bretton Woods",
      "lat": 44.2633,
      "lng": -71.4439,
      "snowfall_24hr": 0.6,
      "snowfall_48hr": 0.6,
      "snowfall_7day": 2.5,
      "forecast_text": "0.6\" expected in next 24 hours",
      "last_updated": "2026-02-23T07:17:29.953Z"
    },
    {
      "name": "Snowbasin",
      "lat": 41.2156,
      "lng": -111.8567,
      "snowfall_24hr": 0,
      "snowfall_48hr": 0.1,
      "snowfall_7day": 0.1,
      "forecast_text": "0.1\" expected in next 48 hours",
      "last_updated": "2026-02-23T07:17:30.168Z"
    },
    {
      "name": "Powder Mountain",
      "lat": 41.3814,
      "lng": -111.7806,
      "snowfall_24hr": 0,
      "snowfall_48hr": 3.3,
      "snowfall_7day": 3.6,
      "forecast_text": "3.3\" expected in next 48 hours",
      "last_updated": "2026-02-23T07:17:30.383Z"
    },
    {
      "name": "Solitude",
      "lat": 40.62,
      "lng": -111.5917,
      "snowfall_24hr": 0,
      "snowfall_48hr": 0.3,
      "snowfall_7day": 2.1,
      "forecast_text": "0.3\" expected in next 48 hours",
      "last_updated": "2026-02-23T07:17:30.597Z"
    },
    {
      "name": "Brighton",
      "lat": 40.5981,
      "lng": -111.5831,
      "snowfall_24hr": 0,
      "snowfall_48hr": 0.5,
      "snowfall_7day": 2.3,
      "forecast_text": "0.5\" expected in next 48 hours",
      "last_updated": "2026-02-23T07:17:30.811Z"
    },
    {
      "name": "Snowmass",
      "lat": 39.2133,
      "lng": -106.9378,
      "snowfall_24hr": 0,
      "snowfall_48hr": 0.1,
      "snowfall_7day": 0.9,
      "forecast_text": "0.1\" expected in next 48 hours",
      "last_updated": "2026-02-23T07:17:31.026Z"
    },
    {
      "name": "Aspen Highlands",
      "lat": 39.1825,
      "lng": -106.8553,
      "snowfall_24hr": 0,
      "snowfall_48hr": 0.2,
      "snowfall_7day": 1.3,
      "forecast_text": "0.2\" expected in next 48 hours",
      "last_updated": "2026-02-23T07:17:31.240Z"
    },
    {
      "name": "Buttermilk",
      "lat": 39.2078,
      "lng": -106.8608,
      "snowfall_24hr": 0,
      "snowfall_48hr": 0.2,
      "snowfall_7day": 1.3,
      "forecast_text": "0.2\" expected in next 48 hours",
      "last_updated": "2026-02-23T07:17:31.456Z"
    },
    {
      "name": "Beaver Creek",
      "lat": 39.6042,
      "lng": -106.5164,
      "snowfall_24hr": 0,
      "snowfall_48hr": 0,
      "snowfall_7day": 1,
      "forecast_text": "1.0\" expected in next 7 days",
      "last_updated": "2026-02-23T07:17:31.670Z"
    },
    {
      "name": "Purgatory",
      "lat": 37.6303,
      "lng": -107.8139,
      "snowfall_24hr": 0,
      "snowfall_48hr": 0,
      "snowfall_7day": 0,
      "forecast_text": "No snow expected",
      "last_updated": "2026-02-23T07:17:31.884Z"
    },
    {
      "name": "Wolf Creek",
      "lat": 37.4722,
      "lng": -106.7931,
      "snowfall_24hr": 0,
      "snowfall_48hr": 0,
      "snowfall_7day": 0,
      "forecast_text": "No snow expected",
      "last_updated": "2026-02-23T07:17:32.099Z"
    },
    {
      "name": "Monarch Mountain",
      "lat": 38.5117,
      "lng": -106.3317,
      "snowfall_24hr": 0,
      "snowfall_48hr": 0,
      "snowfall_7day": 0.5,
      "forecast_text": "0.5\" expected in next 7 days",
      "last_updated": "2026-02-23T07:17:32.313Z"
    },
    {
      "name": "Eldora",
      "lat": 39.9372,
      "lng": -105.5828,
      "snowfall_24hr": 0,
      "snowfall_48hr": 0,
      "snowfall_7day": 0.9,
      "forecast_text": "0.9\" expected in next 7 days",
      "last_updated": "2026-02-23T07:17:32.528Z"
    },
    {
      "name": "Grand Targhee",
      "lat": 43.7886,
      "lng": -110.9586,
      "snowfall_24hr": 0,
      "snowfall_48hr": 5.9,
      "snowfall_7day": 7.6,
      "forecast_text": "5.9\" expected in next 48 hours",
      "last_updated": "2026-02-23T07:17:32.742Z"
    },
    {
      "name": "Snow King",
      "lat": 43.4783,
      "lng": -110.7628,
      "snowfall_24hr": 0,
      "snowfall_48hr": 4.3,
      "snowfall_7day": 6.9,
      "forecast_text": "4.3\" expected in next 48 hours",
      "last_updated": "2026-02-23T07:17:32.956Z"
    },
    {
      "name": "Bridger Bowl",
      "lat": 45.8167,
      "lng": -110.8969,
      "snowfall_24hr": 0,
      "snowfall_48hr": 2.6,
      "snowfall_7day": 4,
      "forecast_text": "2.6\" expected in next 48 hours",
      "last_updated": "2026-02-23T07:17:33.171Z"
    },
    {
      "name": "Big Mountain",
      "lat": 48.4928,
      "lng": -114.3483,
      "snowfall_24hr": 1.9,
      "snowfall_48hr": 2.6,
      "snowfall_7day": 6,
      "forecast_text": "1.9\" expected in next 24 hours",
      "last_updated": "2026-02-23T07:17:33.385Z"
    },
    {
      "name": "Snowbowl",
      "lat": 46.9417,
      "lng": -113.9492,
      "snowfall_24hr": 0.4,
      "snowfall_48hr": 2.1,
      "snowfall_7day": 3,
      "forecast_text": "0.4\" expected in next 24 hours",
      "last_updated": "2026-02-23T07:17:33.600Z"
    },
    {
      "name": "Bogus Basin",
      "lat": 43.7725,
      "lng": -116.0939,
      "snowfall_24hr": 0.1,
      "snowfall_48hr": 8.1,
      "snowfall_7day": 8.2,
      "forecast_text": "0.1\" expected in next 24 hours",
      "last_updated": "2026-02-23T07:17:33.814Z"
    },
    {
      "name": "Tamarack",
      "lat": 44.6922,
      "lng": -116.1344,
      "snowfall_24hr": 0.5,
      "snowfall_48hr": 7,
      "snowfall_7day": 7.1,
      "forecast_text": "0.5\" expected in next 24 hours",
      "last_updated": "2026-02-23T07:17:34.029Z"
    },
    {
      "name": "Silver Mountain",
      "lat": 47.6764,
      "lng": -116.0703,
      "snowfall_24hr": 0,
      "snowfall_48hr": 0.3,
      "snowfall_7day": 2.2,
      "forecast_text": "0.3\" expected in next 48 hours",
      "last_updated": "2026-02-23T07:17:34.244Z"
    },
    {
      "name": "Mt. Hood Meadows",
      "lat": 45.3319,
      "lng": -121.6653,
      "snowfall_24hr": 2.8,
      "snowfall_48hr": 8.8,
      "snowfall_7day": 15.1,
      "forecast_text": "2.8\" expected in next 24 hours",
      "last_updated": "2026-02-23T07:17:34.457Z"
    },
    {
      "name": "Timberline",
      "lat": 45.3306,
      "lng": -121.7108,
      "snowfall_24hr": 2.8,
      "snowfall_48hr": 10.2,
      "snowfall_7day": 17,
      "forecast_text": "2.8\" expected in next 24 hours",
      "last_updated": "2026-02-23T07:17:34.672Z"
    },
    {
      "name": "Willamette Pass",
      "lat": 43.6006,
      "lng": -122.0336,
      "snowfall_24hr": 0,
      "snowfall_48hr": 0.7,
      "snowfall_7day": 2.1,
      "forecast_text": "0.7\" expected in next 48 hours",
      "last_updated": "2026-02-23T07:17:34.886Z"
    },
    {
      "name": "Mission Ridge",
      "lat": 47.2917,
      "lng": -120.3997,
      "snowfall_24hr": 0.1,
      "snowfall_48hr": 2.7,
      "snowfall_7day": 2.9,
      "forecast_text": "0.1\" expected in next 24 hours",
      "last_updated": "2026-02-23T07:17:35.101Z"
    },
    {
      "name": "Snoqualmie",
      "lat": 47.4219,
      "lng": -121.4136,
      "snowfall_24hr": 0.2,
      "snowfall_48hr": 1.9,
      "snowfall_7day": 9.2,
      "forecast_text": "0.2\" expected in next 24 hours",
      "last_updated": "2026-02-23T07:17:35.316Z"
    },
    {
      "name": "Mt. Spokane",
      "lat": 47.9208,
      "lng": -117.0856,
      "snowfall_24hr": 0,
      "snowfall_48hr": 1.4,
      "snowfall_7day": 2.6,
      "forecast_text": "1.4\" expected in next 48 hours",
      "last_updated": "2026-02-23T07:17:35.531Z"
    },
    {
      "name": "White Pass",
      "lat": 46.6394,
      "lng": -121.3908,
      "snowfall_24hr": 0.9,
      "snowfall_48hr": 6.4,
      "snowfall_7day": 9.8,
      "forecast_text": "0.9\" expected in next 24 hours",
      "last_updated": "2026-02-23T07:17:35.745Z"
    },
    {
      "name": "49 Degrees North",
      "lat": 48.7511,
      "lng": -117.6369,
      "snowfall_24hr": 0,
      "snowfall_48hr": 0,
      "snowfall_7day": 1.1,
      "forecast_text": "1.1\" expected in next 7 days",
      "last_updated": "2026-02-23T07:17:35.960Z"
    },
    {
      "name": "Red Mountain",
      "lat": 49.0917,
      "lng": -117.8233,
      "snowfall_24hr": 0.2,
      "snowfall_48hr": 2.1,
      "snowfall_7day": 3.6,
      "forecast_text": "0.2\" expected in next 24 hours",
      "last_updated": "2026-02-23T07:17:36.175Z"
    },
    {
      "name": "Whitewater",
      "lat": 49.5394,
      "lng": -117.2717,
      "snowfall_24hr": 0,
      "snowfall_48hr": 0.1,
      "snowfall_7day": 4.1,
      "forecast_text": "0.1\" expected in next 48 hours",
      "last_updated": "2026-02-23T07:17:36.389Z"
    },
    {
      "name": "Panorama",
      "lat": 50.8036,
      "lng": -116.0533,
      "snowfall_24hr": 0.6,
      "snowfall_48hr": 0.6,
      "snowfall_7day": 1.2,
      "forecast_text": "0.6\" expected in next 24 hours",
      "last_updated": "2026-02-23T07:17:36.606Z"
    },
    {
      "name": "Marmot Basin",
      "lat": 52.8236,
      "lng": -118.0747,
      "snowfall_24hr": 1.4,
      "snowfall_48hr": 1.4,
      "snowfall_7day": 3.1,
      "forecast_text": "1.4\" expected in next 24 hours",
      "last_updated": "2026-02-23T07:17:36.821Z"
    },
    {
      "name": "Nakiska",
      "lat": 50.98,
      "lng": -115.0733,
      "snowfall_24hr": 0.4,
      "snowfall_48hr": 0.4,
      "snowfall_7day": 2.1,
      "forecast_text": "0.4\" expected in next 24 hours",
      "last_updated": "2026-02-23T07:17:37.035Z"
    },
    {
      "name": "Castle Mountain",
      "lat": 49.4058,
      "lng": -114.5169,
      "snowfall_24hr": 2.7,
      "snowfall_48hr": 2.7,
      "snowfall_7day": 6.6,
      "forecast_text": "2.7\" expected in next 24 hours",
      "last_updated": "2026-02-23T07:17:37.250Z"
    },
    {
      "name": "Norquay",
      "lat": 51.1967,
      "lng": -115.5531,
      "snowfall_24hr": 0.6,
      "snowfall_48hr": 0.6,
      "snowfall_7day": 2.3,
      "forecast_text": "0.6\" expected in next 24 hours",
      "last_updated": "2026-02-23T07:17:37.464Z"
    },
    {
      "name": "Le Massif",
      "lat": 47.3136,
      "lng": -70.6358,
      "snowfall_24hr": 0,
      "snowfall_48hr": 0,
      "snowfall_7day": 0.9,
      "forecast_text": "0.9\" expected in next 7 days",
      "last_updated": "2026-02-23T07:17:37.679Z"
    },
    {
      "name": "Calabogie",
      "lat": 45.2906,
      "lng": -76.7019,
      "snowfall_24hr": 0,
      "snowfall_48hr": 0,
      "snowfall_7day": 1,
      "forecast_text": "1.0\" expected in next 7 days",
      "last_updated": "2026-02-23T07:17:37.894Z"
    },
    {
      "name": "Sierra-at-Tahoe",
      "lat": 38.7986,
      "lng": -120.0828,
      "snowfall_24hr": 0,
      "snowfall_48hr": 0,
      "snowfall_7day": 0,
      "forecast_text": "0.0\" expected in next 7 days",
      "last_updated": "2026-02-23T07:17:38.109Z"
    },
    {
      "name": "Kirkwood",
      "lat": 38.6867,
      "lng": -120.0656,
      "snowfall_24hr": 0,
      "snowfall_48hr": 0,
      "snowfall_7day": 0.1,
      "forecast_text": "0.1\" expected in next 7 days",
      "last_updated": "2026-02-23T07:17:38.331Z"
    },
    {
      "name": "Northstar",
      "lat": 39.2733,
      "lng": -120.1211,
      "snowfall_24hr": 0,
      "snowfall_48hr": 0,
      "snowfall_7day": 0,
      "forecast_text": "No snow expected",
      "last_updated": "2026-02-23T07:17:38.546Z"
    },
    {
      "name": "Homewood",
      "lat": 39.0833,
      "lng": -120.1667,
      "snowfall_24hr": 0,
      "snowfall_48hr": 0,
      "snowfall_7day": 0.1,
      "forecast_text": "0.1\" expected in next 7 days",
      "last_updated": "2026-02-23T07:17:38.760Z"
    },
    {
      "name": "Mt. Rose",
      "lat": 39.3397,
      "lng": -119.8894,
      "snowfall_24hr": 0,
      "snowfall_48hr": 0,
      "snowfall_7day": 0,
      "forecast_text": "No snow expected",
      "last_updated": "2026-02-23T07:17:38.974Z"
    },
    {
      "name": "Diamond Peak",
      "lat": 39.2525,
      "lng": -119.9169,
      "snowfall_24hr": 0,
      "snowfall_48hr": 0,
      "snowfall_7day": 0,
      "forecast_text": "No snow expected",
      "last_updated": "2026-02-23T07:17:39.189Z"
    },
    {
      "name": "June Mountain",
      "lat": 37.7853,
      "lng": -119.0781,
      "snowfall_24hr": 0,
      "snowfall_48hr": 0,
      "snowfall_7day": 0.1,
      "forecast_text": "0.1\" expected in next 7 days",
      "last_updated": "2026-02-23T07:17:39.404Z"
    },
    {
      "name": "Bear Mountain",
      "lat": 34.235,
      "lng": -116.865,
      "snowfall_24hr": 0,
      "snowfall_48hr": 0,
      "snowfall_7day": 0,
      "forecast_text": "No snow expected",
      "last_updated": "2026-02-23T07:17:39.619Z"
    },
    {
      "name": "Snow Summit",
      "lat": 34.2306,
      "lng": -116.8886,
      "snowfall_24hr": 0,
      "snowfall_48hr": 0,
      "snowfall_7day": 0,
      "forecast_text": "No snow expected",
      "last_updated": "2026-02-23T07:17:39.833Z"
    },
    {
      "name": "Mountain High",
      "lat": 34.3811,
      "lng": -117.6881,
      "snowfall_24hr": 0,
      "snowfall_48hr": 0,
      "snowfall_7day": 0,
      "forecast_text": "No snow expected",
      "last_updated": "2026-02-23T07:17:40.048Z"
    },
    {
      "name": "Ski Santa Fe",
      "lat": 35.7869,
      "lng": -105.7961,
      "snowfall_24hr": 0,
      "snowfall_48hr": 0,
      "snowfall_7day": 0,
      "forecast_text": "No snow expected",
      "last_updated": "2026-02-23T07:17:40.264Z"
    },
    {
      "name": "Angel Fire",
      "lat": 36.3975,
      "lng": -105.2886,
      "snowfall_24hr": 0,
      "snowfall_48hr": 0,
      "snowfall_7day": 0,
      "forecast_text": "No snow expected",
      "last_updated": "2026-02-23T07:17:40.478Z"
    },
    {
      "name": "Whiteface Mountain",
      "lat": 44.3659,
      "lng": -73.9024,
      "snowfall_24hr": 0,
      "snowfall_48hr": 0,
      "snowfall_7day": 0.9,
      "forecast_text": "0.9\" expected in next 7 days",
      "last_updated": "2026-02-23T07:17:40.696Z"
    },
    {
      "name": "Bristol Mountain",
      "lat": 42.7455,
      "lng": -77.4016,
      "snowfall_24hr": 1,
      "snowfall_48hr": 1.2,
      "snowfall_7day": 3.2,
      "forecast_text": "1.0\" expected in next 24 hours",
      "last_updated": "2026-02-23T07:17:41.261Z"
    },
    {
      "name": "Revelstoke Mountain Resort",
      "lat": 50.9981,
      "lng": -118.1958,
      "snowfall_24hr": 0.6,
      "snowfall_48hr": 1.5,
      "snowfall_7day": 6.8,
      "forecast_text": "0.6\" expected in next 24 hours",
      "last_updated": "2026-02-23T07:17:41.480Z"
    },
    {
      "name": "Big White Ski Resort",
      "lat": 49.7308,
      "lng": -118.9357,
      "snowfall_24hr": 0.1,
      "snowfall_48hr": 1.8,
      "snowfall_7day": 2.9,
      "forecast_text": "0.1\" expected in next 24 hours",
      "last_updated": "2026-02-23T07:17:41.698Z"
    },
    {
      "name": "Sun Peaks Resort",
      "lat": 50.8847,
      "lng": -119.8892,
      "snowfall_24hr": 0.1,
      "snowfall_48hr": 0.2,
      "snowfall_7day": 0.4,
      "forecast_text": "0.1\" expected in next 24 hours",
      "last_updated": "2026-02-23T07:17:41.916Z"
    },
    {
      "name": "Fernie Alpine Resort",
      "lat": 49.4651,
      "lng": -115.0764,
      "snowfall_24hr": 0.4,
      "snowfall_48hr": 0.5,
      "snowfall_7day": 7.2,
      "forecast_text": "0.4\" expected in next 24 hours",
      "last_updated": "2026-02-23T07:17:42.133Z"
    },
    {
      "name": "Kicking Horse Mountain Resort",
      "lat": 51.2983,
      "lng": -116.955,
      "snowfall_24hr": 1.5,
      "snowfall_48hr": 1.5,
      "snowfall_7day": 2.2,
      "forecast_text": "1.5\" expected in next 24 hours",
      "last_updated": "2026-02-23T07:17:42.352Z"
    },
    {
      "name": "Panorama Mountain Resort",
      "lat": 50.9806,
      "lng": -116.0972,
      "snowfall_24hr": 0.7,
      "snowfall_48hr": 0.8,
      "snowfall_7day": 1.9,
      "forecast_text": "0.7\" expected in next 24 hours",
      "last_updated": "2026-02-23T07:17:42.569Z"
    },
    {
      "name": "RED Mountain Resort",
      "lat": 49.0878,
      "lng": -117.8197,
      "snowfall_24hr": 0.2,
      "snowfall_48hr": 1.7,
      "snowfall_7day": 3.2,
      "forecast_text": "0.2\" expected in next 24 hours",
      "last_updated": "2026-02-23T07:17:42.787Z"
    },
    {
      "name": "SilverStar Mountain Resort",
      "lat": 50.4,
      "lng": -119.0833,
      "snowfall_24hr": 0.2,
      "snowfall_48hr": 1,
      "snowfall_7day": 1.2,
      "forecast_text": "0.2\" expected in next 24 hours",
      "last_updated": "2026-02-23T07:17:43.005Z"
    },
    {
      "name": "Lake Louise Ski Resort",
      "lat": 51.4254,
      "lng": -116.1773,
      "snowfall_24hr": 1.4,
      "snowfall_48hr": 1.4,
      "snowfall_7day": 2.7,
      "forecast_text": "1.4\" expected in next 24 hours",
      "last_updated": "2026-02-23T07:17:43.222Z"
    },
    {
      "name": "Sunshine Village",
      "lat": 51.1128,
      "lng": -115.7631,
      "snowfall_24hr": 1.2,
      "snowfall_48hr": 1.2,
      "snowfall_7day": 2.6,
      "forecast_text": "1.2\" expected in next 24 hours",
      "last_updated": "2026-02-23T07:17:43.439Z"
    },
    {
      "name": "Mount Norquay",
      "lat": 51.2094,
      "lng": -115.5797,
      "snowfall_24hr": 0.7,
      "snowfall_48hr": 0.7,
      "snowfall_7day": 2.3,
      "forecast_text": "0.7\" expected in next 24 hours",
      "last_updated": "2026-02-23T07:17:43.657Z"
    },
    {
      "name": "Nakiska Ski Area",
      "lat": 50.9042,
      "lng": -115.0856,
      "snowfall_24hr": 1.2,
      "snowfall_48hr": 1.2,
      "snowfall_7day": 2.5,
      "forecast_text": "1.2\" expected in next 24 hours",
      "last_updated": "2026-02-23T07:17:43.876Z"
    },
    {
      "name": "Le Massif de Charlevoix",
      "lat": 47.3389,
      "lng": -70.6375,
      "snowfall_24hr": 0,
      "snowfall_48hr": 0,
      "snowfall_7day": 0.3,
      "forecast_text": "0.3\" expected in next 7 days",
      "last_updated": "2026-02-23T07:17:44.094Z"
    },
    {
      "name": "Blue Mountain Resort",
      "lat": 44.5067,
      "lng": -80.3158,
      "snowfall_24hr": 0.4,
      "snowfall_48hr": 1.2,
      "snowfall_7day": 1.9,
      "forecast_text": "0.4\" expected in next 24 hours",
      "last_updated": "2026-02-23T07:17:44.312Z"
    }
  ]
}