{
  "generated_at": "2025-11-14T18:44:31.001Z",
  "total_resorts": 100,
  "resorts": [
    {
      "name": "Whistler Blackcomb",
      "lat": 50.1163,
      "lng": -122.9574,
      "snowfall_24hr": 0,
      "snowfall_48hr": 0,
      "snowfall_7day": 0,
      "forecast_text": "Data unavailable",
      "last_updated": "2025-11-14T18:37:43.874Z",
      "error": "Point API failed: 404"
    },
    {
      "name": "Vail",
      "lat": 39.6403,
      "lng": -106.3742,
      "snowfall_24hr": 0,
      "snowfall_48hr": 0,
      "snowfall_7day": 0,
      "forecast_text": "Mostly sunny, with a high near 57. West wind around 5 mph, with gusts as high as 20 mph.",
      "last_updated": "2025-11-14T18:37:49.813Z"
    },
    {
      "name": "Park City",
      "lat": 40.6514,
      "lng": -111.5079,
      "snowfall_24hr": 0,
      "snowfall_48hr": 0,
      "snowfall_7day": 1.5,
      "forecast_text": "A chance of rain before 2pm. Mostly cloudy. High near 57, with temperatures falling to around 52 in the afternoon. South southwest wind 6 to 10 mph. Chance of precipitation is 30%.",
      "last_updated": "2025-11-14T18:37:53.249Z"
    },
    {
      "name": "Breckenridge",
      "lat": 39.4817,
      "lng": -106.0384,
      "snowfall_24hr": 0,
      "snowfall_48hr": 0,
      "snowfall_7day": 1.5,
      "forecast_text": "Mostly sunny. High near 55, with temperatures falling to around 48 in the afternoon. West wind around 10 mph, with gusts as high as 16 mph.",
      "last_updated": "2025-11-14T18:37:55.134Z"
    },
    {
      "name": "Heavenly",
      "lat": 38.935,
      "lng": -119.9403,
      "snowfall_24hr": 0,
      "snowfall_48hr": 0,
      "snowfall_7day": 3.5,
      "forecast_text": "Rain likely before 4pm. Partly sunny, with a high near 44. South wind 0 to 5 mph. Chance of precipitation is 70%.",
      "last_updated": "2025-11-14T18:37:56.258Z"
    },
    {
      "name": "Aspen Snowmass",
      "lat": 39.1911,
      "lng": -106.8175,
      "snowfall_24hr": 0,
      "snowfall_48hr": 0,
      "snowfall_7day": 0,
      "forecast_text": "Mostly sunny, with a high near 62. West wind around 5 mph.",
      "last_updated": "2025-11-14T18:37:59.234Z"
    },
    {
      "name": "Jackson Hole",
      "lat": 43.5875,
      "lng": -110.8278,
      "snowfall_24hr": 0,
      "snowfall_48hr": 0,
      "snowfall_7day": 0,
      "forecast_text": "Scattered rain showers. Mostly cloudy. High near 52, with temperatures falling to around 45 in the afternoon. Southwest wind 9 to 14 mph, with gusts as high as 22 mph. Chance of precipitation is 50%. New rainfall amounts between a tenth and quarter of an inch possible.",
      "last_updated": "2025-11-14T18:38:03.243Z"
    },
    {
      "name": "Banff Sunshine",
      "lat": 51.1158,
      "lng": -115.7631,
      "snowfall_24hr": 0,
      "snowfall_48hr": 0,
      "snowfall_7day": 0,
      "forecast_text": "Data unavailable",
      "last_updated": "2025-11-14T18:38:04.216Z",
      "error": "Point API failed: 404"
    },
    {
      "name": "Lake Louise",
      "lat": 51.4254,
      "lng": -116.1773,
      "snowfall_24hr": 0,
      "snowfall_48hr": 0,
      "snowfall_7day": 0,
      "forecast_text": "Data unavailable",
      "last_updated": "2025-11-14T18:38:08.814Z",
      "error": "Point API failed: 404"
    },
    {
      "name": "Big Sky",
      "lat": 45.2846,
      "lng": -111.4008,
      "snowfall_24hr": 0,
      "snowfall_48hr": 0,
      "snowfall_7day": 0,
      "forecast_text": "Rain likely before 5pm, then a slight chance of rain and snow. Cloudy, with a high near 40. Southwest wind 13 to 17 mph, with gusts as high as 36 mph. Chance of precipitation is 60%.",
      "last_updated": "2025-11-14T18:38:10.339Z"
    },
    {
      "name": "Steamboat",
      "lat": 40.458,
      "lng": -106.8047,
      "snowfall_24hr": 0,
      "snowfall_48hr": 0,
      "snowfall_7day": 0,
      "forecast_text": "Mostly sunny, with a high near 61. West wind 5 to 10 mph, with gusts as high as 25 mph.",
      "last_updated": "2025-11-14T18:38:11.268Z"
    },
    {
      "name": "Mammoth Mountain",
      "lat": 37.6308,
      "lng": -119.0326,
      "snowfall_24hr": 2,
      "snowfall_48hr": 9,
      "snowfall_7day": 35,
      "forecast_text": "Snow before 1pm, then a chance of snow showers and a slight chance of thunderstorms between 1pm and 4pm. Mostly cloudy. High near 34, with temperatures falling to around 31 in the afternoon. Wind chill values as low as 21. South southwest wind around 15 mph, with gusts as high as 25 mph. Chance of precipitation is 90%. New snow accumulation of 1 to 3 inches possible.",
      "last_updated": "2025-11-14T18:38:23.839Z"
    },
    {
      "name": "Squaw Valley",
      "lat": 39.197,
      "lng": -120.2356,
      "snowfall_24hr": 0,
      "snowfall_48hr": 0,
      "snowfall_7day": 3.5,
      "forecast_text": "Rain and snow likely. Partly sunny, with a high near 48. South wind around 0 mph. Chance of precipitation is 70%.",
      "last_updated": "2025-11-14T18:38:26.121Z"
    },
    {
      "name": "Telluride",
      "lat": 37.9375,
      "lng": -107.8123,
      "snowfall_24hr": 0,
      "snowfall_48hr": 0,
      "snowfall_7day": 3.5,
      "forecast_text": "Mostly sunny, with a high near 55. Southwest wind around 5 mph.",
      "last_updated": "2025-11-14T18:38:27.819Z"
    },
    {
      "name": "Sun Valley",
      "lat": 43.6966,
      "lng": -114.3553,
      "snowfall_24hr": 0,
      "snowfall_48hr": 0,
      "snowfall_7day": 0,
      "forecast_text": "A chance of rain showers before 1pm. Mostly cloudy. High near 52, with temperatures falling to around 48 in the afternoon. South southeast wind around 8 mph. Chance of precipitation is 30%.",
      "last_updated": "2025-11-14T18:38:39.410Z"
    },
    {
      "name": "Deer Valley",
      "lat": 40.6374,
      "lng": -111.4783,
      "snowfall_24hr": 0,
      "snowfall_48hr": 0,
      "snowfall_7day": 4.5,
      "forecast_text": "A chance of rain before 2pm. Mostly cloudy. High near 53, with temperatures falling to around 48 in the afternoon. South southwest wind 7 to 12 mph. Chance of precipitation is 30%.",
      "last_updated": "2025-11-14T18:38:48.899Z"
    },
    {
      "name": "Killington",
      "lat": 43.6046,
      "lng": -72.822,
      "snowfall_24hr": 0,
      "snowfall_48hr": 0,
      "snowfall_7day": 0,
      "forecast_text": "Mostly cloudy, with a high near 26. Northwest wind around 12 mph.",
      "last_updated": "2025-11-14T18:38:52.978Z"
    },
    {
      "name": "Stowe",
      "lat": 44.5303,
      "lng": -72.7817,
      "snowfall_24hr": 1.5,
      "snowfall_48hr": 1.5,
      "snowfall_7day": 14,
      "forecast_text": "A chance of snow showers. Mostly cloudy, with a high near 28. Northwest wind around 8 mph. Chance of precipitation is 30%. New snow accumulation of less than one inch possible.",
      "last_updated": "2025-11-14T18:38:54.092Z"
    },
    {
      "name": "Alta",
      "lat": 40.5885,
      "lng": -111.6376,
      "snowfall_24hr": 0,
      "snowfall_48hr": 0,
      "snowfall_7day": 36.5,
      "forecast_text": "A chance of snow before 2pm. Mostly cloudy. High near 44, with temperatures falling to around 41 in the afternoon. South southwest wind around 10 mph. Chance of precipitation is 30%.",
      "last_updated": "2025-11-14T18:38:58.579Z"
    },
    {
      "name": "Snowbird",
      "lat": 40.5803,
      "lng": -111.6573,
      "snowfall_24hr": 0,
      "snowfall_48hr": 0,
      "snowfall_7day": 26.5,
      "forecast_text": "A chance of rain and snow before 2pm. Mostly cloudy. High near 49, with temperatures falling to around 46 in the afternoon. South southwest wind 7 to 10 mph. Chance of precipitation is 30%.",
      "last_updated": "2025-11-14T18:39:00.115Z"
    },
    {
      "name": "Taos",
      "lat": 36.5924,
      "lng": -105.4467,
      "snowfall_24hr": 0,
      "snowfall_48hr": 0,
      "snowfall_7day": 5,
      "forecast_text": "Sunny. High near 50, with temperatures falling to around 40 in the afternoon. Southwest wind 5 to 10 mph.",
      "last_updated": "2025-11-14T18:39:01.173Z"
    },
    {
      "name": "Copper Mountain",
      "lat": 39.5022,
      "lng": -106.1506,
      "snowfall_24hr": 0,
      "snowfall_48hr": 0,
      "snowfall_7day": 3.5,
      "forecast_text": "Mostly sunny. High near 52, with temperatures falling to around 43 in the afternoon. West southwest wind 9 to 13 mph, with gusts as high as 21 mph.",
      "last_updated": "2025-11-14T18:39:03.805Z"
    },
    {
      "name": "Winter Park",
      "lat": 39.8868,
      "lng": -105.7625,
      "snowfall_24hr": 0,
      "snowfall_48hr": 0,
      "snowfall_7day": 5,
      "forecast_text": "Mostly sunny. High near 52, with temperatures falling to around 46 in the afternoon. West wind around 14 mph, with gusts as high as 22 mph.",
      "last_updated": "2025-11-14T18:39:13.060Z"
    },
    {
      "name": "Keystone",
      "lat": 39.605,
      "lng": -105.9347,
      "snowfall_24hr": 0,
      "snowfall_48hr": 0,
      "snowfall_7day": 3,
      "forecast_text": "Mostly sunny. High near 55, with temperatures falling to around 48 in the afternoon. West wind 8 to 12 mph, with gusts as high as 18 mph.",
      "last_updated": "2025-11-14T18:39:19.483Z"
    },
    {
      "name": "Arapahoe Basin",
      "lat": 39.6426,
      "lng": -105.8717,
      "snowfall_24hr": 0,
      "snowfall_48hr": 0,
      "snowfall_7day": 9.5,
      "forecast_text": "Mostly sunny. High near 49, with temperatures falling to around 44 in the afternoon. West southwest wind around 15 mph, with gusts as high as 24 mph.",
      "last_updated": "2025-11-14T18:39:28.308Z"
    },
    {
      "name": "Crested Butte",
      "lat": 38.8997,
      "lng": -106.9653,
      "snowfall_24hr": 0,
      "snowfall_48hr": 0,
      "snowfall_7day": 1.5,
      "forecast_text": "Mostly sunny, with a high near 52. West wind 5 to 10 mph.",
      "last_updated": "2025-11-14T18:39:36.282Z"
    },
    {
      "name": "Loveland",
      "lat": 39.6803,
      "lng": -105.8978,
      "snowfall_24hr": 0,
      "snowfall_48hr": 0,
      "snowfall_7day": 9.5,
      "forecast_text": "Mostly sunny. High near 41, with temperatures falling to around 37 in the afternoon. West wind 13 to 16 mph, with gusts as high as 25 mph.",
      "last_updated": "2025-11-14T18:39:37.462Z"
    },
    {
      "name": "Mt. Bachelor",
      "lat": 43.979,
      "lng": -121.688,
      "snowfall_24hr": 0,
      "snowfall_48hr": 0,
      "snowfall_7day": 8,
      "forecast_text": "A slight chance of snow between 1pm and 4pm. Mostly sunny. High near 38, with temperatures falling to around 35 in the afternoon. West wind around 8 mph. Chance of precipitation is 20%. New rainfall amounts less than a tenth of an inch possible.",
      "last_updated": "2025-11-14T18:39:41.433Z"
    },
    {
      "name": "Crystal Mountain",
      "lat": 46.9358,
      "lng": -121.4742,
      "snowfall_24hr": 0,
      "snowfall_48hr": 0,
      "snowfall_7day": 11,
      "forecast_text": "Rain and snow likely before noon, then rain and snow likely between noon and 1pm, then rain and snow between 1pm and 3pm, then rain and snow. Mostly cloudy, with a high near 38. Wind chill values as low as 25. South southwest wind 14 to 21 mph, with gusts as high as 25 mph. Chance of precipitation is 90%. New rainfall amounts between a tenth and quarter of an inch possible.",
      "last_updated": "2025-11-14T18:39:42.987Z"
    },
    {
      "name": "Stevens Pass",
      "lat": 47.7453,
      "lng": -121.0892,
      "snowfall_24hr": 0,
      "snowfall_48hr": 0,
      "snowfall_7day": 6.5,
      "forecast_text": "Rain and snow before 1pm, then rain and snow. Cloudy, with a high near 40. Southwest wind 10 to 16 mph, with gusts as high as 22 mph. Chance of precipitation is 90%. New rainfall amounts between a half and three quarters of an inch possible.",
      "last_updated": "2025-11-14T18:39:44.298Z"
    },
    {
      "name": "Mt. Baker",
      "lat": 48.8597,
      "lng": -121.6686,
      "snowfall_24hr": 0,
      "snowfall_48hr": 0,
      "snowfall_7day": 6.5,
      "forecast_text": "Rain and snow before 2pm, then rain and snow. Cloudy. High near 39, with temperatures falling to around 37 in the afternoon. South southeast wind 1 to 9 mph, with gusts as high as 22 mph. Chance of precipitation is 90%. New snow accumulation of less than half an inch possible.",
      "last_updated": "2025-11-14T18:39:48.410Z"
    },
    {
      "name": "Schweitzer",
      "lat": 48.3642,
      "lng": -116.6228,
      "snowfall_24hr": 0,
      "snowfall_48hr": 0,
      "snowfall_7day": 3.5,
      "forecast_text": "Rain and snow. Cloudy, with a high near 39. Southwest wind around 12 mph, with gusts as high as 22 mph. Chance of precipitation is 100%. New rainfall amounts between a half and three quarters of an inch possible.",
      "last_updated": "2025-11-14T18:39:51.650Z"
    },
    {
      "name": "Sun Peaks",
      "lat": 50.8817,
      "lng": -119.8847,
      "snowfall_24hr": 0,
      "snowfall_48hr": 0,
      "snowfall_7day": 0,
      "forecast_text": "Data unavailable",
      "last_updated": "2025-11-14T18:39:51.985Z",
      "error": "Point API failed: 404"
    },
    {
      "name": "Revelstoke",
      "lat": 50.9981,
      "lng": -118.1956,
      "snowfall_24hr": 0,
      "snowfall_48hr": 0,
      "snowfall_7day": 0,
      "forecast_text": "Data unavailable",
      "last_updated": "2025-11-14T18:39:53.736Z",
      "error": "Point API failed: 404"
    },
    {
      "name": "Fernie",
      "lat": 49.4653,
      "lng": -115.0636,
      "snowfall_24hr": 0,
      "snowfall_48hr": 0,
      "snowfall_7day": 0,
      "forecast_text": "Data unavailable",
      "last_updated": "2025-11-14T18:39:54.473Z",
      "error": "Point API failed: 404"
    },
    {
      "name": "Big White",
      "lat": 49.7311,
      "lng": -118.935,
      "snowfall_24hr": 0,
      "snowfall_48hr": 0,
      "snowfall_7day": 0,
      "forecast_text": "Data unavailable",
      "last_updated": "2025-11-14T18:39:58.489Z",
      "error": "Point API failed: 404"
    },
    {
      "name": "Kicking Horse",
      "lat": 51.2514,
      "lng": -117.0492,
      "snowfall_24hr": 0,
      "snowfall_48hr": 0,
      "snowfall_7day": 0,
      "forecast_text": "Data unavailable",
      "last_updated": "2025-11-14T18:39:58.806Z",
      "error": "Point API failed: 404"
    },
    {
      "name": "Mont Tremblant",
      "lat": 46.2094,
      "lng": -74.5847,
      "snowfall_24hr": 0,
      "snowfall_48hr": 0,
      "snowfall_7day": 0,
      "forecast_text": "Data unavailable",
      "last_updated": "2025-11-14T18:40:01.558Z",
      "error": "Point API failed: 404"
    },
    {
      "name": "Blue Mountain",
      "lat": 44.5075,
      "lng": -80.3231,
      "snowfall_24hr": 0,
      "snowfall_48hr": 0,
      "snowfall_7day": 0,
      "forecast_text": "Data unavailable",
      "last_updated": "2025-11-14T18:40:02.435Z",
      "error": "Point API failed: 404"
    },
    {
      "name": "Sugarloaf",
      "lat": 45.0314,
      "lng": -70.3139,
      "snowfall_24hr": 0,
      "snowfall_48hr": 2,
      "snowfall_7day": 6.5,
      "forecast_text": "A slight chance of snow showers before 2pm. Partly sunny, with a high near 28. Northwest wind 10 to 15 mph, with gusts as high as 25 mph. Chance of precipitation is 20%.",
      "last_updated": "2025-11-14T18:40:04.313Z"
    },
    {
      "name": "Sunday River",
      "lat": 44.4697,
      "lng": -70.8561,
      "snowfall_24hr": 0,
      "snowfall_48hr": 0,
      "snowfall_7day": 0,
      "forecast_text": "Partly sunny, with a high near 35. Northwest wind around 10 mph.",
      "last_updated": "2025-11-14T18:40:08.369Z"
    },
    {
      "name": "Sugarbush",
      "lat": 44.135,
      "lng": -72.9017,
      "snowfall_24hr": 0,
      "snowfall_48hr": 0,
      "snowfall_7day": 5,
      "forecast_text": "A chance of snow showers. Cloudy, with a high near 26. Northwest wind around 7 mph. Chance of precipitation is 50%. New snow accumulation of around one inch possible.",
      "last_updated": "2025-11-14T18:40:10.285Z"
    },
    {
      "name": "Stratton",
      "lat": 43.1133,
      "lng": -72.9083,
      "snowfall_24hr": 0,
      "snowfall_48hr": 0,
      "snowfall_7day": 0,
      "forecast_text": "Isolated snow showers after 4pm. Mostly cloudy, with a high near 36. Northwest wind 2 to 6 mph. Chance of precipitation is 20%.",
      "last_updated": "2025-11-14T18:40:12.538Z"
    },
    {
      "name": "Okemo",
      "lat": 43.4017,
      "lng": -72.7167,
      "snowfall_24hr": 0,
      "snowfall_48hr": 0,
      "snowfall_7day": 0,
      "forecast_text": "Partly sunny, with a high near 39. Northwest wind around 7 mph.",
      "last_updated": "2025-11-14T18:40:17.709Z"
    },
    {
      "name": "Jay Peak",
      "lat": 44.9378,
      "lng": -72.5036,
      "snowfall_24hr": 0,
      "snowfall_48hr": 0,
      "snowfall_7day": 15,
      "forecast_text": "A chance of snow showers. Mostly cloudy, with a high near 26. Northwest wind around 6 mph. Chance of precipitation is 30%. New snow accumulation of less than half an inch possible.",
      "last_updated": "2025-11-14T18:40:21.027Z"
    },
    {
      "name": "Smugglers' Notch",
      "lat": 44.5458,
      "lng": -72.7872,
      "snowfall_24hr": 1.5,
      "snowfall_48hr": 1.5,
      "snowfall_7day": 15,
      "forecast_text": "A chance of snow showers. Mostly cloudy, with a high near 27. Northwest wind around 9 mph. Chance of precipitation is 30%. New snow accumulation of less than one inch possible.",
      "last_updated": "2025-11-14T18:40:23.791Z"
    },
    {
      "name": "Loon Mountain",
      "lat": 44.0369,
      "lng": -71.6206,
      "snowfall_24hr": 0,
      "snowfall_48hr": 0,
      "snowfall_7day": 0,
      "forecast_text": "Partly sunny, with a high near 29. Northwest wind around 10 mph.",
      "last_updated": "2025-11-14T18:40:25.331Z"
    },
    {
      "name": "Cannon Mountain",
      "lat": 44.1572,
      "lng": -71.6978,
      "snowfall_24hr": 0,
      "snowfall_48hr": 0,
      "snowfall_7day": 3.5,
      "forecast_text": "A slight chance of snow showers between 4pm and 5pm. Mostly cloudy, with a high near 24. Northwest wind around 15 mph, with gusts as high as 30 mph. Chance of precipitation is 20%.",
      "last_updated": "2025-11-14T18:40:26.023Z"
    },
    {
      "name": "Wildcat Mountain",
      "lat": 44.2636,
      "lng": -71.2328,
      "snowfall_24hr": 0,
      "snowfall_48hr": 0,
      "snowfall_7day": 3.5,
      "forecast_text": "A slight chance of snow showers after 4pm. Partly sunny, with a high near 31. Northwest wind around 10 mph, with gusts as high as 25 mph. Chance of precipitation is 20%.",
      "last_updated": "2025-11-14T18:40:38.735Z"
    },
    {
      "name": "Bretton Woods",
      "lat": 44.2633,
      "lng": -71.4439,
      "snowfall_24hr": 0,
      "snowfall_48hr": 0,
      "snowfall_7day": 1.5,
      "forecast_text": "A slight chance of snow showers. Mostly cloudy, with a high near 31. Northwest wind around 10 mph. Chance of precipitation is 20%.",
      "last_updated": "2025-11-14T18:40:40.474Z"
    },
    {
      "name": "Snowbasin",
      "lat": 41.2156,
      "lng": -111.8567,
      "snowfall_24hr": 0,
      "snowfall_48hr": 0,
      "snowfall_7day": 3,
      "forecast_text": "A chance of rain before 2pm. Mostly cloudy. High near 55, with temperatures falling to around 51 in the afternoon. South southwest wind around 8 mph. Chance of precipitation is 30%.",
      "last_updated": "2025-11-14T18:40:50.745Z"
    },
    {
      "name": "Powder Mountain",
      "lat": 41.3814,
      "lng": -111.7806,
      "snowfall_24hr": 0,
      "snowfall_48hr": 0,
      "snowfall_7day": 13,
      "forecast_text": "A chance of rain before 2pm. Mostly cloudy. High near 44, with temperatures falling to around 41 in the afternoon. South southwest wind 8 to 13 mph. Chance of precipitation is 30%.",
      "last_updated": "2025-11-14T18:40:55.674Z"
    },
    {
      "name": "Solitude",
      "lat": 40.62,
      "lng": -111.5917,
      "snowfall_24hr": 0,
      "snowfall_48hr": 0,
      "snowfall_7day": 20,
      "forecast_text": "A chance of rain and snow before 2pm. Mostly cloudy. High near 47, with temperatures falling to around 44 in the afternoon. South southwest wind 7 to 10 mph. Chance of precipitation is 30%.",
      "last_updated": "2025-11-14T18:41:03.354Z"
    },
    {
      "name": "Brighton",
      "lat": 40.5981,
      "lng": -111.5831,
      "snowfall_24hr": 0,
      "snowfall_48hr": 0,
      "snowfall_7day": 22,
      "forecast_text": "A chance of rain and snow before 2pm. Mostly cloudy. High near 46, with temperatures falling to around 43 in the afternoon. South southwest wind 6 to 10 mph. Chance of precipitation is 30%.",
      "last_updated": "2025-11-14T18:41:05.149Z"
    },
    {
      "name": "Snowmass",
      "lat": 39.2133,
      "lng": -106.9378,
      "snowfall_24hr": 0,
      "snowfall_48hr": 0,
      "snowfall_7day": 0,
      "forecast_text": "Mostly sunny, with a high near 57. West wind 5 to 10 mph.",
      "last_updated": "2025-11-14T18:41:09.957Z"
    },
    {
      "name": "Aspen Highlands",
      "lat": 39.1825,
      "lng": -106.8553,
      "snowfall_24hr": 0,
      "snowfall_48hr": 0,
      "snowfall_7day": 0,
      "forecast_text": "Mostly sunny, with a high near 60. West wind around 5 mph.",
      "last_updated": "2025-11-14T18:41:11.829Z"
    },
    {
      "name": "Buttermilk",
      "lat": 39.2078,
      "lng": -106.8608,
      "snowfall_24hr": 0,
      "snowfall_48hr": 0,
      "snowfall_7day": 0,
      "forecast_text": "Mostly sunny, with a high near 62. West wind around 5 mph.",
      "last_updated": "2025-11-14T18:41:19.449Z"
    },
    {
      "name": "Beaver Creek",
      "lat": 39.6042,
      "lng": -106.5164,
      "snowfall_24hr": 0,
      "snowfall_48hr": 0,
      "snowfall_7day": 0,
      "forecast_text": "Mostly sunny, with a high near 57. West northwest wind 5 to 10 mph, with gusts as high as 25 mph.",
      "last_updated": "2025-11-14T18:41:46.697Z"
    },
    {
      "name": "Purgatory",
      "lat": 37.6303,
      "lng": -107.8139,
      "snowfall_24hr": 0,
      "snowfall_48hr": 0,
      "snowfall_7day": 8,
      "forecast_text": "Mostly sunny, with a high near 57. South wind 0 to 5 mph.",
      "last_updated": "2025-11-14T18:41:54.014Z"
    },
    {
      "name": "Wolf Creek",
      "lat": 37.4722,
      "lng": -106.7931,
      "snowfall_24hr": 0,
      "snowfall_48hr": 0,
      "snowfall_7day": 33,
      "forecast_text": "Mostly sunny, with a high near 41. Southwest wind around 10 mph.",
      "last_updated": "2025-11-14T18:41:55.469Z"
    },
    {
      "name": "Monarch Mountain",
      "lat": 38.5117,
      "lng": -106.3317,
      "snowfall_24hr": 0,
      "snowfall_48hr": 0,
      "snowfall_7day": 7,
      "forecast_text": "Mostly sunny, with a high near 42. West wind 15 to 20 mph, with gusts as high as 35 mph.",
      "last_updated": "2025-11-14T18:42:05.976Z"
    },
    {
      "name": "Eldora",
      "lat": 39.9372,
      "lng": -105.5828,
      "snowfall_24hr": 0,
      "snowfall_48hr": 0,
      "snowfall_7day": 7,
      "forecast_text": "Mostly sunny. High near 53, with temperatures falling to around 46 in the afternoon. West wind 10 to 14 mph, with gusts as high as 22 mph.",
      "last_updated": "2025-11-14T18:42:11.037Z"
    },
    {
      "name": "Grand Targhee",
      "lat": 43.7886,
      "lng": -110.9586,
      "snowfall_24hr": 0,
      "snowfall_48hr": 0,
      "snowfall_7day": 5,
      "forecast_text": "Scattered rain and snow showers before 1pm, then scattered rain and snow showers between 1pm and 2pm, then scattered rain and snow showers between 2pm and 4pm, then scattered rain and snow showers between 4pm and 5pm, then scattered rain and snow showers. Cloudy. High near 39, with temperatures falling to around 34 in the afternoon. Southwest wind around 16 mph, with gusts as high as 25 mph. Chance of precipitation is 50%. New snow accumulation of less than half an inch possible.",
      "last_updated": "2025-11-14T18:42:12.855Z"
    },
    {
      "name": "Snow King",
      "lat": 43.4783,
      "lng": -110.7628,
      "snowfall_24hr": 0,
      "snowfall_48hr": 0,
      "snowfall_7day": 0,
      "forecast_text": "Scattered rain showers. Cloudy. High near 55, with temperatures falling to around 50 in the afternoon. South southwest wind around 14 mph, with gusts as high as 23 mph. Chance of precipitation is 50%.",
      "last_updated": "2025-11-14T18:42:18.820Z"
    },
    {
      "name": "Bridger Bowl",
      "lat": 45.8167,
      "lng": -110.8969,
      "snowfall_24hr": 0,
      "snowfall_48hr": 0,
      "snowfall_7day": 0,
      "forecast_text": "Rain likely. Mostly cloudy. High near 51, with temperatures falling to around 45 in the afternoon. West southwest wind 14 to 17 mph, with gusts as high as 39 mph. Chance of precipitation is 60%.",
      "last_updated": "2025-11-14T18:42:23.127Z"
    },
    {
      "name": "Big Mountain",
      "lat": 48.4928,
      "lng": -114.3483,
      "snowfall_24hr": 0,
      "snowfall_48hr": 0,
      "snowfall_7day": 0,
      "forecast_text": "Rain and snow. Cloudy, with a high near 35. West southwest wind around 12 mph, with gusts as high as 21 mph. Chance of precipitation is 90%. New rainfall amounts between a tenth and quarter of an inch possible.",
      "last_updated": "2025-11-14T18:42:25.656Z"
    },
    {
      "name": "Snowbowl",
      "lat": 46.9417,
      "lng": -113.9492,
      "snowfall_24hr": 0,
      "snowfall_48hr": 0,
      "snowfall_7day": 0,
      "forecast_text": "Rain likely. Cloudy. High near 49, with temperatures falling to around 44 in the afternoon. West wind around 12 mph, with gusts as high as 23 mph. Chance of precipitation is 70%.",
      "last_updated": "2025-11-14T18:42:42.889Z"
    },
    {
      "name": "Bogus Basin",
      "lat": 43.7725,
      "lng": -116.0939,
      "snowfall_24hr": 0,
      "snowfall_48hr": 0,
      "snowfall_7day": 1.5,
      "forecast_text": "Mostly sunny. High near 46, with temperatures falling to around 41 in the afternoon. Southwest wind 2 to 6 mph.",
      "last_updated": "2025-11-14T18:42:46.087Z"
    },
    {
      "name": "Tamarack",
      "lat": 44.6922,
      "lng": -116.1344,
      "snowfall_24hr": 0,
      "snowfall_48hr": 0,
      "snowfall_7day": 3.5,
      "forecast_text": "A chance of rain before 5pm. Partly sunny. High near 44, with temperatures falling to around 39 in the afternoon. Southwest wind 6 to 10 mph. Chance of precipitation is 30%.",
      "last_updated": "2025-11-14T18:42:46.991Z"
    },
    {
      "name": "Silver Mountain",
      "lat": 47.6764,
      "lng": -116.0703,
      "snowfall_24hr": 0,
      "snowfall_48hr": 0,
      "snowfall_7day": 0,
      "forecast_text": "Rain. Cloudy. High near 46, with temperatures falling to around 44 in the afternoon. Southwest wind around 9 mph, with gusts as high as 22 mph. Chance of precipitation is 90%. New rainfall amounts between a tenth and quarter of an inch possible.",
      "last_updated": "2025-11-14T18:42:48.686Z"
    },
    {
      "name": "Mt. Hood Meadows",
      "lat": 45.3319,
      "lng": -121.6653,
      "snowfall_24hr": 0,
      "snowfall_48hr": 0,
      "snowfall_7day": 7,
      "forecast_text": "Rain likely. Mostly cloudy. High near 42, with temperatures falling to around 40 in the afternoon. Southwest wind around 6 mph. Chance of precipitation is 70%.",
      "last_updated": "2025-11-14T18:42:51.930Z"
    },
    {
      "name": "Timberline",
      "lat": 45.3306,
      "lng": -121.7108,
      "snowfall_24hr": 0,
      "snowfall_48hr": 0,
      "snowfall_7day": 14,
      "forecast_text": "Snow before 5pm, then rain and snow likely. Mostly cloudy. High near 38, with temperatures falling to around 36 in the afternoon. West southwest wind around 8 mph, with gusts as high as 18 mph. Chance of precipitation is 80%. New rainfall amounts less than a tenth of an inch possible.",
      "last_updated": "2025-11-14T18:43:02.737Z"
    },
    {
      "name": "Willamette Pass",
      "lat": 43.6006,
      "lng": -122.0336,
      "snowfall_24hr": 0,
      "snowfall_48hr": 0,
      "snowfall_7day": 7.5,
      "forecast_text": "Mostly sunny. High near 46, with temperatures falling to around 40 in the afternoon. West southwest wind around 10 mph.",
      "last_updated": "2025-11-14T18:43:07.504Z"
    },
    {
      "name": "Mission Ridge",
      "lat": 47.2917,
      "lng": -120.3997,
      "snowfall_24hr": 0,
      "snowfall_48hr": 0,
      "snowfall_7day": 2,
      "forecast_text": "A chance of snow before 4pm, then rain and snow likely. Mostly cloudy. High near 41, with temperatures falling to around 39 in the afternoon. Southwest wind 7 to 10 mph, with gusts as high as 18 mph. Chance of precipitation is 60%. New rainfall amounts less than a tenth of an inch possible.",
      "last_updated": "2025-11-14T18:43:08.922Z"
    },
    {
      "name": "Snoqualmie",
      "lat": 47.4219,
      "lng": -121.4136,
      "snowfall_24hr": 0,
      "snowfall_48hr": 0,
      "snowfall_7day": 1.5,
      "forecast_text": "Rain. Cloudy, with a high near 43. Southwest wind around 3 mph. Chance of precipitation is 100%. New rainfall amounts between a half and three quarters of an inch possible.",
      "last_updated": "2025-11-14T18:43:14.262Z"
    },
    {
      "name": "Mt. Spokane",
      "lat": 47.9208,
      "lng": -117.0856,
      "snowfall_24hr": 0,
      "snowfall_48hr": 0,
      "snowfall_7day": 0,
      "forecast_text": "Rain. Cloudy. High near 42, with temperatures falling to around 40 in the afternoon. Southwest wind around 13 mph, with gusts as high as 25 mph. Chance of precipitation is 80%. New rainfall amounts between a quarter and half of an inch possible.",
      "last_updated": "2025-11-14T18:43:25.710Z"
    },
    {
      "name": "White Pass",
      "lat": 46.6394,
      "lng": -121.3908,
      "snowfall_24hr": 0,
      "snowfall_48hr": 0,
      "snowfall_7day": 6,
      "forecast_text": "Rain. Mostly cloudy, with a high near 40. West wind around 9 mph, with gusts as high as 23 mph. Chance of precipitation is 90%. New rainfall amounts between a tenth and quarter of an inch possible.",
      "last_updated": "2025-11-14T18:43:29.501Z"
    },
    {
      "name": "49 Degrees North",
      "lat": 48.7511,
      "lng": -117.6369,
      "snowfall_24hr": 0,
      "snowfall_48hr": 0,
      "snowfall_7day": 0,
      "forecast_text": "Rain and patchy fog. Cloudy, with a high near 43. South wind around 3 mph. Chance of precipitation is 90%. New rainfall amounts between a tenth and quarter of an inch possible.",
      "last_updated": "2025-11-14T18:43:32.351Z"
    },
    {
      "name": "Red Mountain",
      "lat": 49.0917,
      "lng": -117.8233,
      "snowfall_24hr": 0,
      "snowfall_48hr": 0,
      "snowfall_7day": 0,
      "forecast_text": "Data unavailable",
      "last_updated": "2025-11-14T18:43:32.838Z",
      "error": "Point API failed: 404"
    },
    {
      "name": "Whitewater",
      "lat": 49.5394,
      "lng": -117.2717,
      "snowfall_24hr": 0,
      "snowfall_48hr": 0,
      "snowfall_7day": 0,
      "forecast_text": "Data unavailable",
      "last_updated": "2025-11-14T18:43:33.176Z",
      "error": "Point API failed: 404"
    },
    {
      "name": "Panorama",
      "lat": 50.8036,
      "lng": -116.0533,
      "snowfall_24hr": 0,
      "snowfall_48hr": 0,
      "snowfall_7day": 0,
      "forecast_text": "Data unavailable",
      "last_updated": "2025-11-14T18:43:33.530Z",
      "error": "Point API failed: 404"
    },
    {
      "name": "Marmot Basin",
      "lat": 52.8236,
      "lng": -118.0747,
      "snowfall_24hr": 0,
      "snowfall_48hr": 0,
      "snowfall_7day": 0,
      "forecast_text": "Data unavailable",
      "last_updated": "2025-11-14T18:43:33.912Z",
      "error": "Point API failed: 404"
    },
    {
      "name": "Nakiska",
      "lat": 50.98,
      "lng": -115.0733,
      "snowfall_24hr": 0,
      "snowfall_48hr": 0,
      "snowfall_7day": 0,
      "forecast_text": "Data unavailable",
      "last_updated": "2025-11-14T18:43:37.964Z",
      "error": "Point API failed: 404"
    },
    {
      "name": "Castle Mountain",
      "lat": 49.4058,
      "lng": -114.5169,
      "snowfall_24hr": 0,
      "snowfall_48hr": 0,
      "snowfall_7day": 0,
      "forecast_text": "Data unavailable",
      "last_updated": "2025-11-14T18:43:41.907Z",
      "error": "Point API failed: 404"
    },
    {
      "name": "Norquay",
      "lat": 51.1967,
      "lng": -115.5531,
      "snowfall_24hr": 0,
      "snowfall_48hr": 0,
      "snowfall_7day": 0,
      "forecast_text": "Data unavailable",
      "last_updated": "2025-11-14T18:43:42.284Z",
      "error": "Point API failed: 404"
    },
    {
      "name": "Le Massif",
      "lat": 47.3136,
      "lng": -70.6358,
      "snowfall_24hr": 0,
      "snowfall_48hr": 0,
      "snowfall_7day": 0,
      "forecast_text": "Data unavailable",
      "last_updated": "2025-11-14T18:43:42.728Z",
      "error": "Point API failed: 404"
    },
    {
      "name": "Calabogie",
      "lat": 45.2906,
      "lng": -76.7019,
      "snowfall_24hr": 0,
      "snowfall_48hr": 0,
      "snowfall_7day": 0,
      "forecast_text": "Data unavailable",
      "last_updated": "2025-11-14T18:43:43.073Z",
      "error": "Point API failed: 404"
    },
    {
      "name": "Sierra-at-Tahoe",
      "lat": 38.7986,
      "lng": -120.0828,
      "snowfall_24hr": 0,
      "snowfall_48hr": 0,
      "snowfall_7day": 12.5,
      "forecast_text": "Rain showers likely before 5pm. Partly sunny, with a high near 41. Southwest wind 0 to 5 mph. Chance of precipitation is 70%.",
      "last_updated": "2025-11-14T18:43:45.213Z"
    },
    {
      "name": "Kirkwood",
      "lat": 38.6867,
      "lng": -120.0656,
      "snowfall_24hr": 0,
      "snowfall_48hr": 2,
      "snowfall_7day": 32,
      "forecast_text": "Rain showers likely before 11am, then a chance of rain and snow showers between 11am and 5pm. Mostly cloudy. High near 41, with temperatures falling to around 39 in the afternoon. South southeast wind around 5 mph. Chance of precipitation is 70%. New rainfall amounts between a quarter and half of an inch possible.",
      "last_updated": "2025-11-14T18:43:47.830Z"
    },
    {
      "name": "Northstar",
      "lat": 39.2733,
      "lng": -120.1211,
      "snowfall_24hr": 0,
      "snowfall_48hr": 0,
      "snowfall_7day": 0,
      "forecast_text": "Rain likely. Partly sunny, with a high near 49. South wind around 0 mph. Chance of precipitation is 70%.",
      "last_updated": "2025-11-14T18:43:55.625Z"
    },
    {
      "name": "Homewood",
      "lat": 39.0833,
      "lng": -120.1667,
      "snowfall_24hr": 0,
      "snowfall_48hr": 0,
      "snowfall_7day": 1.5,
      "forecast_text": "Rain likely. Partly sunny, with a high near 43. South wind around 0 mph. Chance of precipitation is 70%.",
      "last_updated": "2025-11-14T18:43:58.599Z"
    },
    {
      "name": "Mt. Rose",
      "lat": 39.3397,
      "lng": -119.8894,
      "snowfall_24hr": 0,
      "snowfall_48hr": 0,
      "snowfall_7day": 8.5,
      "forecast_text": "Rain and snow likely before 1pm. Partly sunny, with a high near 41. South wind around 5 mph. Chance of precipitation is 70%.",
      "last_updated": "2025-11-14T18:43:59.834Z"
    },
    {
      "name": "Diamond Peak",
      "lat": 39.2525,
      "lng": -119.9169,
      "snowfall_24hr": 0,
      "snowfall_48hr": 0,
      "snowfall_7day": 3.5,
      "forecast_text": "Rain and snow likely before 1pm. Partly sunny, with a high near 44. Southwest wind 0 to 5 mph. Chance of precipitation is 70%.",
      "last_updated": "2025-11-14T18:44:01.797Z"
    },
    {
      "name": "June Mountain",
      "lat": 37.7853,
      "lng": -119.0781,
      "snowfall_24hr": 0,
      "snowfall_48hr": 0,
      "snowfall_7day": 9.5,
      "forecast_text": "Rain and snow before 1pm, then a chance of showers and thunderstorms between 1pm and 4pm. Partly sunny, with a high near 47. South wind 0 to 5 mph. Chance of precipitation is 80%. New rainfall amounts between a quarter and half of an inch possible.",
      "last_updated": "2025-11-14T18:44:11.560Z"
    },
    {
      "name": "Bear Mountain",
      "lat": 34.235,
      "lng": -116.865,
      "snowfall_24hr": 0,
      "snowfall_48hr": 0,
      "snowfall_7day": 3.5,
      "forecast_text": "Rain showers likely. Mostly cloudy, with a high near 52. Southwest wind 5 to 15 mph, with gusts as high as 25 mph. Chance of precipitation is 70%. New rainfall amounts less than a tenth of an inch possible.",
      "last_updated": "2025-11-14T18:44:14.794Z"
    },
    {
      "name": "Snow Summit",
      "lat": 34.2306,
      "lng": -116.8886,
      "snowfall_24hr": 0,
      "snowfall_48hr": 0,
      "snowfall_7day": 5.5,
      "forecast_text": "Rain showers likely. Mostly cloudy, with a high near 48. Southwest wind 5 to 15 mph, with gusts as high as 25 mph. Chance of precipitation is 70%. New rainfall amounts less than a tenth of an inch possible.",
      "last_updated": "2025-11-14T18:44:16.014Z"
    },
    {
      "name": "Mountain High",
      "lat": 34.3811,
      "lng": -117.6881,
      "snowfall_24hr": 0,
      "snowfall_48hr": 0,
      "snowfall_7day": 0,
      "forecast_text": "Rain showers before 4pm, then showers and thunderstorms likely. Cloudy, with a high near 45. South wind 5 to 15 mph, with gusts as high as 25 mph. Chance of precipitation is 80%. New rainfall amounts between a quarter and half of an inch possible.",
      "last_updated": "2025-11-14T18:44:17.635Z"
    },
    {
      "name": "Ski Santa Fe",
      "lat": 35.7869,
      "lng": -105.7961,
      "snowfall_24hr": 0,
      "snowfall_48hr": 0,
      "snowfall_7day": 2,
      "forecast_text": "Sunny. High near 49, with temperatures falling to around 41 in the afternoon. West wind 5 to 10 mph.",
      "last_updated": "2025-11-14T18:44:21.590Z"
    },
    {
      "name": "Angel Fire",
      "lat": 36.3975,
      "lng": -105.2886,
      "snowfall_24hr": 0,
      "snowfall_48hr": 0,
      "snowfall_7day": 0,
      "forecast_text": "Sunny. High near 60, with temperatures falling to around 50 in the afternoon. West wind 5 to 10 mph.",
      "last_updated": "2025-11-14T18:44:26.543Z"
    },
    {
      "name": "Whiteface Mountain",
      "lat": 44.3659,
      "lng": -73.9024,
      "snowfall_24hr": 0,
      "snowfall_48hr": 0,
      "snowfall_7day": 3.5,
      "forecast_text": "A slight chance of snow showers. Mostly cloudy, with a high near 24. Northwest wind around 9 mph. Chance of precipitation is 20%. New snow accumulation of less than half an inch possible.",
      "last_updated": "2025-11-14T18:44:30.801Z"
    }
  ]
}