{
  "generated_at": "2025-11-09T23:23:48.712Z",
  "total_resorts": 99,
  "resorts": [
    {
      "name": "Whistler Blackcomb",
      "lat": 50.1163,
      "lng": -122.9574,
      "snowfall_7day": 0,
      "forecast_text": "Data unavailable",
      "last_updated": "2025-11-09T23:22:44.943Z",
      "error": "Point API failed: 404"
    },
    {
      "name": "Vail",
      "lat": 39.6403,
      "lng": -106.3742,
      "snowfall_7day": 0,
      "forecast_text": "Sunny, with a high near 46. West northwest wind 0 to 5 mph, with gusts as high as 20 mph.",
      "last_updated": "2025-11-09T23:22:45.380Z"
    },
    {
      "name": "Park City",
      "lat": 40.6514,
      "lng": -111.5079,
      "snowfall_7day": 106,
      "forecast_text": "Sunny. High near 56, with temperatures falling to around 49 in the afternoon. Northwest wind around 2 mph.",
      "last_updated": "2025-11-09T23:22:45.760Z"
    },
    {
      "name": "Breckenridge",
      "lat": 39.4817,
      "lng": -106.0384,
      "snowfall_7day": 82,
      "forecast_text": "Sunny. High near 43, with temperatures falling to around 36 in the afternoon. Northwest wind around 16 mph, with gusts as high as 25 mph.",
      "last_updated": "2025-11-09T23:22:46.086Z"
    },
    {
      "name": "Heavenly",
      "lat": 38.935,
      "lng": -119.9403,
      "snowfall_7day": 7.5,
      "forecast_text": "Mostly sunny, with a high near 61. Northeast wind around 0 mph.",
      "last_updated": "2025-11-09T23:22:46.630Z"
    },
    {
      "name": "Aspen Snowmass",
      "lat": 39.1911,
      "lng": -106.8175,
      "snowfall_7day": 0,
      "forecast_text": "Sunny, with a high near 52. Northwest wind around 5 mph.",
      "last_updated": "2025-11-09T23:22:46.960Z"
    },
    {
      "name": "Jackson Hole",
      "lat": 43.5875,
      "lng": -110.8278,
      "snowfall_7day": 38,
      "forecast_text": "Sunny. High near 47, with temperatures falling to around 38 in the afternoon. East wind around 3 mph.",
      "last_updated": "2025-11-09T23:22:47.463Z"
    },
    {
      "name": "Banff Sunshine",
      "lat": 51.1158,
      "lng": -115.7631,
      "snowfall_7day": 0,
      "forecast_text": "Data unavailable",
      "last_updated": "2025-11-09T23:22:47.724Z",
      "error": "Point API failed: 404"
    },
    {
      "name": "Lake Louise",
      "lat": 51.4254,
      "lng": -116.1773,
      "snowfall_7day": 0,
      "forecast_text": "Data unavailable",
      "last_updated": "2025-11-09T23:22:47.972Z",
      "error": "Point API failed: 404"
    },
    {
      "name": "Big Sky",
      "lat": 45.2846,
      "lng": -111.4008,
      "snowfall_7day": 87,
      "forecast_text": "Sunny. High near 43, with temperatures falling to around 39 in the afternoon. West wind around 6 mph.",
      "last_updated": "2025-11-09T23:22:48.667Z"
    },
    {
      "name": "Steamboat",
      "lat": 40.458,
      "lng": -106.8047,
      "snowfall_7day": 0,
      "forecast_text": "Sunny, with a high near 48. North northwest wind 0 to 5 mph.",
      "last_updated": "2025-11-09T23:22:49.182Z"
    },
    {
      "name": "Mammoth Mountain",
      "lat": 37.6308,
      "lng": -119.0326,
      "snowfall_7day": 122,
      "forecast_text": "Sunny. High near 50, with temperatures falling to around 45 in the afternoon. East northeast wind around 5 mph.",
      "last_updated": "2025-11-09T23:22:50.209Z"
    },
    {
      "name": "Squaw Valley",
      "lat": 39.197,
      "lng": -120.2356,
      "snowfall_7day": 123,
      "forecast_text": "Mostly sunny. High near 67, with temperatures falling to around 58 in the afternoon. East wind around 0 mph.",
      "last_updated": "2025-11-09T23:22:50.856Z"
    },
    {
      "name": "Telluride",
      "lat": 37.9375,
      "lng": -107.8123,
      "snowfall_7day": 5,
      "forecast_text": "Sunny, with a high near 53. Northwest wind 0 to 5 mph.",
      "last_updated": "2025-11-09T23:22:51.134Z"
    },
    {
      "name": "Sun Valley",
      "lat": 43.6966,
      "lng": -114.3553,
      "snowfall_7day": 102,
      "forecast_text": "Sunny. High near 55, with temperatures falling to around 49 in the afternoon. South southeast wind around 2 mph.",
      "last_updated": "2025-11-09T23:22:51.421Z"
    },
    {
      "name": "Deer Valley",
      "lat": 40.6374,
      "lng": -111.4783,
      "snowfall_7day": 101,
      "forecast_text": "Sunny. High near 52, with temperatures falling to around 46 in the afternoon. Northwest wind around 2 mph.",
      "last_updated": "2025-11-09T23:22:51.764Z"
    },
    {
      "name": "Killington",
      "lat": 43.6046,
      "lng": -72.822,
      "snowfall_7day": 30,
      "forecast_text": "Rain. Cloudy, with a high near 37. Southeast wind around 26 mph. Chance of precipitation is 80%. New rainfall amounts between a tenth and quarter of an inch possible.",
      "last_updated": "2025-11-09T23:22:52.081Z"
    },
    {
      "name": "Stowe",
      "lat": 44.5303,
      "lng": -72.7817,
      "snowfall_7day": 32.5,
      "forecast_text": "Freezing rain likely and rain likely. Cloudy, with a high near 35. Southeast wind around 10 mph, with gusts as high as 23 mph. Chance of precipitation is 70%. New snow accumulation of less than half an inch possible. Little or no ice accumulation expected.",
      "last_updated": "2025-11-09T23:22:52.420Z"
    },
    {
      "name": "Alta",
      "lat": 40.5885,
      "lng": -111.6376,
      "snowfall_7day": 100.5,
      "forecast_text": "Sunny. High near 44, with temperatures falling to around 39 in the afternoon. North northwest wind around 3 mph.",
      "last_updated": "2025-11-09T23:22:52.715Z"
    },
    {
      "name": "Snowbird",
      "lat": 40.5803,
      "lng": -111.6573,
      "snowfall_7day": 105,
      "forecast_text": "Sunny. High near 49, with temperatures falling to around 43 in the afternoon. North wind around 3 mph.",
      "last_updated": "2025-11-09T23:22:53.109Z"
    },
    {
      "name": "Taos",
      "lat": 36.5924,
      "lng": -105.4467,
      "snowfall_7day": 67,
      "forecast_text": "Sunny. High near 37, with temperatures falling to around 31 in the afternoon. West wind around 5 mph.",
      "last_updated": "2025-11-09T23:22:54.053Z"
    },
    {
      "name": "Copper Mountain",
      "lat": 39.5022,
      "lng": -106.1506,
      "snowfall_7day": 74,
      "forecast_text": "Sunny. High near 42, with temperatures falling to around 33 in the afternoon. West wind around 16 mph, with gusts as high as 25 mph.",
      "last_updated": "2025-11-09T23:22:54.367Z"
    },
    {
      "name": "Winter Park",
      "lat": 39.8868,
      "lng": -105.7625,
      "snowfall_7day": 75,
      "forecast_text": "Sunny. High near 39, with temperatures falling to around 33 in the afternoon. West northwest wind around 13 mph, with gusts as high as 21 mph.",
      "last_updated": "2025-11-09T23:22:54.745Z"
    },
    {
      "name": "Keystone",
      "lat": 39.605,
      "lng": -105.9347,
      "snowfall_7day": 82,
      "forecast_text": "Sunny. High near 43, with temperatures falling to around 36 in the afternoon. West wind 13 to 16 mph, with gusts as high as 25 mph.",
      "last_updated": "2025-11-09T23:22:55.078Z"
    },
    {
      "name": "Arapahoe Basin",
      "lat": 39.6426,
      "lng": -105.8717,
      "snowfall_7day": 74,
      "forecast_text": "Sunny. High near 36, with temperatures falling to around 33 in the afternoon. Northwest wind around 17 mph, with gusts as high as 28 mph.",
      "last_updated": "2025-11-09T23:22:55.733Z"
    },
    {
      "name": "Crested Butte",
      "lat": 38.8997,
      "lng": -106.9653,
      "snowfall_7day": 0,
      "forecast_text": "Sunny, with a high near 50. West northwest wind 5 to 10 mph.",
      "last_updated": "2025-11-09T23:22:56.032Z"
    },
    {
      "name": "Loveland",
      "lat": 39.6803,
      "lng": -105.8978,
      "snowfall_7day": 57,
      "forecast_text": "Sunny. High near 28, with temperatures falling to around 24 in the afternoon. Northwest wind around 18 mph, with gusts as high as 30 mph.",
      "last_updated": "2025-11-09T23:22:56.298Z"
    },
    {
      "name": "Mt. Bachelor",
      "lat": 43.979,
      "lng": -121.688,
      "snowfall_7day": 106.5,
      "forecast_text": "Mostly cloudy. High near 53, with temperatures falling to around 45 in the afternoon. Southwest wind around 7 mph.",
      "last_updated": "2025-11-09T23:22:56.940Z"
    },
    {
      "name": "Crystal Mountain",
      "lat": 46.9358,
      "lng": -121.4742,
      "snowfall_7day": 110,
      "forecast_text": "Partly sunny. High near 51, with temperatures falling to around 45 in the afternoon. South wind around 7 mph.",
      "last_updated": "2025-11-09T23:22:57.229Z"
    },
    {
      "name": "Stevens Pass",
      "lat": 47.7453,
      "lng": -121.0892,
      "snowfall_7day": 108,
      "forecast_text": "Mostly cloudy. High near 44, with temperatures falling to around 40 in the afternoon. East wind around 6 mph.",
      "last_updated": "2025-11-09T23:22:57.533Z"
    },
    {
      "name": "Mt. Baker",
      "lat": 48.8597,
      "lng": -121.6686,
      "snowfall_7day": 114,
      "forecast_text": "Mostly sunny. High near 52, with temperatures falling to around 47 in the afternoon. South wind around 10 mph. New rainfall amounts less than a tenth of an inch possible.",
      "last_updated": "2025-11-09T23:22:58.252Z"
    },
    {
      "name": "Schweitzer",
      "lat": 48.3642,
      "lng": -116.6228,
      "snowfall_7day": 83,
      "forecast_text": "Mostly sunny. High near 39, with temperatures falling to around 35 in the afternoon. Southwest wind around 5 mph.",
      "last_updated": "2025-11-09T23:22:58.588Z"
    },
    {
      "name": "Sun Peaks",
      "lat": 50.8817,
      "lng": -119.8847,
      "snowfall_7day": 0,
      "forecast_text": "Data unavailable",
      "last_updated": "2025-11-09T23:22:58.849Z",
      "error": "Point API failed: 404"
    },
    {
      "name": "Revelstoke",
      "lat": 50.9981,
      "lng": -118.1956,
      "snowfall_7day": 0,
      "forecast_text": "Data unavailable",
      "last_updated": "2025-11-09T23:22:59.140Z",
      "error": "Point API failed: 404"
    },
    {
      "name": "Fernie",
      "lat": 49.4653,
      "lng": -115.0636,
      "snowfall_7day": 0,
      "forecast_text": "Data unavailable",
      "last_updated": "2025-11-09T23:22:59.479Z",
      "error": "Point API failed: 404"
    },
    {
      "name": "Big White",
      "lat": 49.7311,
      "lng": -118.935,
      "snowfall_7day": 0,
      "forecast_text": "Data unavailable",
      "last_updated": "2025-11-09T23:22:59.725Z",
      "error": "Point API failed: 404"
    },
    {
      "name": "Kicking Horse",
      "lat": 51.2514,
      "lng": -117.0492,
      "snowfall_7day": 0,
      "forecast_text": "Data unavailable",
      "last_updated": "2025-11-09T23:22:59.990Z",
      "error": "Point API failed: 404"
    },
    {
      "name": "Mont Tremblant",
      "lat": 46.2094,
      "lng": -74.5847,
      "snowfall_7day": 0,
      "forecast_text": "Data unavailable",
      "last_updated": "2025-11-09T23:23:01.288Z",
      "error": "Point API failed: 404"
    },
    {
      "name": "Blue Mountain",
      "lat": 44.5075,
      "lng": -80.3231,
      "snowfall_7day": 0,
      "forecast_text": "Data unavailable",
      "last_updated": "2025-11-09T23:23:01.618Z",
      "error": "Point API failed: 404"
    },
    {
      "name": "Sugarloaf",
      "lat": 45.0314,
      "lng": -70.3139,
      "snowfall_7day": 0,
      "forecast_text": "Sleet and freezing rain before 9pm, then sleet and freezing rain and a slight chance of snow between 9pm and 10pm, then snow and sleet and freezing rain between 10pm and 1am, then sleet and freezing rain and rain. Cloudy. Low around 27, with temperatures rising to around 35 overnight. Southeast wind around 15 mph, with gusts as high as 25 mph. Chance of precipitation is 90%. New snow accumulation of less than one inch possible. Little or no ice accumulation expected.",
      "last_updated": "2025-11-09T23:23:03.085Z"
    },
    {
      "name": "Sunday River",
      "lat": 44.4697,
      "lng": -70.8561,
      "snowfall_7day": 0,
      "forecast_text": "Sleet and freezing rain and rain before midnight, then rain and patchy fog. Cloudy. Low around 31, with temperatures rising to around 39 overnight. Northeast wind 5 to 10 mph. Chance of precipitation is 90%. New snow accumulation of less than half an inch possible. Little or no ice accumulation expected.",
      "last_updated": "2025-11-09T23:23:08.717Z"
    },
    {
      "name": "Sugarbush",
      "lat": 44.135,
      "lng": -72.9017,
      "snowfall_7day": 32,
      "forecast_text": "A chance of freezing rain and a chance of rain. Cloudy, with a high near 36. Southeast wind around 23 mph. Chance of precipitation is 50%. Little or no ice accumulation expected.",
      "last_updated": "2025-11-09T23:23:09.241Z"
    },
    {
      "name": "Stratton",
      "lat": 43.1133,
      "lng": -72.9083,
      "snowfall_7day": 36,
      "forecast_text": "Rain showers likely. Cloudy, with a high near 44. Southeast wind around 5 mph. Chance of precipitation is 60%. New rainfall amounts between a tenth and quarter of an inch possible.",
      "last_updated": "2025-11-09T23:23:09.680Z"
    },
    {
      "name": "Okemo",
      "lat": 43.4017,
      "lng": -72.7167,
      "snowfall_7day": 38,
      "forecast_text": "Rain likely. Cloudy, with a high near 41. Southeast wind around 6 mph. Chance of precipitation is 70%. New rainfall amounts between a tenth and quarter of an inch possible.",
      "last_updated": "2025-11-09T23:23:09.971Z"
    },
    {
      "name": "Jay Peak",
      "lat": 44.9378,
      "lng": -72.5036,
      "snowfall_7day": 31.5,
      "forecast_text": "Freezing rain likely. Cloudy, with a high near 34. Southeast wind around 15 mph. Chance of precipitation is 70%. New snow accumulation of less than half an inch possible. Little or no ice accumulation expected.",
      "last_updated": "2025-11-09T23:23:10.449Z"
    },
    {
      "name": "Smugglers' Notch",
      "lat": 44.5458,
      "lng": -72.7872,
      "snowfall_7day": 30.5,
      "forecast_text": "Freezing rain likely. Cloudy, with a high near 35. Southeast wind around 12 mph, with gusts as high as 24 mph. Chance of precipitation is 70%. New snow accumulation of less than half an inch possible. Little or no ice accumulation expected.",
      "last_updated": "2025-11-09T23:23:10.865Z"
    },
    {
      "name": "Loon Mountain",
      "lat": 44.0369,
      "lng": -71.6206,
      "snowfall_7day": 0,
      "forecast_text": "Rain. Cloudy. Low around 35, with temperatures rising to around 41 overnight. East wind 5 to 15 mph, with gusts as high as 25 mph. Chance of precipitation is 90%. New rainfall amounts between a quarter and half of an inch possible.",
      "last_updated": "2025-11-09T23:23:11.815Z"
    },
    {
      "name": "Cannon Mountain",
      "lat": 44.1572,
      "lng": -71.6978,
      "snowfall_7day": 37.5,
      "forecast_text": "Rain. Cloudy. Low around 34, with temperatures rising to around 41 overnight. Southeast wind 20 to 30 mph, with gusts as high as 50 mph. Chance of precipitation is 90%. Little or no ice accumulation expected.",
      "last_updated": "2025-11-09T23:23:13.351Z"
    },
    {
      "name": "Wildcat Mountain",
      "lat": 44.2636,
      "lng": -71.2328,
      "snowfall_7day": 0,
      "forecast_text": "Rain. Cloudy. Low around 33, with temperatures rising to around 40 overnight. Southeast wind 10 to 15 mph, with gusts as high as 25 mph. Chance of precipitation is 90%. New snow accumulation of less than half an inch possible.",
      "last_updated": "2025-11-09T23:23:14.360Z"
    },
    {
      "name": "Bretton Woods",
      "lat": 44.2633,
      "lng": -71.4439,
      "snowfall_7day": 43,
      "forecast_text": "Rain. Cloudy. Low around 35, with temperatures rising to around 41 overnight. Southeast wind 15 to 20 mph, with gusts as high as 35 mph. Chance of precipitation is 90%. New rainfall amounts between a quarter and half of an inch possible.",
      "last_updated": "2025-11-09T23:23:15.175Z"
    },
    {
      "name": "Snowbasin",
      "lat": 41.2156,
      "lng": -111.8567,
      "snowfall_7day": 96,
      "forecast_text": "Sunny. High near 49, with temperatures falling to around 45 in the afternoon. West wind around 3 mph.",
      "last_updated": "2025-11-09T23:23:15.890Z"
    },
    {
      "name": "Powder Mountain",
      "lat": 41.3814,
      "lng": -111.7806,
      "snowfall_7day": 87.5,
      "forecast_text": "Sunny. High near 41, with temperatures falling to around 37 in the afternoon. Northwest wind around 3 mph.",
      "last_updated": "2025-11-09T23:23:16.211Z"
    },
    {
      "name": "Solitude",
      "lat": 40.62,
      "lng": -111.5917,
      "snowfall_7day": 100.5,
      "forecast_text": "Sunny. High near 47, with temperatures falling to around 42 in the afternoon. North northwest wind around 3 mph.",
      "last_updated": "2025-11-09T23:23:17.410Z"
    },
    {
      "name": "Brighton",
      "lat": 40.5981,
      "lng": -111.5831,
      "snowfall_7day": 102.5,
      "forecast_text": "Sunny. High near 47, with temperatures falling to around 42 in the afternoon. North northwest wind around 2 mph.",
      "last_updated": "2025-11-09T23:23:18.210Z"
    },
    {
      "name": "Snowmass",
      "lat": 39.2133,
      "lng": -106.9378,
      "snowfall_7day": 0,
      "forecast_text": "Sunny, with a high near 48. West northwest wind around 5 mph.",
      "last_updated": "2025-11-09T23:23:19.207Z"
    },
    {
      "name": "Aspen Highlands",
      "lat": 39.1825,
      "lng": -106.8553,
      "snowfall_7day": 0,
      "forecast_text": "Sunny, with a high near 51. Northwest wind around 5 mph.",
      "last_updated": "2025-11-09T23:23:19.583Z"
    },
    {
      "name": "Buttermilk",
      "lat": 39.2078,
      "lng": -106.8608,
      "snowfall_7day": 0,
      "forecast_text": "Sunny, with a high near 53. Northwest wind around 5 mph.",
      "last_updated": "2025-11-09T23:23:19.966Z"
    },
    {
      "name": "Beaver Creek",
      "lat": 39.6042,
      "lng": -106.5164,
      "snowfall_7day": 0,
      "forecast_text": "Sunny, with a high near 50. West northwest wind around 5 mph.",
      "last_updated": "2025-11-09T23:23:20.261Z"
    },
    {
      "name": "Purgatory",
      "lat": 37.6303,
      "lng": -107.8139,
      "snowfall_7day": 7,
      "forecast_text": "Sunny, with a high near 57. North wind around 5 mph.",
      "last_updated": "2025-11-09T23:23:21.092Z"
    },
    {
      "name": "Wolf Creek",
      "lat": 37.4722,
      "lng": -106.7931,
      "snowfall_7day": 14.5,
      "forecast_text": "Sunny, with a high near 39. West northwest wind around 5 mph.",
      "last_updated": "2025-11-09T23:23:21.601Z"
    },
    {
      "name": "Monarch Mountain",
      "lat": 38.5117,
      "lng": -106.3317,
      "snowfall_7day": 0,
      "forecast_text": "Sunny, with a high near 37. West wind around 15 mph.",
      "last_updated": "2025-11-09T23:23:22.553Z"
    },
    {
      "name": "Eldora",
      "lat": 39.9372,
      "lng": -105.5828,
      "snowfall_7day": 75,
      "forecast_text": "Sunny. High near 39, with temperatures falling to around 32 in the afternoon. West northwest wind around 10 mph, with gusts as high as 16 mph.",
      "last_updated": "2025-11-09T23:23:23.014Z"
    },
    {
      "name": "Grand Targhee",
      "lat": 43.7886,
      "lng": -110.9586,
      "snowfall_7day": 39,
      "forecast_text": "Sunny. High near 34, with temperatures falling to around 30 in the afternoon. Southeast wind around 6 mph.",
      "last_updated": "2025-11-09T23:23:23.891Z"
    },
    {
      "name": "Snow King",
      "lat": 43.4783,
      "lng": -110.7628,
      "snowfall_7day": 42,
      "forecast_text": "Sunny. High near 49, with temperatures falling to around 42 in the afternoon. Southwest wind around 5 mph.",
      "last_updated": "2025-11-09T23:23:24.421Z"
    },
    {
      "name": "Bridger Bowl",
      "lat": 45.8167,
      "lng": -110.8969,
      "snowfall_7day": 95,
      "forecast_text": "Sunny. High near 48, with temperatures falling to around 43 in the afternoon. West wind around 6 mph.",
      "last_updated": "2025-11-09T23:23:25.548Z"
    },
    {
      "name": "Big Mountain",
      "lat": 48.4928,
      "lng": -114.3483,
      "snowfall_7day": 2,
      "forecast_text": "Partly sunny, with a high near 34. Southwest wind around 3 mph.",
      "last_updated": "2025-11-09T23:23:25.851Z"
    },
    {
      "name": "Snowbowl",
      "lat": 46.9417,
      "lng": -113.9492,
      "snowfall_7day": 97,
      "forecast_text": "Partly sunny. High near 52, with temperatures falling to around 46 in the afternoon. West southwest wind around 2 mph.",
      "last_updated": "2025-11-09T23:23:26.242Z"
    },
    {
      "name": "Bogus Basin",
      "lat": 43.7725,
      "lng": -116.0939,
      "snowfall_7day": 97.5,
      "forecast_text": "Sunny. High near 45, with temperatures falling to around 41 in the afternoon. South southeast wind around 2 mph.",
      "last_updated": "2025-11-09T23:23:28.437Z"
    },
    {
      "name": "Tamarack",
      "lat": 44.6922,
      "lng": -116.1344,
      "snowfall_7day": 89,
      "forecast_text": "Mostly sunny. High near 46, with temperatures falling to around 38 in the afternoon. Southwest wind around 2 mph.",
      "last_updated": "2025-11-09T23:23:29.354Z"
    },
    {
      "name": "Silver Mountain",
      "lat": 47.6764,
      "lng": -116.0703,
      "snowfall_7day": 92,
      "forecast_text": "Partly sunny. High near 51, with temperatures falling to around 47 in the afternoon. East wind around 2 mph.",
      "last_updated": "2025-11-09T23:23:29.713Z"
    },
    {
      "name": "Mt. Hood Meadows",
      "lat": 45.3319,
      "lng": -121.6653,
      "snowfall_7day": 107.5,
      "forecast_text": "Partly sunny. High near 52, with temperatures falling to around 47 in the afternoon. South southeast wind around 3 mph.",
      "last_updated": "2025-11-09T23:23:30.993Z"
    },
    {
      "name": "Timberline",
      "lat": 45.3306,
      "lng": -121.7108,
      "snowfall_7day": 122,
      "forecast_text": "Mostly cloudy. High near 50, with temperatures falling to around 46 in the afternoon. South southeast wind around 6 mph.",
      "last_updated": "2025-11-09T23:23:31.544Z"
    },
    {
      "name": "Willamette Pass",
      "lat": 43.6006,
      "lng": -122.0336,
      "snowfall_7day": 107.5,
      "forecast_text": "Mostly cloudy. High near 58, with temperatures falling to around 50 in the afternoon. East southeast wind around 7 mph.",
      "last_updated": "2025-11-09T23:23:34.957Z"
    },
    {
      "name": "Mission Ridge",
      "lat": 47.2917,
      "lng": -120.3997,
      "snowfall_7day": 79,
      "forecast_text": "Partly sunny. High near 44, with temperatures falling to around 40 in the afternoon. Southwest wind around 2 mph.",
      "last_updated": "2025-11-09T23:23:35.647Z"
    },
    {
      "name": "Snoqualmie",
      "lat": 47.4219,
      "lng": -121.4136,
      "snowfall_7day": 86,
      "forecast_text": "Partly sunny. High near 50, with temperatures falling to around 43 in the afternoon. Southeast wind around 8 mph.",
      "last_updated": "2025-11-09T23:23:36.660Z"
    },
    {
      "name": "Mt. Spokane",
      "lat": 47.9208,
      "lng": -117.0856,
      "snowfall_7day": 78,
      "forecast_text": "Mostly sunny. High near 43, with temperatures falling to around 37 in the afternoon. South wind around 5 mph.",
      "last_updated": "2025-11-09T23:23:36.969Z"
    },
    {
      "name": "White Pass",
      "lat": 46.6394,
      "lng": -121.3908,
      "snowfall_7day": 93,
      "forecast_text": "Partly sunny. High near 51, with temperatures falling to around 46 in the afternoon. Southeast wind around 5 mph.",
      "last_updated": "2025-11-09T23:23:38.228Z"
    },
    {
      "name": "49 Degrees North",
      "lat": 48.7511,
      "lng": -117.6369,
      "snowfall_7day": 83,
      "forecast_text": "Mostly sunny. High near 46, with temperatures falling to around 41 in the afternoon. Southeast wind around 2 mph.",
      "last_updated": "2025-11-09T23:23:38.504Z"
    },
    {
      "name": "Red Mountain",
      "lat": 49.0917,
      "lng": -117.8233,
      "snowfall_7day": 0,
      "forecast_text": "Data unavailable",
      "last_updated": "2025-11-09T23:23:39.288Z",
      "error": "Point API failed: 404"
    },
    {
      "name": "Whitewater",
      "lat": 49.5394,
      "lng": -117.2717,
      "snowfall_7day": 0,
      "forecast_text": "Data unavailable",
      "last_updated": "2025-11-09T23:23:39.538Z",
      "error": "Point API failed: 404"
    },
    {
      "name": "Panorama",
      "lat": 50.8036,
      "lng": -116.0533,
      "snowfall_7day": 0,
      "forecast_text": "Data unavailable",
      "last_updated": "2025-11-09T23:23:39.855Z",
      "error": "Point API failed: 404"
    },
    {
      "name": "Marmot Basin",
      "lat": 52.8236,
      "lng": -118.0747,
      "snowfall_7day": 0,
      "forecast_text": "Data unavailable",
      "last_updated": "2025-11-09T23:23:40.173Z",
      "error": "Point API failed: 404"
    },
    {
      "name": "Nakiska",
      "lat": 50.98,
      "lng": -115.0733,
      "snowfall_7day": 0,
      "forecast_text": "Data unavailable",
      "last_updated": "2025-11-09T23:23:40.435Z",
      "error": "Point API failed: 404"
    },
    {
      "name": "Castle Mountain",
      "lat": 49.4058,
      "lng": -114.5169,
      "snowfall_7day": 0,
      "forecast_text": "Data unavailable",
      "last_updated": "2025-11-09T23:23:40.750Z",
      "error": "Point API failed: 404"
    },
    {
      "name": "Norquay",
      "lat": 51.1967,
      "lng": -115.5531,
      "snowfall_7day": 0,
      "forecast_text": "Data unavailable",
      "last_updated": "2025-11-09T23:23:41.943Z",
      "error": "Point API failed: 404"
    },
    {
      "name": "Le Massif",
      "lat": 47.3136,
      "lng": -70.6358,
      "snowfall_7day": 0,
      "forecast_text": "Data unavailable",
      "last_updated": "2025-11-09T23:23:42.264Z",
      "error": "Point API failed: 404"
    },
    {
      "name": "Calabogie",
      "lat": 45.2906,
      "lng": -76.7019,
      "snowfall_7day": 0,
      "forecast_text": "Data unavailable",
      "last_updated": "2025-11-09T23:23:42.514Z",
      "error": "Point API failed: 404"
    },
    {
      "name": "Sierra-at-Tahoe",
      "lat": 38.7986,
      "lng": -120.0828,
      "snowfall_7day": 68,
      "forecast_text": "Mostly sunny, with a high near 62. Northeast wind around 0 mph.",
      "last_updated": "2025-11-09T23:23:42.788Z"
    },
    {
      "name": "Kirkwood",
      "lat": 38.6867,
      "lng": -120.0656,
      "snowfall_7day": 133,
      "forecast_text": "Mostly sunny. High near 62, with temperatures falling to around 54 in the afternoon. Northeast wind around 2 mph.",
      "last_updated": "2025-11-09T23:23:43.321Z"
    },
    {
      "name": "Northstar",
      "lat": 39.2733,
      "lng": -120.1211,
      "snowfall_7day": 122,
      "forecast_text": "Mostly sunny. High near 66, with temperatures falling to around 58 in the afternoon. Northeast wind around 0 mph.",
      "last_updated": "2025-11-09T23:23:43.611Z"
    },
    {
      "name": "Homewood",
      "lat": 39.0833,
      "lng": -120.1667,
      "snowfall_7day": 11,
      "forecast_text": "Mostly sunny, with a high near 60. Northeast wind around 0 mph.",
      "last_updated": "2025-11-09T23:23:45.025Z"
    },
    {
      "name": "Mt. Rose",
      "lat": 39.3397,
      "lng": -119.8894,
      "snowfall_7day": 105.5,
      "forecast_text": "Mostly sunny. High near 55, with temperatures falling to around 46 in the afternoon. East wind around 5 mph.",
      "last_updated": "2025-11-09T23:23:45.983Z"
    },
    {
      "name": "Diamond Peak",
      "lat": 39.2525,
      "lng": -119.9169,
      "snowfall_7day": 8.5,
      "forecast_text": "Mostly sunny, with a high near 59. East wind 0 to 5 mph.",
      "last_updated": "2025-11-09T23:23:46.298Z"
    },
    {
      "name": "June Mountain",
      "lat": 37.7853,
      "lng": -119.0781,
      "snowfall_7day": 121.5,
      "forecast_text": "Sunny. High near 66, with temperatures falling to around 56 in the afternoon. Northeast wind around 0 mph.",
      "last_updated": "2025-11-09T23:23:46.731Z"
    },
    {
      "name": "Bear Mountain",
      "lat": 34.235,
      "lng": -116.865,
      "snowfall_7day": 0,
      "forecast_text": "Sunny, with a high near 67. East wind 10 to 15 mph, with gusts as high as 25 mph.",
      "last_updated": "2025-11-09T23:23:47.021Z"
    },
    {
      "name": "Snow Summit",
      "lat": 34.2306,
      "lng": -116.8886,
      "snowfall_7day": 0,
      "forecast_text": "Sunny, with a high near 65. East wind 5 to 10 mph.",
      "last_updated": "2025-11-09T23:23:47.319Z"
    },
    {
      "name": "Mountain High",
      "lat": 34.3811,
      "lng": -117.6881,
      "snowfall_7day": 0,
      "forecast_text": "Sunny, with a high near 68. Northeast wind 5 to 10 mph.",
      "last_updated": "2025-11-09T23:23:47.676Z"
    },
    {
      "name": "Ski Santa Fe",
      "lat": 35.7869,
      "lng": -105.7961,
      "snowfall_7day": 70,
      "forecast_text": "Sunny. High near 36, with temperatures falling to around 32 in the afternoon. Northwest wind around 5 mph.",
      "last_updated": "2025-11-09T23:23:48.081Z"
    },
    {
      "name": "Angel Fire",
      "lat": 36.3975,
      "lng": -105.2886,
      "snowfall_7day": 89,
      "forecast_text": "Sunny. High near 49, with temperatures falling to around 42 in the afternoon. West wind 0 to 5 mph.",
      "last_updated": "2025-11-09T23:23:48.512Z"
    }
  ]
}