{
  "generated_at": "2025-11-12T06:39:00.126Z",
  "total_resorts": 100,
  "resorts": [
    {
      "name": "Whistler Blackcomb",
      "lat": 50.1163,
      "lng": -122.9574,
      "snowfall_7day": 0,
      "forecast_text": "Data unavailable",
      "last_updated": "2025-11-12T06:31:43.875Z",
      "error": "Point API failed: 404"
    },
    {
      "name": "Vail",
      "lat": 39.6403,
      "lng": -106.3742,
      "snowfall_7day": 0,
      "forecast_text": "Partly cloudy, with a low around 27. Southeast wind around 5 mph.",
      "last_updated": "2025-11-12T06:31:45.531Z"
    },
    {
      "name": "Park City",
      "lat": 40.6514,
      "lng": -111.5079,
      "snowfall_7day": 1.5,
      "forecast_text": "Mostly cloudy. Low around 39, with temperatures rising to around 41 overnight. South southwest wind around 5 mph.",
      "last_updated": "2025-11-12T06:31:46.396Z"
    },
    {
      "name": "Breckenridge",
      "lat": 39.4817,
      "lng": -106.0384,
      "snowfall_7day": 0,
      "forecast_text": "Mostly cloudy, with a low around 29. South southeast wind around 7 mph.",
      "last_updated": "2025-11-12T06:31:49.297Z"
    },
    {
      "name": "Heavenly",
      "lat": 38.935,
      "lng": -119.9403,
      "snowfall_7day": 0,
      "forecast_text": "Mostly cloudy, with a low around 44. Southwest wind 0 to 5 mph.",
      "last_updated": "2025-11-12T06:31:51.679Z"
    },
    {
      "name": "Aspen Snowmass",
      "lat": 39.1911,
      "lng": -106.8175,
      "snowfall_7day": 0,
      "forecast_text": "Partly cloudy, with a low around 32. South southeast wind around 5 mph.",
      "last_updated": "2025-11-12T06:32:06.367Z"
    },
    {
      "name": "Jackson Hole",
      "lat": 43.5875,
      "lng": -110.8278,
      "snowfall_7day": 0,
      "forecast_text": "Partly cloudy, with a low around 34. West southwest wind around 8 mph.",
      "last_updated": "2025-11-12T06:32:10.900Z"
    },
    {
      "name": "Banff Sunshine",
      "lat": 51.1158,
      "lng": -115.7631,
      "snowfall_7day": 0,
      "forecast_text": "Data unavailable",
      "last_updated": "2025-11-12T06:32:13.512Z",
      "error": "Point API failed: 404"
    },
    {
      "name": "Lake Louise",
      "lat": 51.4254,
      "lng": -116.1773,
      "snowfall_7day": 0,
      "forecast_text": "Data unavailable",
      "last_updated": "2025-11-12T06:32:16.116Z",
      "error": "Point API failed: 404"
    },
    {
      "name": "Big Sky",
      "lat": 45.2846,
      "lng": -111.4008,
      "snowfall_7day": 0,
      "forecast_text": "Mostly cloudy, with a low around 33. South southwest wind around 7 mph.",
      "last_updated": "2025-11-12T06:32:23.038Z"
    },
    {
      "name": "Steamboat",
      "lat": 40.458,
      "lng": -106.8047,
      "snowfall_7day": 0,
      "forecast_text": "Partly cloudy, with a low around 28. South southeast wind 0 to 5 mph.",
      "last_updated": "2025-11-12T06:32:26.212Z"
    },
    {
      "name": "Mammoth Mountain",
      "lat": 37.6308,
      "lng": -119.0326,
      "snowfall_7day": 20.5,
      "forecast_text": "Mostly cloudy. Low around 36, with temperatures rising to around 38 overnight. Wind chill values as low as 26. Southwest wind 20 to 25 mph, with gusts as high as 40 mph.",
      "last_updated": "2025-11-12T06:32:27.618Z"
    },
    {
      "name": "Squaw Valley",
      "lat": 39.197,
      "lng": -120.2356,
      "snowfall_7day": 3,
      "forecast_text": "Mostly cloudy, with a low around 39. South wind 5 to 10 mph.",
      "last_updated": "2025-11-12T06:32:34.201Z"
    },
    {
      "name": "Telluride",
      "lat": 37.9375,
      "lng": -107.8123,
      "snowfall_7day": 3,
      "forecast_text": "Partly cloudy, with a low around 25. Southeast wind around 5 mph.",
      "last_updated": "2025-11-12T06:32:35.889Z"
    },
    {
      "name": "Sun Valley",
      "lat": 43.6966,
      "lng": -114.3553,
      "snowfall_7day": 0,
      "forecast_text": "Mostly cloudy. Low around 33, with temperatures rising to around 35 overnight. North northwest wind around 5 mph.",
      "last_updated": "2025-11-12T06:32:43.136Z"
    },
    {
      "name": "Deer Valley",
      "lat": 40.6374,
      "lng": -111.4783,
      "snowfall_7day": 1.5,
      "forecast_text": "Mostly cloudy. Low around 37, with temperatures rising to around 39 overnight. South southwest wind around 6 mph.",
      "last_updated": "2025-11-12T06:32:58.792Z"
    },
    {
      "name": "Killington",
      "lat": 43.6046,
      "lng": -72.822,
      "snowfall_7day": 5,
      "forecast_text": "Mostly cloudy, with a low around 18. West wind 20 to 24 mph, with gusts as high as 35 mph. New rainfall amounts less than a tenth of an inch possible.",
      "last_updated": "2025-11-12T06:33:01.274Z"
    },
    {
      "name": "Stowe",
      "lat": 44.5303,
      "lng": -72.7817,
      "snowfall_7day": 15,
      "forecast_text": "A chance of snow showers. Mostly cloudy, with a low around 21. West wind 9 to 13 mph, with gusts as high as 26 mph. Chance of precipitation is 30%. New snow accumulation of less than half an inch possible.",
      "last_updated": "2025-11-12T06:33:20.955Z"
    },
    {
      "name": "Alta",
      "lat": 40.5885,
      "lng": -111.6376,
      "snowfall_7day": 13.5,
      "forecast_text": "Mostly cloudy. Low around 37, with temperatures rising to around 39 overnight. Southwest wind around 8 mph.",
      "last_updated": "2025-11-12T06:33:22.767Z"
    },
    {
      "name": "Snowbird",
      "lat": 40.5803,
      "lng": -111.6573,
      "snowfall_7day": 12,
      "forecast_text": "Mostly cloudy, with a low around 37. Southwest wind around 7 mph.",
      "last_updated": "2025-11-12T06:33:26.069Z"
    },
    {
      "name": "Taos",
      "lat": 36.5924,
      "lng": -105.4467,
      "snowfall_7day": 5,
      "forecast_text": "Partly cloudy, with a low around 31. Southwest wind around 5 mph.",
      "last_updated": "2025-11-12T06:33:32.960Z"
    },
    {
      "name": "Copper Mountain",
      "lat": 39.5022,
      "lng": -106.1506,
      "snowfall_7day": 2,
      "forecast_text": "Mostly cloudy, with a low around 25. Southwest wind around 7 mph.",
      "last_updated": "2025-11-12T06:33:34.356Z"
    },
    {
      "name": "Winter Park",
      "lat": 39.8868,
      "lng": -105.7625,
      "snowfall_7day": 2,
      "forecast_text": "Mostly cloudy, with a low around 31. West southwest wind around 9 mph.",
      "last_updated": "2025-11-12T06:33:40.546Z"
    },
    {
      "name": "Keystone",
      "lat": 39.605,
      "lng": -105.9347,
      "snowfall_7day": 1.5,
      "forecast_text": "Mostly cloudy, with a low around 29. South southwest wind around 7 mph.",
      "last_updated": "2025-11-12T06:34:06.316Z"
    },
    {
      "name": "Arapahoe Basin",
      "lat": 39.6426,
      "lng": -105.8717,
      "snowfall_7day": 5,
      "forecast_text": "Mostly cloudy. Low around 29, with temperatures rising to around 31 overnight. West southwest wind 8 to 12 mph, with gusts as high as 18 mph.",
      "last_updated": "2025-11-12T06:34:08.246Z"
    },
    {
      "name": "Crested Butte",
      "lat": 38.8997,
      "lng": -106.9653,
      "snowfall_7day": 0,
      "forecast_text": "Partly cloudy, with a low around 27. North northwest wind 0 to 5 mph.",
      "last_updated": "2025-11-12T06:34:11.291Z"
    },
    {
      "name": "Loveland",
      "lat": 39.6803,
      "lng": -105.8978,
      "snowfall_7day": 5,
      "forecast_text": "Mostly cloudy. Low around 27, with temperatures rising to around 29 overnight. West southwest wind around 12 mph, with gusts as high as 18 mph.",
      "last_updated": "2025-11-12T06:34:16.633Z"
    },
    {
      "name": "Mt. Bachelor",
      "lat": 43.979,
      "lng": -121.688,
      "snowfall_7day": 10.5,
      "forecast_text": "Mostly cloudy. Low around 37, with temperatures rising to around 39 overnight. Southwest wind around 12 mph.",
      "last_updated": "2025-11-12T06:34:18.032Z"
    },
    {
      "name": "Crystal Mountain",
      "lat": 46.9358,
      "lng": -121.4742,
      "snowfall_7day": 9,
      "forecast_text": "A chance of rain after 11pm. Mostly cloudy. Low around 35, with temperatures rising to around 38 overnight. South southwest wind around 12 mph, with gusts as high as 22 mph. Chance of precipitation is 50%. New rainfall amounts less than a tenth of an inch possible.",
      "last_updated": "2025-11-12T06:34:19.908Z"
    },
    {
      "name": "Stevens Pass",
      "lat": 47.7453,
      "lng": -121.0892,
      "snowfall_7day": 7,
      "forecast_text": "Rain and snow after midnight. Cloudy. Low around 34, with temperatures rising to around 36 overnight. East northeast wind around 6 mph. Chance of precipitation is 80%. New rainfall amounts less than a tenth of an inch possible.",
      "last_updated": "2025-11-12T06:34:24.776Z"
    },
    {
      "name": "Mt. Baker",
      "lat": 48.8597,
      "lng": -121.6686,
      "snowfall_7day": 18.5,
      "forecast_text": "A slight chance of rain between 2am and 4am. Mostly cloudy. Low around 36, with temperatures rising to around 38 overnight. South wind around 8 mph. Chance of precipitation is 20%. New rainfall amounts less than a tenth of an inch possible.",
      "last_updated": "2025-11-12T06:34:28.367Z"
    },
    {
      "name": "Schweitzer",
      "lat": 48.3642,
      "lng": -116.6228,
      "snowfall_7day": 3.5,
      "forecast_text": "Rain after 1am. Cloudy. Low around 31, with temperatures rising to around 33 overnight. Southwest wind 6 to 9 mph. Chance of precipitation is 80%. New rainfall amounts between a tenth and quarter of an inch possible.",
      "last_updated": "2025-11-12T06:34:39.502Z"
    },
    {
      "name": "Sun Peaks",
      "lat": 50.8817,
      "lng": -119.8847,
      "snowfall_7day": 0,
      "forecast_text": "Data unavailable",
      "last_updated": "2025-11-12T06:34:40.155Z",
      "error": "Point API failed: 404"
    },
    {
      "name": "Revelstoke",
      "lat": 50.9981,
      "lng": -118.1956,
      "snowfall_7day": 0,
      "forecast_text": "Data unavailable",
      "last_updated": "2025-11-12T06:34:41.192Z",
      "error": "Point API failed: 404"
    },
    {
      "name": "Fernie",
      "lat": 49.4653,
      "lng": -115.0636,
      "snowfall_7day": 0,
      "forecast_text": "Data unavailable",
      "last_updated": "2025-11-12T06:34:41.555Z",
      "error": "Point API failed: 404"
    },
    {
      "name": "Big White",
      "lat": 49.7311,
      "lng": -118.935,
      "snowfall_7day": 0,
      "forecast_text": "Data unavailable",
      "last_updated": "2025-11-12T06:34:41.916Z",
      "error": "Point API failed: 404"
    },
    {
      "name": "Kicking Horse",
      "lat": 51.2514,
      "lng": -117.0492,
      "snowfall_7day": 0,
      "forecast_text": "Data unavailable",
      "last_updated": "2025-11-12T06:34:45.639Z",
      "error": "Point API failed: 404"
    },
    {
      "name": "Mont Tremblant",
      "lat": 46.2094,
      "lng": -74.5847,
      "snowfall_7day": 0,
      "forecast_text": "Data unavailable",
      "last_updated": "2025-11-12T06:34:49.401Z",
      "error": "Point API failed: 404"
    },
    {
      "name": "Blue Mountain",
      "lat": 44.5075,
      "lng": -80.3231,
      "snowfall_7day": 0,
      "forecast_text": "Data unavailable",
      "last_updated": "2025-11-12T06:34:51.959Z",
      "error": "Point API failed: 404"
    },
    {
      "name": "Sugarloaf",
      "lat": 45.0314,
      "lng": -70.3139,
      "snowfall_7day": 3,
      "forecast_text": "Mostly cloudy, with a low around 20. West wind 25 to 30 mph, with gusts as high as 45 mph.",
      "last_updated": "2025-11-12T06:34:53.640Z"
    },
    {
      "name": "Sunday River",
      "lat": 44.4697,
      "lng": -70.8561,
      "snowfall_7day": 0,
      "forecast_text": "Mostly cloudy, with a low around 24. West wind around 10 mph, with gusts as high as 30 mph.",
      "last_updated": "2025-11-12T06:34:56.155Z"
    },
    {
      "name": "Sugarbush",
      "lat": 44.135,
      "lng": -72.9017,
      "snowfall_7day": 8,
      "forecast_text": "A slight chance of snow showers. Mostly cloudy, with a low around 20. West wind around 13 mph, with gusts as high as 23 mph. Chance of precipitation is 20%. New snow accumulation of less than half an inch possible.",
      "last_updated": "2025-11-12T06:34:57.766Z"
    },
    {
      "name": "Stratton",
      "lat": 43.1133,
      "lng": -72.9083,
      "snowfall_7day": 0,
      "forecast_text": "Mostly cloudy. Low around 21, with temperatures rising to around 28 overnight. West wind around 10 mph, with gusts as high as 23 mph. New snow accumulation of less than half an inch possible.",
      "last_updated": "2025-11-12T06:35:05.627Z"
    },
    {
      "name": "Okemo",
      "lat": 43.4017,
      "lng": -72.7167,
      "snowfall_7day": 0,
      "forecast_text": "Mostly cloudy, with a low around 26. West wind around 12 mph, with gusts as high as 24 mph.",
      "last_updated": "2025-11-12T06:35:08.857Z"
    },
    {
      "name": "Jay Peak",
      "lat": 44.9378,
      "lng": -72.5036,
      "snowfall_7day": 12.5,
      "forecast_text": "A chance of snow showers. Mostly cloudy, with a low around 20. West wind 12 to 15 mph, with gusts as high as 30 mph. Chance of precipitation is 30%. New snow accumulation of less than half an inch possible.",
      "last_updated": "2025-11-12T06:35:12.905Z"
    },
    {
      "name": "Smugglers' Notch",
      "lat": 44.5458,
      "lng": -72.7872,
      "snowfall_7day": 17,
      "forecast_text": "A chance of snow showers. Mostly cloudy, with a low around 21. West wind 13 to 17 mph, with gusts as high as 30 mph. Chance of precipitation is 30%. New snow accumulation of less than half an inch possible.",
      "last_updated": "2025-11-12T06:35:16.055Z"
    },
    {
      "name": "Loon Mountain",
      "lat": 44.0369,
      "lng": -71.6206,
      "snowfall_7day": 0,
      "forecast_text": "Mostly cloudy, with a low around 21. West wind 10 to 15 mph, with gusts as high as 35 mph.",
      "last_updated": "2025-11-12T06:35:18.539Z"
    },
    {
      "name": "Cannon Mountain",
      "lat": 44.1572,
      "lng": -71.6978,
      "snowfall_7day": 12,
      "forecast_text": "Mostly cloudy, with a low around 18. Wind chill values as low as -1. West wind 25 to 35 mph, with gusts as high as 60 mph.",
      "last_updated": "2025-11-12T06:35:27.080Z"
    },
    {
      "name": "Wildcat Mountain",
      "lat": 44.2636,
      "lng": -71.2328,
      "snowfall_7day": 3,
      "forecast_text": "Mostly cloudy, with a low around 21. Northwest wind 5 to 15 mph, with gusts as high as 40 mph. New snow accumulation of less than half an inch possible.",
      "last_updated": "2025-11-12T06:35:31.253Z"
    },
    {
      "name": "Bretton Woods",
      "lat": 44.2633,
      "lng": -71.4439,
      "snowfall_7day": 5,
      "forecast_text": "Mostly cloudy, with a low around 19. West wind 0 to 15 mph, with gusts as high as 35 mph. New snow accumulation of less than half an inch possible.",
      "last_updated": "2025-11-12T06:35:35.430Z"
    },
    {
      "name": "Snowbasin",
      "lat": 41.2156,
      "lng": -111.8567,
      "snowfall_7day": 0,
      "forecast_text": "Mostly cloudy. Low around 39, with temperatures rising to around 41 overnight. South southeast wind around 5 mph.",
      "last_updated": "2025-11-12T06:35:40.081Z"
    },
    {
      "name": "Powder Mountain",
      "lat": 41.3814,
      "lng": -111.7806,
      "snowfall_7day": 9,
      "forecast_text": "Mostly cloudy. Low around 38, with temperatures rising to around 40 overnight. Southwest wind around 6 mph.",
      "last_updated": "2025-11-12T06:35:45.245Z"
    },
    {
      "name": "Solitude",
      "lat": 40.62,
      "lng": -111.5917,
      "snowfall_7day": 9.5,
      "forecast_text": "Mostly cloudy. Low around 37, with temperatures rising to around 40 overnight. Southwest wind around 6 mph.",
      "last_updated": "2025-11-12T06:35:46.823Z"
    },
    {
      "name": "Brighton",
      "lat": 40.5981,
      "lng": -111.5831,
      "snowfall_7day": 10.5,
      "forecast_text": "Mostly cloudy. Low around 37, with temperatures rising to around 39 overnight. Southwest wind around 6 mph.",
      "last_updated": "2025-11-12T06:35:47.759Z"
    },
    {
      "name": "Snowmass",
      "lat": 39.2133,
      "lng": -106.9378,
      "snowfall_7day": 0,
      "forecast_text": "Partly cloudy, with a low around 32. South southwest wind around 5 mph.",
      "last_updated": "2025-11-12T06:35:59.549Z"
    },
    {
      "name": "Aspen Highlands",
      "lat": 39.1825,
      "lng": -106.8553,
      "snowfall_7day": 0,
      "forecast_text": "Partly cloudy, with a low around 30. South wind around 5 mph.",
      "last_updated": "2025-11-12T06:36:00.901Z"
    },
    {
      "name": "Buttermilk",
      "lat": 39.2078,
      "lng": -106.8608,
      "snowfall_7day": 0,
      "forecast_text": "Partly cloudy, with a low around 30. South wind around 5 mph.",
      "last_updated": "2025-11-12T06:36:05.565Z"
    },
    {
      "name": "Beaver Creek",
      "lat": 39.6042,
      "lng": -106.5164,
      "snowfall_7day": 0,
      "forecast_text": "Partly cloudy, with a low around 28. South southeast wind around 5 mph.",
      "last_updated": "2025-11-12T06:36:12.998Z"
    },
    {
      "name": "Purgatory",
      "lat": 37.6303,
      "lng": -107.8139,
      "snowfall_7day": 1.5,
      "forecast_text": "Partly cloudy, with a low around 30. North wind around 5 mph.",
      "last_updated": "2025-11-12T06:36:14.203Z"
    },
    {
      "name": "Wolf Creek",
      "lat": 37.4722,
      "lng": -106.7931,
      "snowfall_7day": 11,
      "forecast_text": "Partly cloudy, with a low around 32. West southwest wind around 5 mph.",
      "last_updated": "2025-11-12T06:36:15.811Z"
    },
    {
      "name": "Monarch Mountain",
      "lat": 38.5117,
      "lng": -106.3317,
      "snowfall_7day": 3.5,
      "forecast_text": "Mostly cloudy, with a low around 30. West wind 10 to 15 mph.",
      "last_updated": "2025-11-12T06:36:18.123Z"
    },
    {
      "name": "Eldora",
      "lat": 39.9372,
      "lng": -105.5828,
      "snowfall_7day": 2,
      "forecast_text": "Mostly cloudy. Low around 31, with temperatures rising to around 33 overnight. West wind 10 to 16 mph, with gusts as high as 25 mph.",
      "last_updated": "2025-11-12T06:36:20.038Z"
    },
    {
      "name": "Grand Targhee",
      "lat": 43.7886,
      "lng": -110.9586,
      "snowfall_7day": 6.5,
      "forecast_text": "Partly cloudy. Low around 27, with temperatures rising to around 30 overnight. South wind around 9 mph.",
      "last_updated": "2025-11-12T06:36:26.640Z"
    },
    {
      "name": "Snow King",
      "lat": 43.4783,
      "lng": -110.7628,
      "snowfall_7day": 0,
      "forecast_text": "Partly cloudy, with a low around 31. South southeast wind around 7 mph.",
      "last_updated": "2025-11-12T06:36:31.010Z"
    },
    {
      "name": "Bridger Bowl",
      "lat": 45.8167,
      "lng": -110.8969,
      "snowfall_7day": 3,
      "forecast_text": "Partly cloudy, with a low around 35. Southwest wind around 6 mph.",
      "last_updated": "2025-11-12T06:36:32.472Z"
    },
    {
      "name": "Big Mountain",
      "lat": 48.4928,
      "lng": -114.3483,
      "snowfall_7day": 5.5,
      "forecast_text": "A chance of rain and snow after 4am. Mostly cloudy, with a low around 30. Southeast wind around 3 mph. Chance of precipitation is 30%. New rainfall amounts between a tenth and quarter of an inch possible.",
      "last_updated": "2025-11-12T06:36:34.645Z"
    },
    {
      "name": "Snowbowl",
      "lat": 46.9417,
      "lng": -113.9492,
      "snowfall_7day": 0,
      "forecast_text": "Cloudy, with a low around 39. East northeast wind around 3 mph.",
      "last_updated": "2025-11-12T06:36:39.883Z"
    },
    {
      "name": "Bogus Basin",
      "lat": 43.7725,
      "lng": -116.0939,
      "snowfall_7day": 0,
      "forecast_text": "Mostly cloudy, with a low around 44. South southeast wind around 9 mph.",
      "last_updated": "2025-11-12T06:36:42.212Z"
    },
    {
      "name": "Tamarack",
      "lat": 44.6922,
      "lng": -116.1344,
      "snowfall_7day": 0,
      "forecast_text": "Mostly cloudy, with a low around 36. Southwest wind around 7 mph.",
      "last_updated": "2025-11-12T06:36:43.449Z"
    },
    {
      "name": "Silver Mountain",
      "lat": 47.6764,
      "lng": -116.0703,
      "snowfall_7day": 0,
      "forecast_text": "Rain likely before 5am, then a chance of rain and patchy fog. Cloudy. Low around 39, with temperatures rising to around 42 overnight. Northeast wind around 3 mph. Chance of precipitation is 60%. New rainfall amounts less than a tenth of an inch possible.",
      "last_updated": "2025-11-12T06:36:49.235Z"
    },
    {
      "name": "Mt. Hood Meadows",
      "lat": 45.3319,
      "lng": -121.6653,
      "snowfall_7day": 5.5,
      "forecast_text": "A slight chance of rain after 1am. Mostly cloudy, with a low around 42. West southwest wind around 1 mph. Chance of precipitation is 20%.",
      "last_updated": "2025-11-12T06:37:00.699Z"
    },
    {
      "name": "Timberline",
      "lat": 45.3306,
      "lng": -121.7108,
      "snowfall_7day": 16,
      "forecast_text": "A slight chance of rain after midnight. Mostly cloudy, with a low around 42. Southwest wind around 5 mph. Chance of precipitation is 20%.",
      "last_updated": "2025-11-12T06:37:06.793Z"
    },
    {
      "name": "Willamette Pass",
      "lat": 43.6006,
      "lng": -122.0336,
      "snowfall_7day": 0,
      "forecast_text": "Mostly cloudy, with a low around 37. South southeast wind around 7 mph.",
      "last_updated": "2025-11-12T06:37:08.033Z"
    },
    {
      "name": "Mission Ridge",
      "lat": 47.2917,
      "lng": -120.3997,
      "snowfall_7day": 0,
      "forecast_text": "A chance of rain and snow between 1am and 3am, then a chance of rain and snow between 3am and 4am, then a slight chance of rain and snow. Mostly cloudy. Low around 34, with temperatures rising to around 36 overnight. Southwest wind around 2 mph. Chance of precipitation is 30%. New rainfall amounts less than a tenth of an inch possible.",
      "last_updated": "2025-11-12T06:37:18.573Z"
    },
    {
      "name": "Snoqualmie",
      "lat": 47.4219,
      "lng": -121.4136,
      "snowfall_7day": 0,
      "forecast_text": "Rain likely. Cloudy, with a low around 37. Southeast wind around 3 mph. Chance of precipitation is 70%. New rainfall amounts less than a tenth of an inch possible.",
      "last_updated": "2025-11-12T06:37:20.505Z"
    },
    {
      "name": "Mt. Spokane",
      "lat": 47.9208,
      "lng": -117.0856,
      "snowfall_7day": 0,
      "forecast_text": "A chance of rain. Cloudy. Low around 35, with temperatures rising to around 38 overnight. South wind around 6 mph. Chance of precipitation is 50%. New rainfall amounts less than a tenth of an inch possible.",
      "last_updated": "2025-11-12T06:37:22.077Z"
    },
    {
      "name": "White Pass",
      "lat": 46.6394,
      "lng": -121.3908,
      "snowfall_7day": 4,
      "forecast_text": "A chance of rain. Cloudy. Low around 37, with temperatures rising to around 39 overnight. South wind around 3 mph. Chance of precipitation is 40%. New rainfall amounts less than a tenth of an inch possible.",
      "last_updated": "2025-11-12T06:37:25.686Z"
    },
    {
      "name": "49 Degrees North",
      "lat": 48.7511,
      "lng": -117.6369,
      "snowfall_7day": 0,
      "forecast_text": "Rain likely after 1am. Cloudy. Low around 35, with temperatures rising to around 37 overnight. Southeast wind around 1 mph. Chance of precipitation is 70%. New rainfall amounts less than a tenth of an inch possible.",
      "last_updated": "2025-11-12T06:37:27.861Z"
    },
    {
      "name": "Red Mountain",
      "lat": 49.0917,
      "lng": -117.8233,
      "snowfall_7day": 0,
      "forecast_text": "Data unavailable",
      "last_updated": "2025-11-12T06:37:28.158Z",
      "error": "Point API failed: 404"
    },
    {
      "name": "Whitewater",
      "lat": 49.5394,
      "lng": -117.2717,
      "snowfall_7day": 0,
      "forecast_text": "Data unavailable",
      "last_updated": "2025-11-12T06:37:28.576Z",
      "error": "Point API failed: 404"
    },
    {
      "name": "Panorama",
      "lat": 50.8036,
      "lng": -116.0533,
      "snowfall_7day": 0,
      "forecast_text": "Data unavailable",
      "last_updated": "2025-11-12T06:37:31.012Z",
      "error": "Point API failed: 404"
    },
    {
      "name": "Marmot Basin",
      "lat": 52.8236,
      "lng": -118.0747,
      "snowfall_7day": 0,
      "forecast_text": "Data unavailable",
      "last_updated": "2025-11-12T06:37:34.008Z",
      "error": "Point API failed: 404"
    },
    {
      "name": "Nakiska",
      "lat": 50.98,
      "lng": -115.0733,
      "snowfall_7day": 0,
      "forecast_text": "Data unavailable",
      "last_updated": "2025-11-12T06:37:37.705Z",
      "error": "Point API failed: 404"
    },
    {
      "name": "Castle Mountain",
      "lat": 49.4058,
      "lng": -114.5169,
      "snowfall_7day": 0,
      "forecast_text": "Data unavailable",
      "last_updated": "2025-11-12T06:37:38.217Z",
      "error": "Point API failed: 404"
    },
    {
      "name": "Norquay",
      "lat": 51.1967,
      "lng": -115.5531,
      "snowfall_7day": 0,
      "forecast_text": "Data unavailable",
      "last_updated": "2025-11-12T06:37:38.809Z",
      "error": "Point API failed: 404"
    },
    {
      "name": "Le Massif",
      "lat": 47.3136,
      "lng": -70.6358,
      "snowfall_7day": 0,
      "forecast_text": "Data unavailable",
      "last_updated": "2025-11-12T06:37:39.242Z",
      "error": "Point API failed: 404"
    },
    {
      "name": "Calabogie",
      "lat": 45.2906,
      "lng": -76.7019,
      "snowfall_7day": 0,
      "forecast_text": "Data unavailable",
      "last_updated": "2025-11-12T06:37:39.551Z",
      "error": "Point API failed: 404"
    },
    {
      "name": "Sierra-at-Tahoe",
      "lat": 38.7986,
      "lng": -120.0828,
      "snowfall_7day": 4.5,
      "forecast_text": "Mostly cloudy, with a low around 44. Southwest wind around 5 mph.",
      "last_updated": "2025-11-12T06:37:41.211Z"
    },
    {
      "name": "Kirkwood",
      "lat": 38.6867,
      "lng": -120.0656,
      "snowfall_7day": 18,
      "forecast_text": "Mostly cloudy. Low around 40, with temperatures rising to around 42 overnight. South wind 7 to 12 mph, with gusts as high as 22 mph.",
      "last_updated": "2025-11-12T06:37:45.372Z"
    },
    {
      "name": "Northstar",
      "lat": 39.2733,
      "lng": -120.1211,
      "snowfall_7day": 0,
      "forecast_text": "Mostly cloudy, with a low around 44. South wind 5 to 10 mph.",
      "last_updated": "2025-11-12T06:37:54.737Z"
    },
    {
      "name": "Homewood",
      "lat": 39.0833,
      "lng": -120.1667,
      "snowfall_7day": 2,
      "forecast_text": "Mostly cloudy, with a low around 44. Southwest wind 5 to 10 mph.",
      "last_updated": "2025-11-12T06:37:57.777Z"
    },
    {
      "name": "Mt. Rose",
      "lat": 39.3397,
      "lng": -119.8894,
      "snowfall_7day": 4.5,
      "forecast_text": "Mostly cloudy, with a low around 41. Southwest wind 10 to 15 mph.",
      "last_updated": "2025-11-12T06:38:01.932Z"
    },
    {
      "name": "Diamond Peak",
      "lat": 39.2525,
      "lng": -119.9169,
      "snowfall_7day": 0,
      "forecast_text": "Mostly cloudy, with a low around 44. Southwest wind 5 to 10 mph.",
      "last_updated": "2025-11-12T06:38:05.896Z"
    },
    {
      "name": "June Mountain",
      "lat": 37.7853,
      "lng": -119.0781,
      "snowfall_7day": 2,
      "forecast_text": "Mostly cloudy, with a low around 41. Southwest wind 5 to 15 mph, with gusts as high as 25 mph.",
      "last_updated": "2025-11-12T06:38:25.561Z"
    },
    {
      "name": "Bear Mountain",
      "lat": 34.235,
      "lng": -116.865,
      "snowfall_7day": 0,
      "forecast_text": "Mostly cloudy, with a low around 39. Southwest wind around 0 mph.",
      "last_updated": "2025-11-12T06:38:27.197Z"
    },
    {
      "name": "Snow Summit",
      "lat": 34.2306,
      "lng": -116.8886,
      "snowfall_7day": 1.5,
      "forecast_text": "Mostly cloudy, with a low around 43. Southwest wind 0 to 5 mph.",
      "last_updated": "2025-11-12T06:38:33.926Z"
    },
    {
      "name": "Mountain High",
      "lat": 34.3811,
      "lng": -117.6881,
      "snowfall_7day": 0,
      "forecast_text": "Mostly cloudy, with a low around 51. South wind 5 to 10 mph.",
      "last_updated": "2025-11-12T06:38:42.293Z"
    },
    {
      "name": "Ski Santa Fe",
      "lat": 35.7869,
      "lng": -105.7961,
      "snowfall_7day": 1.5,
      "forecast_text": "Partly cloudy, with a low around 32. West wind around 5 mph.",
      "last_updated": "2025-11-12T06:38:43.974Z"
    },
    {
      "name": "Angel Fire",
      "lat": 36.3975,
      "lng": -105.2886,
      "snowfall_7day": 0,
      "forecast_text": "Partly cloudy, with a low around 31. Southwest wind around 0 mph.",
      "last_updated": "2025-11-12T06:38:48.226Z"
    },
    {
      "name": "Whiteface Mountain",
      "lat": 44.3659,
      "lng": -73.9024,
      "snowfall_7day": 6.5,
      "forecast_text": "A slight chance of snow showers after 3am. Mostly cloudy. Low around 16, with temperatures rising to around 22 overnight. West wind 17 to 22 mph, with gusts as high as 36 mph. Chance of precipitation is 20%. New snow accumulation of less than half an inch possible.",
      "last_updated": "2025-11-12T06:38:59.926Z"
    }
  ]
}