{
  "generated_at": "2025-11-11T06:34:04.898Z",
  "total_resorts": 100,
  "resorts": [
    {
      "name": "Whistler Blackcomb",
      "lat": 50.1163,
      "lng": -122.9574,
      "snowfall_7day": 0,
      "forecast_text": "Data unavailable",
      "last_updated": "2025-11-11T06:31:05.494Z",
      "error": "Point API failed: 404"
    },
    {
      "name": "Vail",
      "lat": 39.6403,
      "lng": -106.3742,
      "snowfall_7day": 0,
      "forecast_text": "Mostly clear, with a low around 29. Northwest wind around 5 mph.",
      "last_updated": "2025-11-11T06:31:24.715Z"
    },
    {
      "name": "Park City",
      "lat": 40.6514,
      "lng": -111.5079,
      "snowfall_7day": 1.5,
      "forecast_text": "Partly cloudy. Low around 37, with temperatures rising to around 39 overnight. North northwest wind around 2 mph.",
      "last_updated": "2025-11-11T06:31:25.558Z"
    },
    {
      "name": "Breckenridge",
      "lat": 39.4817,
      "lng": -106.0384,
      "snowfall_7day": 0,
      "forecast_text": "Mostly clear, with a low around 28. Northwest wind around 12 mph, with gusts as high as 18 mph.",
      "last_updated": "2025-11-11T06:31:26.378Z"
    },
    {
      "name": "Heavenly",
      "lat": 38.935,
      "lng": -119.9403,
      "snowfall_7day": 4.5,
      "forecast_text": "Partly cloudy, with a low around 43. South wind around 0 mph.",
      "last_updated": "2025-11-11T06:31:40.066Z"
    },
    {
      "name": "Aspen Snowmass",
      "lat": 39.1911,
      "lng": -106.8175,
      "snowfall_7day": 0,
      "forecast_text": "Mostly clear, with a low around 32. South southeast wind around 5 mph.",
      "last_updated": "2025-11-11T06:31:40.902Z"
    },
    {
      "name": "Jackson Hole",
      "lat": 43.5875,
      "lng": -110.8278,
      "snowfall_7day": 0,
      "forecast_text": "Mostly clear. Low around 31, with temperatures rising to around 34 overnight. Southwest wind around 10 mph.",
      "last_updated": "2025-11-11T06:31:42.347Z"
    },
    {
      "name": "Banff Sunshine",
      "lat": 51.1158,
      "lng": -115.7631,
      "snowfall_7day": 0,
      "forecast_text": "Data unavailable",
      "last_updated": "2025-11-11T06:31:42.719Z",
      "error": "Point API failed: 404"
    },
    {
      "name": "Lake Louise",
      "lat": 51.4254,
      "lng": -116.1773,
      "snowfall_7day": 0,
      "forecast_text": "Data unavailable",
      "last_updated": "2025-11-11T06:31:43.658Z",
      "error": "Point API failed: 404"
    },
    {
      "name": "Big Sky",
      "lat": 45.2846,
      "lng": -111.4008,
      "snowfall_7day": 7,
      "forecast_text": "Partly cloudy. Low around 32, with temperatures rising to around 36 overnight. West wind around 10 mph, with gusts as high as 21 mph.",
      "last_updated": "2025-11-11T06:31:45.612Z"
    },
    {
      "name": "Steamboat",
      "lat": 40.458,
      "lng": -106.8047,
      "snowfall_7day": 0,
      "forecast_text": "Mostly clear, with a low around 30. East northeast wind 0 to 5 mph.",
      "last_updated": "2025-11-11T06:31:49.141Z"
    },
    {
      "name": "Mammoth Mountain",
      "lat": 37.6308,
      "lng": -119.0326,
      "snowfall_7day": 27,
      "forecast_text": "Partly cloudy. Low around 37, with temperatures rising to around 39 overnight. Southwest wind 5 to 10 mph.",
      "last_updated": "2025-11-11T06:31:51.001Z"
    },
    {
      "name": "Squaw Valley",
      "lat": 39.197,
      "lng": -120.2356,
      "snowfall_7day": 8.5,
      "forecast_text": "Partly cloudy, with a low around 37. Southwest wind around 0 mph.",
      "last_updated": "2025-11-11T06:31:53.082Z"
    },
    {
      "name": "Telluride",
      "lat": 37.9375,
      "lng": -107.8123,
      "snowfall_7day": 4.5,
      "forecast_text": "Mostly clear, with a low around 28. Southeast wind 0 to 5 mph.",
      "last_updated": "2025-11-11T06:31:54.218Z"
    },
    {
      "name": "Sun Valley",
      "lat": 43.6966,
      "lng": -114.3553,
      "snowfall_7day": 0,
      "forecast_text": "Partly cloudy, with a low around 32. North northwest wind around 7 mph.",
      "last_updated": "2025-11-11T06:31:56.797Z"
    },
    {
      "name": "Deer Valley",
      "lat": 40.6374,
      "lng": -111.4783,
      "snowfall_7day": 1.5,
      "forecast_text": "Partly cloudy. Low around 35, with temperatures rising to around 37 overnight. East wind around 5 mph.",
      "last_updated": "2025-11-11T06:31:57.318Z"
    },
    {
      "name": "Killington",
      "lat": 43.6046,
      "lng": -72.822,
      "snowfall_7day": 6.5,
      "forecast_text": "Mostly cloudy, with a low around 16. Wind chill values as low as -1. West wind 20 to 23 mph.",
      "last_updated": "2025-11-11T06:32:00.662Z"
    },
    {
      "name": "Stowe",
      "lat": 44.5303,
      "lng": -72.7817,
      "snowfall_7day": 24,
      "forecast_text": "A chance of snow showers. Cloudy, with a low around 21. West wind around 12 mph, with gusts as high as 22 mph. Chance of precipitation is 40%. New snow accumulation of less than half an inch possible.",
      "last_updated": "2025-11-11T06:32:08.009Z"
    },
    {
      "name": "Alta",
      "lat": 40.5885,
      "lng": -111.6376,
      "snowfall_7day": 18.5,
      "forecast_text": "Partly cloudy, with a low around 35. West wind around 3 mph.",
      "last_updated": "2025-11-11T06:32:12.728Z"
    },
    {
      "name": "Snowbird",
      "lat": 40.5803,
      "lng": -111.6573,
      "snowfall_7day": 16.5,
      "forecast_text": "Partly cloudy, with a low around 35. West wind around 6 mph.",
      "last_updated": "2025-11-11T06:32:15.986Z"
    },
    {
      "name": "Taos",
      "lat": 36.5924,
      "lng": -105.4467,
      "snowfall_7day": 9.5,
      "forecast_text": "Partly cloudy, with a low around 30. West wind around 10 mph.",
      "last_updated": "2025-11-11T06:32:18.069Z"
    },
    {
      "name": "Copper Mountain",
      "lat": 39.5022,
      "lng": -106.1506,
      "snowfall_7day": 0,
      "forecast_text": "Mostly clear, with a low around 25. West southwest wind around 14 mph, with gusts as high as 23 mph.",
      "last_updated": "2025-11-11T06:32:20.859Z"
    },
    {
      "name": "Winter Park",
      "lat": 39.8868,
      "lng": -105.7625,
      "snowfall_7day": 1.5,
      "forecast_text": "Partly cloudy, with a low around 30. Northwest wind 12 to 15 mph, with gusts as high as 25 mph.",
      "last_updated": "2025-11-11T06:32:36.704Z"
    },
    {
      "name": "Keystone",
      "lat": 39.605,
      "lng": -105.9347,
      "snowfall_7day": 0,
      "forecast_text": "Mostly clear, with a low around 28. West wind around 12 mph, with gusts as high as 18 mph.",
      "last_updated": "2025-11-11T06:32:50.445Z"
    },
    {
      "name": "Arapahoe Basin",
      "lat": 39.6426,
      "lng": -105.8717,
      "snowfall_7day": 5,
      "forecast_text": "Partly cloudy, with a low around 29. West wind around 18 mph, with gusts as high as 31 mph.",
      "last_updated": "2025-11-11T06:32:51.247Z"
    },
    {
      "name": "Crested Butte",
      "lat": 38.8997,
      "lng": -106.9653,
      "snowfall_7day": 0,
      "forecast_text": "Partly cloudy, with a low around 27. Northwest wind 0 to 5 mph.",
      "last_updated": "2025-11-11T06:32:52.084Z"
    },
    {
      "name": "Loveland",
      "lat": 39.6803,
      "lng": -105.8978,
      "snowfall_7day": 2,
      "forecast_text": "Mostly clear, with a low around 27. West northwest wind around 20 mph, with gusts as high as 32 mph.",
      "last_updated": "2025-11-11T06:32:58.577Z"
    },
    {
      "name": "Mt. Bachelor",
      "lat": 43.979,
      "lng": -121.688,
      "snowfall_7day": 32.5,
      "forecast_text": "Mostly cloudy. Low around 35, with temperatures rising to around 37 overnight. West wind around 9 mph.",
      "last_updated": "2025-11-11T06:32:59.328Z"
    },
    {
      "name": "Crystal Mountain",
      "lat": 46.9358,
      "lng": -121.4742,
      "snowfall_7day": 23.5,
      "forecast_text": "A slight chance of snow before 11pm. Mostly cloudy. Low around 29, with temperatures rising to around 31 overnight. Wind chill values as low as 24. West northwest wind 6 to 12 mph, with gusts as high as 23 mph. Chance of precipitation is 20%. New rainfall amounts less than a tenth of an inch possible.",
      "last_updated": "2025-11-11T06:33:00.348Z"
    },
    {
      "name": "Stevens Pass",
      "lat": 47.7453,
      "lng": -121.0892,
      "snowfall_7day": 19.5,
      "forecast_text": "A chance of snow before 3am. Mostly cloudy. Low around 32, with temperatures rising to around 34 overnight. West wind 3 to 8 mph. Chance of precipitation is 30%. New rainfall amounts less than a tenth of an inch possible.",
      "last_updated": "2025-11-11T06:33:01.600Z"
    },
    {
      "name": "Mt. Baker",
      "lat": 48.8597,
      "lng": -121.6686,
      "snowfall_7day": 33.5,
      "forecast_text": "A chance of snow. Mostly cloudy, with a low around 31. South southwest wind 3 to 7 mph. Chance of precipitation is 30%. New snow accumulation of less than half an inch possible.",
      "last_updated": "2025-11-11T06:33:03.118Z"
    },
    {
      "name": "Schweitzer",
      "lat": 48.3642,
      "lng": -116.6228,
      "snowfall_7day": 14.5,
      "forecast_text": "A slight chance of rain before midnight, then a slight chance of rain and snow. Mostly cloudy. Low around 30, with temperatures rising to around 32 overnight. West wind around 7 mph. Chance of precipitation is 20%.",
      "last_updated": "2025-11-11T06:33:04.866Z"
    },
    {
      "name": "Sun Peaks",
      "lat": 50.8817,
      "lng": -119.8847,
      "snowfall_7day": 0,
      "forecast_text": "Data unavailable",
      "last_updated": "2025-11-11T06:33:05.205Z",
      "error": "Point API failed: 404"
    },
    {
      "name": "Revelstoke",
      "lat": 50.9981,
      "lng": -118.1956,
      "snowfall_7day": 0,
      "forecast_text": "Data unavailable",
      "last_updated": "2025-11-11T06:33:05.495Z",
      "error": "Point API failed: 404"
    },
    {
      "name": "Fernie",
      "lat": 49.4653,
      "lng": -115.0636,
      "snowfall_7day": 0,
      "forecast_text": "Data unavailable",
      "last_updated": "2025-11-11T06:33:05.759Z",
      "error": "Point API failed: 404"
    },
    {
      "name": "Big White",
      "lat": 49.7311,
      "lng": -118.935,
      "snowfall_7day": 0,
      "forecast_text": "Data unavailable",
      "last_updated": "2025-11-11T06:33:06.027Z",
      "error": "Point API failed: 404"
    },
    {
      "name": "Kicking Horse",
      "lat": 51.2514,
      "lng": -117.0492,
      "snowfall_7day": 0,
      "forecast_text": "Data unavailable",
      "last_updated": "2025-11-11T06:33:06.294Z",
      "error": "Point API failed: 404"
    },
    {
      "name": "Mont Tremblant",
      "lat": 46.2094,
      "lng": -74.5847,
      "snowfall_7day": 0,
      "forecast_text": "Data unavailable",
      "last_updated": "2025-11-11T06:33:06.555Z",
      "error": "Point API failed: 404"
    },
    {
      "name": "Blue Mountain",
      "lat": 44.5075,
      "lng": -80.3231,
      "snowfall_7day": 0,
      "forecast_text": "Data unavailable",
      "last_updated": "2025-11-11T06:33:06.819Z",
      "error": "Point API failed: 404"
    },
    {
      "name": "Sugarloaf",
      "lat": 45.0314,
      "lng": -70.3139,
      "snowfall_7day": 2,
      "forecast_text": "Partly cloudy, with a low around 26. West wind 10 to 15 mph, with gusts as high as 30 mph.",
      "last_updated": "2025-11-11T06:33:11.371Z"
    },
    {
      "name": "Sunday River",
      "lat": 44.4697,
      "lng": -70.8561,
      "snowfall_7day": 0,
      "forecast_text": "Partly cloudy, with a low around 27. Northwest wind around 10 mph, with gusts as high as 30 mph.",
      "last_updated": "2025-11-11T06:33:12.734Z"
    },
    {
      "name": "Sugarbush",
      "lat": 44.135,
      "lng": -72.9017,
      "snowfall_7day": 14,
      "forecast_text": "A slight chance of snow showers. Cloudy, with a low around 19. West wind around 9 mph. Chance of precipitation is 20%. New snow accumulation of less than half an inch possible.",
      "last_updated": "2025-11-11T06:33:14.986Z"
    },
    {
      "name": "Stratton",
      "lat": 43.1133,
      "lng": -72.9083,
      "snowfall_7day": 0,
      "forecast_text": "Mostly cloudy, with a low around 23. West wind around 10 mph, with gusts as high as 24 mph.",
      "last_updated": "2025-11-11T06:33:16.813Z"
    },
    {
      "name": "Okemo",
      "lat": 43.4017,
      "lng": -72.7167,
      "snowfall_7day": 0,
      "forecast_text": "Mostly cloudy, with a low around 24. West wind around 14 mph, with gusts as high as 25 mph.",
      "last_updated": "2025-11-11T06:33:17.748Z"
    },
    {
      "name": "Jay Peak",
      "lat": 44.9378,
      "lng": -72.5036,
      "snowfall_7day": 23,
      "forecast_text": "Snow showers likely. Cloudy, with a low around 20. West wind around 13 mph, with gusts as high as 25 mph. Chance of precipitation is 60%. New snow accumulation of less than one inch possible.",
      "last_updated": "2025-11-11T06:33:19.009Z"
    },
    {
      "name": "Smugglers' Notch",
      "lat": 44.5458,
      "lng": -72.7872,
      "snowfall_7day": 24,
      "forecast_text": "A chance of snow showers. Cloudy, with a low around 20. West wind around 13 mph, with gusts as high as 23 mph. Chance of precipitation is 40%. New snow accumulation of less than half an inch possible.",
      "last_updated": "2025-11-11T06:33:20.007Z"
    },
    {
      "name": "Loon Mountain",
      "lat": 44.0369,
      "lng": -71.6206,
      "snowfall_7day": 1.5,
      "forecast_text": "Mostly cloudy, with a low around 23. Northwest wind 5 to 10 mph, with gusts as high as 25 mph.",
      "last_updated": "2025-11-11T06:33:22.265Z"
    },
    {
      "name": "Cannon Mountain",
      "lat": 44.1572,
      "lng": -71.6978,
      "snowfall_7day": 11.5,
      "forecast_text": "Mostly cloudy, with a low around 18. Northwest wind 10 to 15 mph, with gusts as high as 30 mph. New snow accumulation of less than one inch possible.",
      "last_updated": "2025-11-11T06:33:24.080Z"
    },
    {
      "name": "Wildcat Mountain",
      "lat": 44.2636,
      "lng": -71.2328,
      "snowfall_7day": 7.5,
      "forecast_text": "Partly cloudy, with a low around 25. Northwest wind 5 to 10 mph. New rainfall amounts less than a tenth of an inch possible.",
      "last_updated": "2025-11-11T06:33:25.019Z"
    },
    {
      "name": "Bretton Woods",
      "lat": 44.2633,
      "lng": -71.4439,
      "snowfall_7day": 7,
      "forecast_text": "Mostly cloudy, with a low around 22. Northwest wind around 5 mph. New snow accumulation of less than half an inch possible.",
      "last_updated": "2025-11-11T06:33:25.585Z"
    },
    {
      "name": "Snowbasin",
      "lat": 41.2156,
      "lng": -111.8567,
      "snowfall_7day": 1.5,
      "forecast_text": "Partly cloudy. Low around 36, with temperatures rising to around 38 overnight. West southwest wind around 5 mph.",
      "last_updated": "2025-11-11T06:33:26.075Z"
    },
    {
      "name": "Powder Mountain",
      "lat": 41.3814,
      "lng": -111.7806,
      "snowfall_7day": 11.5,
      "forecast_text": "Partly cloudy. Low around 34, with temperatures rising to around 36 overnight. West southwest wind around 5 mph.",
      "last_updated": "2025-11-11T06:33:27.306Z"
    },
    {
      "name": "Solitude",
      "lat": 40.62,
      "lng": -111.5917,
      "snowfall_7day": 11.5,
      "forecast_text": "Partly cloudy. Low around 35, with temperatures rising to around 38 overnight. West wind around 6 mph.",
      "last_updated": "2025-11-11T06:33:27.815Z"
    },
    {
      "name": "Brighton",
      "lat": 40.5981,
      "lng": -111.5831,
      "snowfall_7day": 12,
      "forecast_text": "Partly cloudy. Low around 35, with temperatures rising to around 37 overnight. West wind around 3 mph.",
      "last_updated": "2025-11-11T06:33:28.319Z"
    },
    {
      "name": "Snowmass",
      "lat": 39.2133,
      "lng": -106.9378,
      "snowfall_7day": 0,
      "forecast_text": "Partly cloudy, with a low around 32. Southwest wind around 5 mph.",
      "last_updated": "2025-11-11T06:33:29.025Z"
    },
    {
      "name": "Aspen Highlands",
      "lat": 39.1825,
      "lng": -106.8553,
      "snowfall_7day": 0,
      "forecast_text": "Mostly clear, with a low around 31. South southwest wind around 5 mph.",
      "last_updated": "2025-11-11T06:33:29.890Z"
    },
    {
      "name": "Buttermilk",
      "lat": 39.2078,
      "lng": -106.8608,
      "snowfall_7day": 0,
      "forecast_text": "Mostly clear, with a low around 30. South wind around 5 mph.",
      "last_updated": "2025-11-11T06:33:30.626Z"
    },
    {
      "name": "Beaver Creek",
      "lat": 39.6042,
      "lng": -106.5164,
      "snowfall_7day": 0,
      "forecast_text": "Mostly clear, with a low around 29. West northwest wind around 5 mph.",
      "last_updated": "2025-11-11T06:33:31.573Z"
    },
    {
      "name": "Purgatory",
      "lat": 37.6303,
      "lng": -107.8139,
      "snowfall_7day": 6,
      "forecast_text": "Mostly clear, with a low around 30. North northwest wind around 5 mph.",
      "last_updated": "2025-11-11T06:33:32.305Z"
    },
    {
      "name": "Wolf Creek",
      "lat": 37.4722,
      "lng": -106.7931,
      "snowfall_7day": 11.5,
      "forecast_text": "Partly cloudy, with a low around 29. West southwest wind around 10 mph.",
      "last_updated": "2025-11-11T06:33:32.869Z"
    },
    {
      "name": "Monarch Mountain",
      "lat": 38.5117,
      "lng": -106.3317,
      "snowfall_7day": 0,
      "forecast_text": "Partly cloudy, with a low around 27. West wind 15 to 20 mph.",
      "last_updated": "2025-11-11T06:33:33.768Z"
    },
    {
      "name": "Eldora",
      "lat": 39.9372,
      "lng": -105.5828,
      "snowfall_7day": 1.5,
      "forecast_text": "Mostly cloudy, with a low around 32. West wind around 28 mph, with gusts as high as 46 mph.",
      "last_updated": "2025-11-11T06:33:35.112Z"
    },
    {
      "name": "Grand Targhee",
      "lat": 43.7886,
      "lng": -110.9586,
      "snowfall_7day": 4,
      "forecast_text": "Mostly clear. Low around 24, with temperatures rising to around 28 overnight. Southwest wind around 13 mph.",
      "last_updated": "2025-11-11T06:33:36.446Z"
    },
    {
      "name": "Snow King",
      "lat": 43.4783,
      "lng": -110.7628,
      "snowfall_7day": 0,
      "forecast_text": "Mostly clear, with a low around 30. South wind around 9 mph.",
      "last_updated": "2025-11-11T06:33:37.290Z"
    },
    {
      "name": "Bridger Bowl",
      "lat": 45.8167,
      "lng": -110.8969,
      "snowfall_7day": 0,
      "forecast_text": "Partly cloudy. Low around 37, with temperatures rising to around 40 overnight. West wind 10 to 16 mph, with gusts as high as 25 mph.",
      "last_updated": "2025-11-11T06:33:38.110Z"
    },
    {
      "name": "Big Mountain",
      "lat": 48.4928,
      "lng": -114.3483,
      "snowfall_7day": 5.5,
      "forecast_text": "Mostly cloudy, with a low around 29. Southwest wind around 8 mph.",
      "last_updated": "2025-11-11T06:33:39.056Z"
    },
    {
      "name": "Snowbowl",
      "lat": 46.9417,
      "lng": -113.9492,
      "snowfall_7day": 0,
      "forecast_text": "A chance of rain before midnight. Mostly cloudy, with a low around 39. West northwest wind around 9 mph, with gusts as high as 18 mph. Chance of precipitation is 30%.",
      "last_updated": "2025-11-11T06:33:39.888Z"
    },
    {
      "name": "Bogus Basin",
      "lat": 43.7725,
      "lng": -116.0939,
      "snowfall_7day": 3,
      "forecast_text": "Mostly clear, with a low around 36. Northwest wind around 5 mph.",
      "last_updated": "2025-11-11T06:33:41.176Z"
    },
    {
      "name": "Tamarack",
      "lat": 44.6922,
      "lng": -116.1344,
      "snowfall_7day": 8,
      "forecast_text": "Partly cloudy, with a low around 33. West wind around 3 mph.",
      "last_updated": "2025-11-11T06:33:42.650Z"
    },
    {
      "name": "Silver Mountain",
      "lat": 47.6764,
      "lng": -116.0703,
      "snowfall_7day": 0,
      "forecast_text": "A slight chance of rain before 4am. Mostly cloudy, with a low around 40. Southwest wind around 3 mph. Chance of precipitation is 20%. New rainfall amounts less than a tenth of an inch possible.",
      "last_updated": "2025-11-11T06:33:43.511Z"
    },
    {
      "name": "Mt. Hood Meadows",
      "lat": 45.3319,
      "lng": -121.6653,
      "snowfall_7day": 22.5,
      "forecast_text": "A slight chance of rain showers before 11pm. Mostly cloudy, with a low around 36. West wind around 3 mph. Chance of precipitation is 20%.",
      "last_updated": "2025-11-11T06:33:44.289Z"
    },
    {
      "name": "Timberline",
      "lat": 45.3306,
      "lng": -121.7108,
      "snowfall_7day": 44.5,
      "forecast_text": "A slight chance of rain and snow showers before midnight. Mostly cloudy. Low around 35, with temperatures rising to around 37 overnight. West northwest wind 2 to 7 mph. Chance of precipitation is 20%.",
      "last_updated": "2025-11-11T06:33:45.064Z"
    },
    {
      "name": "Willamette Pass",
      "lat": 43.6006,
      "lng": -122.0336,
      "snowfall_7day": 6,
      "forecast_text": "Partly cloudy, with a low around 37. West southwest wind 3 to 7 mph.",
      "last_updated": "2025-11-11T06:33:45.824Z"
    },
    {
      "name": "Mission Ridge",
      "lat": 47.2917,
      "lng": -120.3997,
      "snowfall_7day": 0,
      "forecast_text": "Partly cloudy, with a low around 33. West wind 9 to 13 mph, with gusts as high as 20 mph.",
      "last_updated": "2025-11-11T06:33:46.869Z"
    },
    {
      "name": "Snoqualmie",
      "lat": 47.4219,
      "lng": -121.4136,
      "snowfall_7day": 3,
      "forecast_text": "A chance of rain before 1am, then areas of fog and a slight chance of rain. Mostly cloudy. Low around 32, with temperatures rising to around 34 overnight. Northwest wind around 2 mph. Chance of precipitation is 30%. New rainfall amounts less than a tenth of an inch possible.",
      "last_updated": "2025-11-11T06:33:47.842Z"
    },
    {
      "name": "Mt. Spokane",
      "lat": 47.9208,
      "lng": -117.0856,
      "snowfall_7day": 3.5,
      "forecast_text": "Partly cloudy. Low around 32, with temperatures rising to around 34 overnight. Southwest wind around 6 mph.",
      "last_updated": "2025-11-11T06:33:48.957Z"
    },
    {
      "name": "White Pass",
      "lat": 46.6394,
      "lng": -121.3908,
      "snowfall_7day": 13.5,
      "forecast_text": "Mostly cloudy, with a low around 30. West wind around 6 mph.",
      "last_updated": "2025-11-11T06:33:49.924Z"
    },
    {
      "name": "49 Degrees North",
      "lat": 48.7511,
      "lng": -117.6369,
      "snowfall_7day": 0,
      "forecast_text": "Mostly cloudy, with a low around 34. South wind around 1 mph.",
      "last_updated": "2025-11-11T06:33:50.812Z"
    },
    {
      "name": "Red Mountain",
      "lat": 49.0917,
      "lng": -117.8233,
      "snowfall_7day": 0,
      "forecast_text": "Data unavailable",
      "last_updated": "2025-11-11T06:33:51.079Z",
      "error": "Point API failed: 404"
    },
    {
      "name": "Whitewater",
      "lat": 49.5394,
      "lng": -117.2717,
      "snowfall_7day": 0,
      "forecast_text": "Data unavailable",
      "last_updated": "2025-11-11T06:33:51.557Z",
      "error": "Point API failed: 404"
    },
    {
      "name": "Panorama",
      "lat": 50.8036,
      "lng": -116.0533,
      "snowfall_7day": 0,
      "forecast_text": "Data unavailable",
      "last_updated": "2025-11-11T06:33:51.861Z",
      "error": "Point API failed: 404"
    },
    {
      "name": "Marmot Basin",
      "lat": 52.8236,
      "lng": -118.0747,
      "snowfall_7day": 0,
      "forecast_text": "Data unavailable",
      "last_updated": "2025-11-11T06:33:52.122Z",
      "error": "Point API failed: 404"
    },
    {
      "name": "Nakiska",
      "lat": 50.98,
      "lng": -115.0733,
      "snowfall_7day": 0,
      "forecast_text": "Data unavailable",
      "last_updated": "2025-11-11T06:33:52.971Z",
      "error": "Point API failed: 404"
    },
    {
      "name": "Castle Mountain",
      "lat": 49.4058,
      "lng": -114.5169,
      "snowfall_7day": 0,
      "forecast_text": "Data unavailable",
      "last_updated": "2025-11-11T06:33:53.236Z",
      "error": "Point API failed: 404"
    },
    {
      "name": "Norquay",
      "lat": 51.1967,
      "lng": -115.5531,
      "snowfall_7day": 0,
      "forecast_text": "Data unavailable",
      "last_updated": "2025-11-11T06:33:53.636Z",
      "error": "Point API failed: 404"
    },
    {
      "name": "Le Massif",
      "lat": 47.3136,
      "lng": -70.6358,
      "snowfall_7day": 0,
      "forecast_text": "Data unavailable",
      "last_updated": "2025-11-11T06:33:53.889Z",
      "error": "Point API failed: 404"
    },
    {
      "name": "Calabogie",
      "lat": 45.2906,
      "lng": -76.7019,
      "snowfall_7day": 0,
      "forecast_text": "Data unavailable",
      "last_updated": "2025-11-11T06:33:54.149Z",
      "error": "Point API failed: 404"
    },
    {
      "name": "Sierra-at-Tahoe",
      "lat": 38.7986,
      "lng": -120.0828,
      "snowfall_7day": 21,
      "forecast_text": "Mostly cloudy, with a low around 45. Southwest wind around 0 mph.",
      "last_updated": "2025-11-11T06:33:55.004Z"
    },
    {
      "name": "Kirkwood",
      "lat": 38.6867,
      "lng": -120.0656,
      "snowfall_7day": 33,
      "forecast_text": "Mostly cloudy. Low around 39, with temperatures rising to around 41 overnight. South southwest wind around 6 mph.",
      "last_updated": "2025-11-11T06:33:55.714Z"
    },
    {
      "name": "Northstar",
      "lat": 39.2733,
      "lng": -120.1211,
      "snowfall_7day": 5,
      "forecast_text": "Patchy freezing fog after midnight. Partly cloudy, with a low around 42. South wind around 0 mph.",
      "last_updated": "2025-11-11T06:33:56.788Z"
    },
    {
      "name": "Homewood",
      "lat": 39.0833,
      "lng": -120.1667,
      "snowfall_7day": 10,
      "forecast_text": "Partly cloudy, with a low around 42. Southwest wind around 0 mph.",
      "last_updated": "2025-11-11T06:33:57.454Z"
    },
    {
      "name": "Mt. Rose",
      "lat": 39.3397,
      "lng": -119.8894,
      "snowfall_7day": 8.5,
      "forecast_text": "Mostly cloudy, with a low around 41. West wind 5 to 10 mph.",
      "last_updated": "2025-11-11T06:33:58.155Z"
    },
    {
      "name": "Diamond Peak",
      "lat": 39.2525,
      "lng": -119.9169,
      "snowfall_7day": 5,
      "forecast_text": "Mostly cloudy, with a low around 42. West wind 0 to 5 mph.",
      "last_updated": "2025-11-11T06:33:58.780Z"
    },
    {
      "name": "June Mountain",
      "lat": 37.7853,
      "lng": -119.0781,
      "snowfall_7day": 7.5,
      "forecast_text": "Partly cloudy, with a low around 40. Southwest wind around 0 mph.",
      "last_updated": "2025-11-11T06:33:59.392Z"
    },
    {
      "name": "Bear Mountain",
      "lat": 34.235,
      "lng": -116.865,
      "snowfall_7day": 0,
      "forecast_text": "Partly cloudy, with a low around 37. Southwest wind around 5 mph.",
      "last_updated": "2025-11-11T06:34:00.066Z"
    },
    {
      "name": "Snow Summit",
      "lat": 34.2306,
      "lng": -116.8886,
      "snowfall_7day": 0,
      "forecast_text": "Partly cloudy, with a low around 41. Southwest wind 0 to 5 mph.",
      "last_updated": "2025-11-11T06:34:00.810Z"
    },
    {
      "name": "Mountain High",
      "lat": 34.3811,
      "lng": -117.6881,
      "snowfall_7day": 4.5,
      "forecast_text": "Partly cloudy, with a low around 50. South southwest wind around 0 mph.",
      "last_updated": "2025-11-11T06:34:02.134Z"
    },
    {
      "name": "Ski Santa Fe",
      "lat": 35.7869,
      "lng": -105.7961,
      "snowfall_7day": 9,
      "forecast_text": "Partly cloudy, with a low around 31. North wind 10 to 15 mph.",
      "last_updated": "2025-11-11T06:34:02.878Z"
    },
    {
      "name": "Angel Fire",
      "lat": 36.3975,
      "lng": -105.2886,
      "snowfall_7day": 0,
      "forecast_text": "Partly cloudy, with a low around 31. Southwest wind 5 to 10 mph.",
      "last_updated": "2025-11-11T06:34:04.153Z"
    },
    {
      "name": "Whiteface Mountain",
      "lat": 44.3659,
      "lng": -73.9024,
      "snowfall_7day": 4,
      "forecast_text": "A slight chance of snow showers after 4am. Cloudy, with a low around 14. Wind chill values as low as -2. West wind around 18 mph, with gusts as high as 31 mph. Chance of precipitation is 20%. New snow accumulation of less than half an inch possible.",
      "last_updated": "2025-11-11T06:34:04.698Z"
    }
  ]
}