{
  "generated_at": "2025-11-13T12:51:28.137Z",
  "total_resorts": 100,
  "resorts": [
    {
      "name": "Whistler Blackcomb",
      "lat": 50.1163,
      "lng": -122.9574,
      "snowfall_7day": 0,
      "forecast_text": "Data unavailable",
      "last_updated": "2025-11-13T12:43:32.031Z",
      "error": "Point API failed: 404"
    },
    {
      "name": "Vail",
      "lat": 39.6403,
      "lng": -106.3742,
      "snowfall_7day": 0,
      "forecast_text": "Mostly clear, with a low around 31. Northwest wind around 5 mph.",
      "last_updated": "2025-11-13T12:43:33.877Z"
    },
    {
      "name": "Park City",
      "lat": 40.6514,
      "lng": -111.5079,
      "snowfall_7day": 0,
      "forecast_text": "Mostly clear. Low around 37, with temperatures rising to around 41 overnight. South wind around 7 mph.",
      "last_updated": "2025-11-13T12:43:36.445Z"
    },
    {
      "name": "Breckenridge",
      "lat": 39.4817,
      "lng": -106.0384,
      "snowfall_7day": 1.5,
      "forecast_text": "Mostly clear, with a low around 29. West southwest wind around 5 mph.",
      "last_updated": "2025-11-13T12:43:38.093Z"
    },
    {
      "name": "Heavenly",
      "lat": 38.935,
      "lng": -119.9403,
      "snowfall_7day": 1.5,
      "forecast_text": "Mostly clear, with a low around 42. South wind around 15 mph.",
      "last_updated": "2025-11-13T12:43:42.827Z"
    },
    {
      "name": "Aspen Snowmass",
      "lat": 39.1911,
      "lng": -106.8175,
      "snowfall_7day": 0,
      "forecast_text": "Mostly clear, with a low around 35. South southeast wind around 5 mph.",
      "last_updated": "2025-11-13T12:43:43.686Z"
    },
    {
      "name": "Jackson Hole",
      "lat": 43.5875,
      "lng": -110.8278,
      "snowfall_7day": 0,
      "forecast_text": "Partly cloudy. Low around 32, with temperatures rising to around 36 overnight. West southwest wind around 8 mph.",
      "last_updated": "2025-11-13T12:43:47.837Z"
    },
    {
      "name": "Banff Sunshine",
      "lat": 51.1158,
      "lng": -115.7631,
      "snowfall_7day": 0,
      "forecast_text": "Data unavailable",
      "last_updated": "2025-11-13T12:43:48.145Z",
      "error": "Point API failed: 404"
    },
    {
      "name": "Lake Louise",
      "lat": 51.4254,
      "lng": -116.1773,
      "snowfall_7day": 0,
      "forecast_text": "Data unavailable",
      "last_updated": "2025-11-13T12:43:48.440Z",
      "error": "Point API failed: 404"
    },
    {
      "name": "Big Sky",
      "lat": 45.2846,
      "lng": -111.4008,
      "snowfall_7day": 3,
      "forecast_text": "Mostly clear, with a low around 32. South wind around 8 mph.",
      "last_updated": "2025-11-13T12:43:49.784Z"
    },
    {
      "name": "Steamboat",
      "lat": 40.458,
      "lng": -106.8047,
      "snowfall_7day": 0,
      "forecast_text": "Partly cloudy, with a low around 33. East southeast wind around 0 mph.",
      "last_updated": "2025-11-13T12:43:51.077Z"
    },
    {
      "name": "Mammoth Mountain",
      "lat": 37.6308,
      "lng": -119.0326,
      "snowfall_7day": 41,
      "forecast_text": "A slight chance of snow. Partly cloudy. Low around 32, with temperatures rising to around 35 overnight. Wind chill values as low as 19. South southwest wind around 35 mph, with gusts as high as 55 mph. Chance of precipitation is 20%. New rainfall amounts less than a tenth of an inch possible.",
      "last_updated": "2025-11-13T12:43:52.574Z"
    },
    {
      "name": "Squaw Valley",
      "lat": 39.197,
      "lng": -120.2356,
      "snowfall_7day": 6,
      "forecast_text": "A slight chance of rain. Partly cloudy, with a low around 37. South wind around 15 mph. Chance of precipitation is 20%.",
      "last_updated": "2025-11-13T12:43:56.445Z"
    },
    {
      "name": "Telluride",
      "lat": 37.9375,
      "lng": -107.8123,
      "snowfall_7day": 5,
      "forecast_text": "Partly cloudy, with a low around 29. East southeast wind around 5 mph.",
      "last_updated": "2025-11-13T12:43:59.521Z"
    },
    {
      "name": "Sun Valley",
      "lat": 43.6966,
      "lng": -114.3553,
      "snowfall_7day": 0,
      "forecast_text": "Partly cloudy, with a low around 34. North northwest wind around 6 mph.",
      "last_updated": "2025-11-13T12:44:00.721Z"
    },
    {
      "name": "Deer Valley",
      "lat": 40.6374,
      "lng": -111.4783,
      "snowfall_7day": 0,
      "forecast_text": "Mostly clear. Low around 35, with temperatures rising to around 39 overnight. South wind around 9 mph.",
      "last_updated": "2025-11-13T12:44:20.944Z"
    },
    {
      "name": "Killington",
      "lat": 43.6046,
      "lng": -72.822,
      "snowfall_7day": 0,
      "forecast_text": "A chance of snow showers. Mostly cloudy, with a high near 27. Northwest wind 15 to 23 mph. Chance of precipitation is 50%. New snow accumulation of around one inch possible.",
      "last_updated": "2025-11-13T12:44:24.694Z"
    },
    {
      "name": "Stowe",
      "lat": 44.5303,
      "lng": -72.7817,
      "snowfall_7day": 9,
      "forecast_text": "Snow showers. Cloudy, with a high near 31. Northwest wind around 7 mph. Chance of precipitation is 90%. New snow accumulation of 2 to 4 inches possible.",
      "last_updated": "2025-11-13T12:44:34.037Z"
    },
    {
      "name": "Alta",
      "lat": 40.5885,
      "lng": -111.6376,
      "snowfall_7day": 22,
      "forecast_text": "Mostly clear. Low around 33, with temperatures rising to around 37 overnight. South southwest wind around 12 mph.",
      "last_updated": "2025-11-13T12:44:36.308Z"
    },
    {
      "name": "Snowbird",
      "lat": 40.5803,
      "lng": -111.6573,
      "snowfall_7day": 20,
      "forecast_text": "Mostly clear. Low around 35, with temperatures rising to around 37 overnight. South wind around 10 mph.",
      "last_updated": "2025-11-13T12:45:15.065Z"
    },
    {
      "name": "Taos",
      "lat": 36.5924,
      "lng": -105.4467,
      "snowfall_7day": 3,
      "forecast_text": "Mostly cloudy, with a low around 32. West wind around 10 mph.",
      "last_updated": "2025-11-13T12:45:36.081Z"
    },
    {
      "name": "Copper Mountain",
      "lat": 39.5022,
      "lng": -106.1506,
      "snowfall_7day": 2,
      "forecast_text": "Mostly clear, with a low around 25. West southwest wind around 8 mph.",
      "last_updated": "2025-11-13T12:45:40.675Z"
    },
    {
      "name": "Winter Park",
      "lat": 39.8868,
      "lng": -105.7625,
      "snowfall_7day": 1.5,
      "forecast_text": "Mostly clear, with a low around 31. West wind around 9 mph.",
      "last_updated": "2025-11-13T12:45:43.771Z"
    },
    {
      "name": "Keystone",
      "lat": 39.605,
      "lng": -105.9347,
      "snowfall_7day": 1.5,
      "forecast_text": "Mostly clear, with a low around 28. West southwest wind around 6 mph.",
      "last_updated": "2025-11-13T12:45:45.394Z"
    },
    {
      "name": "Arapahoe Basin",
      "lat": 39.6426,
      "lng": -105.8717,
      "snowfall_7day": 6,
      "forecast_text": "Mostly clear. Low around 29, with temperatures rising to around 31 overnight. West wind around 12 mph, with gusts as high as 18 mph.",
      "last_updated": "2025-11-13T12:45:47.009Z"
    },
    {
      "name": "Crested Butte",
      "lat": 38.8997,
      "lng": -106.9653,
      "snowfall_7day": 1.5,
      "forecast_text": "Partly cloudy, with a low around 28. Northwest wind around 0 mph.",
      "last_updated": "2025-11-13T12:45:49.107Z"
    },
    {
      "name": "Loveland",
      "lat": 39.6803,
      "lng": -105.8978,
      "snowfall_7day": 6,
      "forecast_text": "Mostly clear. Low around 27, with temperatures rising to around 29 overnight. West wind around 12 mph, with gusts as high as 18 mph.",
      "last_updated": "2025-11-13T12:45:52.251Z"
    },
    {
      "name": "Mt. Bachelor",
      "lat": 43.979,
      "lng": -121.688,
      "snowfall_7day": 6,
      "forecast_text": "A chance of rain. Mostly cloudy, with a low around 37. South wind around 25 mph, with gusts as high as 35 mph. Chance of precipitation is 50%. New rainfall amounts less than a tenth of an inch possible.",
      "last_updated": "2025-11-13T12:45:53.735Z"
    },
    {
      "name": "Crystal Mountain",
      "lat": 46.9358,
      "lng": -121.4742,
      "snowfall_7day": 8.5,
      "forecast_text": "Rain likely. Mostly cloudy, with a low around 39. South southeast wind around 12 mph, with gusts as high as 24 mph. Chance of precipitation is 60%. New rainfall amounts between a quarter and half of an inch possible.",
      "last_updated": "2025-11-13T12:45:57.932Z"
    },
    {
      "name": "Stevens Pass",
      "lat": 47.7453,
      "lng": -121.0892,
      "snowfall_7day": 4.5,
      "forecast_text": "A chance of rain. Cloudy, with a low around 39. East wind around 5 mph. Chance of precipitation is 50%. New rainfall amounts between a tenth and quarter of an inch possible.",
      "last_updated": "2025-11-13T12:46:00.801Z"
    },
    {
      "name": "Mt. Baker",
      "lat": 48.8597,
      "lng": -121.6686,
      "snowfall_7day": 12,
      "forecast_text": "Rain. Cloudy, with a low around 41. South wind around 10 mph, with gusts as high as 22 mph. Chance of precipitation is 90%. New rainfall amounts between a half and three quarters of an inch possible.",
      "last_updated": "2025-11-13T12:46:13.209Z"
    },
    {
      "name": "Schweitzer",
      "lat": 48.3642,
      "lng": -116.6228,
      "snowfall_7day": 3,
      "forecast_text": "A slight chance of rain. Mostly cloudy, with a low around 35. Southwest wind around 6 mph. Chance of precipitation is 20%.",
      "last_updated": "2025-11-13T12:46:20.486Z"
    },
    {
      "name": "Sun Peaks",
      "lat": 50.8817,
      "lng": -119.8847,
      "snowfall_7day": 0,
      "forecast_text": "Data unavailable",
      "last_updated": "2025-11-13T12:46:20.888Z",
      "error": "Point API failed: 404"
    },
    {
      "name": "Revelstoke",
      "lat": 50.9981,
      "lng": -118.1956,
      "snowfall_7day": 0,
      "forecast_text": "Data unavailable",
      "last_updated": "2025-11-13T12:46:27.371Z",
      "error": "Point API failed: 404"
    },
    {
      "name": "Fernie",
      "lat": 49.4653,
      "lng": -115.0636,
      "snowfall_7day": 0,
      "forecast_text": "Data unavailable",
      "last_updated": "2025-11-13T12:46:27.734Z",
      "error": "Point API failed: 404"
    },
    {
      "name": "Big White",
      "lat": 49.7311,
      "lng": -118.935,
      "snowfall_7day": 0,
      "forecast_text": "Data unavailable",
      "last_updated": "2025-11-13T12:46:28.097Z",
      "error": "Point API failed: 404"
    },
    {
      "name": "Kicking Horse",
      "lat": 51.2514,
      "lng": -117.0492,
      "snowfall_7day": 0,
      "forecast_text": "Data unavailable",
      "last_updated": "2025-11-13T12:46:29.412Z",
      "error": "Point API failed: 404"
    },
    {
      "name": "Mont Tremblant",
      "lat": 46.2094,
      "lng": -74.5847,
      "snowfall_7day": 0,
      "forecast_text": "Data unavailable",
      "last_updated": "2025-11-13T12:46:30.303Z",
      "error": "Point API failed: 404"
    },
    {
      "name": "Blue Mountain",
      "lat": 44.5075,
      "lng": -80.3231,
      "snowfall_7day": 0,
      "forecast_text": "Data unavailable",
      "last_updated": "2025-11-13T12:46:41.707Z",
      "error": "Point API failed: 404"
    },
    {
      "name": "Sugarloaf",
      "lat": 45.0314,
      "lng": -70.3139,
      "snowfall_7day": 8,
      "forecast_text": "Snow showers likely. Cloudy, with a high near 30. Northwest wind around 5 mph. Chance of precipitation is 60%. New snow accumulation of 1 to 3 inches possible.",
      "last_updated": "2025-11-13T12:46:45.010Z"
    },
    {
      "name": "Sunday River",
      "lat": 44.4697,
      "lng": -70.8561,
      "snowfall_7day": 3.5,
      "forecast_text": "A chance of snow showers before noon, then a chance of rain showers between noon and 1pm, then snow showers likely. Mostly cloudy, with a high near 37. Northwest wind around 5 mph. Chance of precipitation is 60%. New rainfall amounts less than a tenth of an inch possible.",
      "last_updated": "2025-11-13T12:46:50.530Z"
    },
    {
      "name": "Sugarbush",
      "lat": 44.135,
      "lng": -72.9017,
      "snowfall_7day": 3.5,
      "forecast_text": "Snow showers likely. Mostly cloudy, with a high near 28. Northwest wind 12 to 16 mph. Chance of precipitation is 60%. New snow accumulation of 1 to 2 inches possible.",
      "last_updated": "2025-11-13T12:46:59.892Z"
    },
    {
      "name": "Stratton",
      "lat": 43.1133,
      "lng": -72.9083,
      "snowfall_7day": 0,
      "forecast_text": "A chance of rain and snow showers after 8am. Mostly cloudy, with a high near 37. West wind around 9 mph. Chance of precipitation is 40%. New snow accumulation of less than half an inch possible.",
      "last_updated": "2025-11-13T12:47:04.014Z"
    },
    {
      "name": "Okemo",
      "lat": 43.4017,
      "lng": -72.7167,
      "snowfall_7day": 0,
      "forecast_text": "A chance of rain showers between 11am and 4pm, then a chance of rain and snow showers. Mostly cloudy, with a high near 38. West wind around 8 mph. Chance of precipitation is 30%. New rainfall amounts less than a tenth of an inch possible.",
      "last_updated": "2025-11-13T12:47:05.873Z"
    },
    {
      "name": "Jay Peak",
      "lat": 44.9378,
      "lng": -72.5036,
      "snowfall_7day": 6.5,
      "forecast_text": "Snow showers. Cloudy, with a high near 28. West wind 10 to 15 mph. Chance of precipitation is 90%. New snow accumulation of 1 to 3 inches possible.",
      "last_updated": "2025-11-13T12:47:12.392Z"
    },
    {
      "name": "Smugglers' Notch",
      "lat": 44.5458,
      "lng": -72.7872,
      "snowfall_7day": 9,
      "forecast_text": "Snow showers. Cloudy, with a high near 29. Northwest wind 6 to 9 mph. Chance of precipitation is 100%. New snow accumulation of 2 to 4 inches possible.",
      "last_updated": "2025-11-13T12:47:14.506Z"
    },
    {
      "name": "Loon Mountain",
      "lat": 44.0369,
      "lng": -71.6206,
      "snowfall_7day": 5,
      "forecast_text": "A chance of snow showers. Mostly cloudy, with a high near 32. Northwest wind 5 to 10 mph. Chance of precipitation is 50%. New snow accumulation of less than one inch possible.",
      "last_updated": "2025-11-13T12:47:21.109Z"
    },
    {
      "name": "Cannon Mountain",
      "lat": 44.1572,
      "lng": -71.6978,
      "snowfall_7day": 15.5,
      "forecast_text": "Snow showers likely. Cloudy, with a high near 27. Northwest wind 10 to 15 mph, with gusts as high as 25 mph. Chance of precipitation is 60%. New snow accumulation of 3 to 5 inches possible.",
      "last_updated": "2025-11-13T12:47:24.632Z"
    },
    {
      "name": "Wildcat Mountain",
      "lat": 44.2636,
      "lng": -71.2328,
      "snowfall_7day": 7.5,
      "forecast_text": "Snow showers likely. Mostly cloudy, with a high near 34. Northwest wind 5 to 10 mph. Chance of precipitation is 60%. New snow accumulation of 1 to 2 inches possible.",
      "last_updated": "2025-11-13T12:47:26.731Z"
    },
    {
      "name": "Bretton Woods",
      "lat": 44.2633,
      "lng": -71.4439,
      "snowfall_7day": 13,
      "forecast_text": "Snow showers likely. Cloudy, with a high near 34. Northwest wind around 5 mph. Chance of precipitation is 60%. New snow accumulation of 3 to 5 inches possible.",
      "last_updated": "2025-11-13T12:47:28.645Z"
    },
    {
      "name": "Snowbasin",
      "lat": 41.2156,
      "lng": -111.8567,
      "snowfall_7day": 1.5,
      "forecast_text": "Mostly clear. Low around 39, with temperatures rising to around 42 overnight. South wind around 7 mph.",
      "last_updated": "2025-11-13T12:47:29.911Z"
    },
    {
      "name": "Powder Mountain",
      "lat": 41.3814,
      "lng": -111.7806,
      "snowfall_7day": 13.5,
      "forecast_text": "Mostly clear. Low around 35, with temperatures rising to around 39 overnight. South wind around 10 mph.",
      "last_updated": "2025-11-13T12:47:32.005Z"
    },
    {
      "name": "Solitude",
      "lat": 40.62,
      "lng": -111.5917,
      "snowfall_7day": 13.5,
      "forecast_text": "Mostly clear. Low around 35, with temperatures rising to around 39 overnight. South southwest wind around 10 mph.",
      "last_updated": "2025-11-13T12:47:32.666Z"
    },
    {
      "name": "Brighton",
      "lat": 40.5981,
      "lng": -111.5831,
      "snowfall_7day": 14.5,
      "forecast_text": "Mostly clear. Low around 34, with temperatures rising to around 38 overnight. South southwest wind around 9 mph.",
      "last_updated": "2025-11-13T12:47:36.824Z"
    },
    {
      "name": "Snowmass",
      "lat": 39.2133,
      "lng": -106.9378,
      "snowfall_7day": 0,
      "forecast_text": "Mostly clear, with a low around 33. South southwest wind around 5 mph.",
      "last_updated": "2025-11-13T12:47:55.820Z"
    },
    {
      "name": "Aspen Highlands",
      "lat": 39.1825,
      "lng": -106.8553,
      "snowfall_7day": 0,
      "forecast_text": "Mostly clear, with a low around 33. South wind around 5 mph.",
      "last_updated": "2025-11-13T12:48:00.929Z"
    },
    {
      "name": "Buttermilk",
      "lat": 39.2078,
      "lng": -106.8608,
      "snowfall_7day": 0,
      "forecast_text": "Mostly clear, with a low around 30. South wind around 5 mph.",
      "last_updated": "2025-11-13T12:48:04.264Z"
    },
    {
      "name": "Beaver Creek",
      "lat": 39.6042,
      "lng": -106.5164,
      "snowfall_7day": 0,
      "forecast_text": "Partly cloudy, with a low around 31. South southwest wind around 5 mph.",
      "last_updated": "2025-11-13T12:48:09.602Z"
    },
    {
      "name": "Purgatory",
      "lat": 37.6303,
      "lng": -107.8139,
      "snowfall_7day": 16.5,
      "forecast_text": "Partly cloudy, with a low around 32. North wind around 0 mph.",
      "last_updated": "2025-11-13T12:48:12.851Z"
    },
    {
      "name": "Wolf Creek",
      "lat": 37.4722,
      "lng": -106.7931,
      "snowfall_7day": 23,
      "forecast_text": "Partly cloudy, with a low around 31. South southwest wind around 5 mph.",
      "last_updated": "2025-11-13T12:48:27.749Z"
    },
    {
      "name": "Monarch Mountain",
      "lat": 38.5117,
      "lng": -106.3317,
      "snowfall_7day": 3.5,
      "forecast_text": "Partly cloudy, with a low around 29. West wind around 15 mph.",
      "last_updated": "2025-11-13T12:48:29.702Z"
    },
    {
      "name": "Eldora",
      "lat": 39.9372,
      "lng": -105.5828,
      "snowfall_7day": 1.5,
      "forecast_text": "Partly cloudy. Low around 31, with temperatures rising to around 33 overnight. West wind around 10 mph, with gusts as high as 16 mph.",
      "last_updated": "2025-11-13T12:48:32.975Z"
    },
    {
      "name": "Grand Targhee",
      "lat": 43.7886,
      "lng": -110.9586,
      "snowfall_7day": 3.5,
      "forecast_text": "Partly cloudy, with a low around 30. South wind around 9 mph.",
      "last_updated": "2025-11-13T12:48:40.112Z"
    },
    {
      "name": "Snow King",
      "lat": 43.4783,
      "lng": -110.7628,
      "snowfall_7day": 0,
      "forecast_text": "Partly cloudy. Low around 26, with temperatures rising to around 33 overnight. South southeast wind around 7 mph.",
      "last_updated": "2025-11-13T12:48:42.130Z"
    },
    {
      "name": "Bridger Bowl",
      "lat": 45.8167,
      "lng": -110.8969,
      "snowfall_7day": 1.5,
      "forecast_text": "Mostly clear, with a low around 37. Southwest wind around 6 mph.",
      "last_updated": "2025-11-13T12:48:56.510Z"
    },
    {
      "name": "Big Mountain",
      "lat": 48.4928,
      "lng": -114.3483,
      "snowfall_7day": 0,
      "forecast_text": "Mostly cloudy, with a low around 32. South southwest wind around 3 mph.",
      "last_updated": "2025-11-13T12:49:03.099Z"
    },
    {
      "name": "Snowbowl",
      "lat": 46.9417,
      "lng": -113.9492,
      "snowfall_7day": 0,
      "forecast_text": "Partly cloudy, with a low around 40. Northeast wind around 6 mph.",
      "last_updated": "2025-11-13T12:49:08.817Z"
    },
    {
      "name": "Bogus Basin",
      "lat": 43.7725,
      "lng": -116.0939,
      "snowfall_7day": 4,
      "forecast_text": "Partly cloudy, with a low around 43. South southeast wind around 13 mph.",
      "last_updated": "2025-11-13T12:49:11.370Z"
    },
    {
      "name": "Tamarack",
      "lat": 44.6922,
      "lng": -116.1344,
      "snowfall_7day": 3.5,
      "forecast_text": "Partly cloudy, with a low around 38. South southwest wind around 7 mph.",
      "last_updated": "2025-11-13T12:49:29.430Z"
    },
    {
      "name": "Silver Mountain",
      "lat": 47.6764,
      "lng": -116.0703,
      "snowfall_7day": 0,
      "forecast_text": "Mostly cloudy, with a low around 44. East wind around 5 mph.",
      "last_updated": "2025-11-13T12:49:39.651Z"
    },
    {
      "name": "Mt. Hood Meadows",
      "lat": 45.3319,
      "lng": -121.6653,
      "snowfall_7day": 7,
      "forecast_text": "Rain likely. Mostly cloudy, with a low around 41. West southwest wind around 3 mph. Chance of precipitation is 60%. New rainfall amounts less than a tenth of an inch possible.",
      "last_updated": "2025-11-13T12:49:42.021Z"
    },
    {
      "name": "Timberline",
      "lat": 45.3306,
      "lng": -121.7108,
      "snowfall_7day": 10,
      "forecast_text": "Rain likely. Mostly cloudy. Low around 40, with temperatures rising to around 42 overnight. South southwest wind around 9 mph, with gusts as high as 18 mph. Chance of precipitation is 70%. New rainfall amounts less than a tenth of an inch possible.",
      "last_updated": "2025-11-13T12:49:49.590Z"
    },
    {
      "name": "Willamette Pass",
      "lat": 43.6006,
      "lng": -122.0336,
      "snowfall_7day": 6.5,
      "forecast_text": "A chance of rain. Mostly cloudy. Low around 42, with temperatures rising to around 46 overnight. Southeast wind around 16 mph, with gusts as high as 24 mph. Chance of precipitation is 40%.",
      "last_updated": "2025-11-13T12:49:51.194Z"
    },
    {
      "name": "Mission Ridge",
      "lat": 47.2917,
      "lng": -120.3997,
      "snowfall_7day": 1.5,
      "forecast_text": "Rain likely. Mostly cloudy, with a low around 38. Southwest wind around 3 mph. Chance of precipitation is 70%. New rainfall amounts between a tenth and quarter of an inch possible.",
      "last_updated": "2025-11-13T12:49:52.456Z"
    },
    {
      "name": "Snoqualmie",
      "lat": 47.4219,
      "lng": -121.4136,
      "snowfall_7day": 2,
      "forecast_text": "Rain. Cloudy, with a low around 40. Southeast wind around 2 mph. Chance of precipitation is 80%. New rainfall amounts between a quarter and half of an inch possible.",
      "last_updated": "2025-11-13T12:49:56.551Z"
    },
    {
      "name": "Mt. Spokane",
      "lat": 47.9208,
      "lng": -117.0856,
      "snowfall_7day": 1.5,
      "forecast_text": "Mostly cloudy, with a low around 40. South wind around 5 mph.",
      "last_updated": "2025-11-13T12:50:02.674Z"
    },
    {
      "name": "White Pass",
      "lat": 46.6394,
      "lng": -121.3908,
      "snowfall_7day": 3,
      "forecast_text": "Rain. Cloudy, with a low around 39. South wind around 5 mph. Chance of precipitation is 90%. New rainfall amounts between a tenth and quarter of an inch possible.",
      "last_updated": "2025-11-13T12:50:07.123Z"
    },
    {
      "name": "49 Degrees North",
      "lat": 48.7511,
      "lng": -117.6369,
      "snowfall_7day": 0,
      "forecast_text": "Patchy fog. Cloudy, with a low around 40. Southeast wind around 2 mph. New rainfall amounts less than a tenth of an inch possible.",
      "last_updated": "2025-11-13T12:50:10.305Z"
    },
    {
      "name": "Red Mountain",
      "lat": 49.0917,
      "lng": -117.8233,
      "snowfall_7day": 0,
      "forecast_text": "Data unavailable",
      "last_updated": "2025-11-13T12:50:11.897Z",
      "error": "Point API failed: 404"
    },
    {
      "name": "Whitewater",
      "lat": 49.5394,
      "lng": -117.2717,
      "snowfall_7day": 0,
      "forecast_text": "Data unavailable",
      "last_updated": "2025-11-13T12:50:21.452Z",
      "error": "Point API failed: 404"
    },
    {
      "name": "Panorama",
      "lat": 50.8036,
      "lng": -116.0533,
      "snowfall_7day": 0,
      "forecast_text": "Data unavailable",
      "last_updated": "2025-11-13T12:50:21.877Z",
      "error": "Point API failed: 404"
    },
    {
      "name": "Marmot Basin",
      "lat": 52.8236,
      "lng": -118.0747,
      "snowfall_7day": 0,
      "forecast_text": "Data unavailable",
      "last_updated": "2025-11-13T12:50:22.192Z",
      "error": "Point API failed: 404"
    },
    {
      "name": "Nakiska",
      "lat": 50.98,
      "lng": -115.0733,
      "snowfall_7day": 0,
      "forecast_text": "Data unavailable",
      "last_updated": "2025-11-13T12:50:23.039Z",
      "error": "Point API failed: 404"
    },
    {
      "name": "Castle Mountain",
      "lat": 49.4058,
      "lng": -114.5169,
      "snowfall_7day": 0,
      "forecast_text": "Data unavailable",
      "last_updated": "2025-11-13T12:50:25.874Z",
      "error": "Point API failed: 404"
    },
    {
      "name": "Norquay",
      "lat": 51.1967,
      "lng": -115.5531,
      "snowfall_7day": 0,
      "forecast_text": "Data unavailable",
      "last_updated": "2025-11-13T12:50:29.433Z",
      "error": "Point API failed: 404"
    },
    {
      "name": "Le Massif",
      "lat": 47.3136,
      "lng": -70.6358,
      "snowfall_7day": 0,
      "forecast_text": "Data unavailable",
      "last_updated": "2025-11-13T12:50:29.773Z",
      "error": "Point API failed: 404"
    },
    {
      "name": "Calabogie",
      "lat": 45.2906,
      "lng": -76.7019,
      "snowfall_7day": 0,
      "forecast_text": "Data unavailable",
      "last_updated": "2025-11-13T12:50:30.359Z",
      "error": "Point API failed: 404"
    },
    {
      "name": "Sierra-at-Tahoe",
      "lat": 38.7986,
      "lng": -120.0828,
      "snowfall_7day": 10.5,
      "forecast_text": "Mostly clear, with a low around 42. South wind around 15 mph, with gusts as high as 40 mph.",
      "last_updated": "2025-11-13T12:50:31.618Z"
    },
    {
      "name": "Kirkwood",
      "lat": 38.6867,
      "lng": -120.0656,
      "snowfall_7day": 19,
      "forecast_text": "Partly cloudy. Low around 37, with temperatures rising to around 39 overnight. South wind around 24 mph, with gusts as high as 49 mph. New rainfall amounts between a tenth and quarter of an inch possible.",
      "last_updated": "2025-11-13T12:50:33.113Z"
    },
    {
      "name": "Northstar",
      "lat": 39.2733,
      "lng": -120.1211,
      "snowfall_7day": 3,
      "forecast_text": "A slight chance of rain. Partly cloudy, with a low around 43. South wind around 15 mph. Chance of precipitation is 20%.",
      "last_updated": "2025-11-13T12:50:43.199Z"
    },
    {
      "name": "Homewood",
      "lat": 39.0833,
      "lng": -120.1667,
      "snowfall_7day": 4,
      "forecast_text": "A slight chance of rain. Partly cloudy, with a low around 42. South wind around 15 mph, with gusts as high as 25 mph. Chance of precipitation is 20%.",
      "last_updated": "2025-11-13T12:50:53.426Z"
    },
    {
      "name": "Mt. Rose",
      "lat": 39.3397,
      "lng": -119.8894,
      "snowfall_7day": 6.5,
      "forecast_text": "Partly cloudy, with a low around 37. South wind around 20 mph.",
      "last_updated": "2025-11-13T12:50:57.954Z"
    },
    {
      "name": "Diamond Peak",
      "lat": 39.2525,
      "lng": -119.9169,
      "snowfall_7day": 3.5,
      "forecast_text": "A slight chance of rain. Partly cloudy, with a low around 41. South wind around 15 mph. Chance of precipitation is 20%.",
      "last_updated": "2025-11-13T12:51:11.860Z"
    },
    {
      "name": "June Mountain",
      "lat": 37.7853,
      "lng": -119.0781,
      "snowfall_7day": 7.5,
      "forecast_text": "A slight chance of rain. Partly cloudy, with a low around 39. South wind around 20 mph. Chance of precipitation is 20%.",
      "last_updated": "2025-11-13T12:51:13.077Z"
    },
    {
      "name": "Bear Mountain",
      "lat": 34.235,
      "lng": -116.865,
      "snowfall_7day": 1.5,
      "forecast_text": "Partly cloudy, with a low around 35. Southwest wind around 15 mph, with gusts as high as 30 mph.",
      "last_updated": "2025-11-13T12:51:15.044Z"
    },
    {
      "name": "Snow Summit",
      "lat": 34.2306,
      "lng": -116.8886,
      "snowfall_7day": 4.5,
      "forecast_text": "Partly cloudy, with a low around 38. Southwest wind around 15 mph, with gusts as high as 25 mph.",
      "last_updated": "2025-11-13T12:51:16.061Z"
    },
    {
      "name": "Mountain High",
      "lat": 34.3811,
      "lng": -117.6881,
      "snowfall_7day": 1.5,
      "forecast_text": "Mostly clear, with a low around 47. South southwest wind around 20 mph, with gusts as high as 30 mph.",
      "last_updated": "2025-11-13T12:51:17.703Z"
    },
    {
      "name": "Ski Santa Fe",
      "lat": 35.7869,
      "lng": -105.7961,
      "snowfall_7day": 0,
      "forecast_text": "Mostly cloudy, with a low around 33. Northwest wind around 15 mph.",
      "last_updated": "2025-11-13T12:51:23.155Z"
    },
    {
      "name": "Angel Fire",
      "lat": 36.3975,
      "lng": -105.2886,
      "snowfall_7day": 0,
      "forecast_text": "Mostly cloudy, with a low around 34. West wind around 10 mph.",
      "last_updated": "2025-11-13T12:51:26.759Z"
    },
    {
      "name": "Whiteface Mountain",
      "lat": 44.3659,
      "lng": -73.9024,
      "snowfall_7day": 0,
      "forecast_text": "A chance of snow showers. Cloudy, with a high near 24. West wind 17 to 24 mph. Chance of precipitation is 50%. New snow accumulation of less than one inch possible.",
      "last_updated": "2025-11-13T12:51:27.937Z"
    }
  ]
}