{
  "generated_at": "2026-04-15T13:58:00.462Z",
  "total_resorts": 115,
  "data_source": "Open-Meteo",
  "resorts": [
    {
      "name": "Whistler Blackcomb",
      "lat": 50.1163,
      "lng": -122.9574,
      "snowfall_24hr": 0,
      "snowfall_48hr": 0,
      "snowfall_7day": 0,
      "forecast_text": "No snow expected",
      "last_updated": "2026-04-15T13:57:37.599Z"
    },
    {
      "name": "Vail",
      "lat": 39.6403,
      "lng": -106.3742,
      "snowfall_24hr": 0,
      "snowfall_48hr": 0,
      "snowfall_7day": 1.4,
      "forecast_text": "1.4\" expected in next 7 days",
      "last_updated": "2026-04-15T13:57:37.798Z"
    },
    {
      "name": "Park City",
      "lat": 40.6514,
      "lng": -111.5079,
      "snowfall_24hr": 0,
      "snowfall_48hr": 1.3,
      "snowfall_7day": 2.9,
      "forecast_text": "1.3\" expected in next 48 hours",
      "last_updated": "2026-04-15T13:57:37.996Z"
    },
    {
      "name": "Breckenridge",
      "lat": 39.4817,
      "lng": -106.0384,
      "snowfall_24hr": 0,
      "snowfall_48hr": 0,
      "snowfall_7day": 0.6,
      "forecast_text": "0.6\" expected in next 7 days",
      "last_updated": "2026-04-15T13:57:38.194Z"
    },
    {
      "name": "Heavenly",
      "lat": 38.935,
      "lng": -119.9403,
      "snowfall_24hr": 0,
      "snowfall_48hr": 0,
      "snowfall_7day": 0.3,
      "forecast_text": "0.3\" expected in next 7 days",
      "last_updated": "2026-04-15T13:57:38.392Z"
    },
    {
      "name": "Aspen Snowmass",
      "lat": 39.1911,
      "lng": -106.8175,
      "snowfall_24hr": 0,
      "snowfall_48hr": 0,
      "snowfall_7day": 2,
      "forecast_text": "0.0\" expected in next 48 hours",
      "last_updated": "2026-04-15T13:57:38.590Z"
    },
    {
      "name": "Jackson Hole",
      "lat": 43.5875,
      "lng": -110.8278,
      "snowfall_24hr": 0,
      "snowfall_48hr": 0.4,
      "snowfall_7day": 1.5,
      "forecast_text": "0.4\" expected in next 48 hours",
      "last_updated": "2026-04-15T13:57:38.787Z"
    },
    {
      "name": "Banff Sunshine",
      "lat": 51.1158,
      "lng": -115.7631,
      "snowfall_24hr": 3.8,
      "snowfall_48hr": 3.9,
      "snowfall_7day": 4.8,
      "forecast_text": "3.8\" expected in next 24 hours",
      "last_updated": "2026-04-15T13:57:38.985Z"
    },
    {
      "name": "Lake Louise",
      "lat": 51.4254,
      "lng": -116.1773,
      "snowfall_24hr": 1.1,
      "snowfall_48hr": 1.1,
      "snowfall_7day": 1.3,
      "forecast_text": "1.1\" expected in next 24 hours",
      "last_updated": "2026-04-15T13:57:39.183Z"
    },
    {
      "name": "Big Sky",
      "lat": 45.2846,
      "lng": -111.4008,
      "snowfall_24hr": 1.2,
      "snowfall_48hr": 3.6,
      "snowfall_7day": 4.3,
      "forecast_text": "1.2\" expected in next 24 hours",
      "last_updated": "2026-04-15T13:57:39.380Z"
    },
    {
      "name": "Steamboat",
      "lat": 40.458,
      "lng": -106.8047,
      "snowfall_24hr": 0,
      "snowfall_48hr": 0,
      "snowfall_7day": 2,
      "forecast_text": "2.0\" expected in next 7 days",
      "last_updated": "2026-04-15T13:57:39.577Z"
    },
    {
      "name": "Mammoth Mountain",
      "lat": 37.6308,
      "lng": -119.0326,
      "snowfall_24hr": 0,
      "snowfall_48hr": 0,
      "snowfall_7day": 1.2,
      "forecast_text": "1.2\" expected in next 7 days",
      "last_updated": "2026-04-15T13:57:39.774Z"
    },
    {
      "name": "Squaw Valley",
      "lat": 39.197,
      "lng": -120.2356,
      "snowfall_24hr": 0,
      "snowfall_48hr": 0,
      "snowfall_7day": 0.4,
      "forecast_text": "0.4\" expected in next 7 days",
      "last_updated": "2026-04-15T13:57:39.970Z"
    },
    {
      "name": "Telluride",
      "lat": 37.9375,
      "lng": -107.8123,
      "snowfall_24hr": 0,
      "snowfall_48hr": 0,
      "snowfall_7day": 1.4,
      "forecast_text": "1.4\" expected in next 7 days",
      "last_updated": "2026-04-15T13:57:40.168Z"
    },
    {
      "name": "Sun Valley",
      "lat": 43.6966,
      "lng": -114.3553,
      "snowfall_24hr": 0,
      "snowfall_48hr": 0.4,
      "snowfall_7day": 0.4,
      "forecast_text": "0.4\" expected in next 48 hours",
      "last_updated": "2026-04-15T13:57:40.365Z"
    },
    {
      "name": "Deer Valley",
      "lat": 40.6374,
      "lng": -111.4783,
      "snowfall_24hr": 0,
      "snowfall_48hr": 1.8,
      "snowfall_7day": 2.5,
      "forecast_text": "1.8\" expected in next 48 hours",
      "last_updated": "2026-04-15T13:57:40.562Z"
    },
    {
      "name": "Killington",
      "lat": 43.6046,
      "lng": -72.822,
      "snowfall_24hr": 0,
      "snowfall_48hr": 0,
      "snowfall_7day": 0.5,
      "forecast_text": "0.5\" expected in next 7 days",
      "last_updated": "2026-04-15T13:57:40.759Z"
    },
    {
      "name": "Stowe",
      "lat": 44.5303,
      "lng": -72.7817,
      "snowfall_24hr": 0,
      "snowfall_48hr": 0,
      "snowfall_7day": 0.5,
      "forecast_text": "0.5\" expected in next 7 days",
      "last_updated": "2026-04-15T13:57:40.956Z"
    },
    {
      "name": "Alta",
      "lat": 40.5885,
      "lng": -111.6376,
      "snowfall_24hr": 0,
      "snowfall_48hr": 4,
      "snowfall_7day": 5.6,
      "forecast_text": "4.0\" expected in next 48 hours",
      "last_updated": "2026-04-15T13:57:41.153Z"
    },
    {
      "name": "Snowbird",
      "lat": 40.5803,
      "lng": -111.6573,
      "snowfall_24hr": 0,
      "snowfall_48hr": 3.3,
      "snowfall_7day": 4.9,
      "forecast_text": "3.3\" expected in next 48 hours",
      "last_updated": "2026-04-15T13:57:41.349Z"
    },
    {
      "name": "Taos",
      "lat": 36.5924,
      "lng": -105.4467,
      "snowfall_24hr": 0,
      "snowfall_48hr": 0,
      "snowfall_7day": 0,
      "forecast_text": "No snow expected",
      "last_updated": "2026-04-15T13:57:41.546Z"
    },
    {
      "name": "Copper Mountain",
      "lat": 39.5022,
      "lng": -106.1506,
      "snowfall_24hr": 0,
      "snowfall_48hr": 0,
      "snowfall_7day": 0.8,
      "forecast_text": "0.8\" expected in next 7 days",
      "last_updated": "2026-04-15T13:57:41.743Z"
    },
    {
      "name": "Winter Park",
      "lat": 39.8868,
      "lng": -105.7625,
      "snowfall_24hr": 0,
      "snowfall_48hr": 0,
      "snowfall_7day": 1.6,
      "forecast_text": "1.6\" expected in next 7 days",
      "last_updated": "2026-04-15T13:57:41.939Z"
    },
    {
      "name": "Keystone",
      "lat": 39.605,
      "lng": -105.9347,
      "snowfall_24hr": 0,
      "snowfall_48hr": 0,
      "snowfall_7day": 0.4,
      "forecast_text": "0.4\" expected in next 7 days",
      "last_updated": "2026-04-15T13:57:42.136Z"
    },
    {
      "name": "Arapahoe Basin",
      "lat": 39.6426,
      "lng": -105.8717,
      "snowfall_24hr": 0,
      "snowfall_48hr": 0,
      "snowfall_7day": 0.5,
      "forecast_text": "0.5\" expected in next 7 days",
      "last_updated": "2026-04-15T13:57:42.332Z"
    },
    {
      "name": "Crested Butte",
      "lat": 38.8997,
      "lng": -106.9653,
      "snowfall_24hr": 0,
      "snowfall_48hr": 0,
      "snowfall_7day": 1.3,
      "forecast_text": "0.0\" expected in next 48 hours",
      "last_updated": "2026-04-15T13:57:42.529Z"
    },
    {
      "name": "Loveland",
      "lat": 39.6803,
      "lng": -105.8978,
      "snowfall_24hr": 0.1,
      "snowfall_48hr": 0.1,
      "snowfall_7day": 0.6,
      "forecast_text": "0.1\" expected in next 24 hours",
      "last_updated": "2026-04-15T13:57:42.727Z"
    },
    {
      "name": "Mt. Bachelor",
      "lat": 43.979,
      "lng": -121.688,
      "snowfall_24hr": 9.8,
      "snowfall_48hr": 11.4,
      "snowfall_7day": 11.4,
      "forecast_text": "9.8\" expected in next 24 hours",
      "last_updated": "2026-04-15T13:57:42.923Z"
    },
    {
      "name": "Crystal Mountain",
      "lat": 46.9358,
      "lng": -121.4742,
      "snowfall_24hr": 4.9,
      "snowfall_48hr": 5.2,
      "snowfall_7day": 5.2,
      "forecast_text": "4.9\" expected in next 24 hours",
      "last_updated": "2026-04-15T13:57:43.121Z"
    },
    {
      "name": "Stevens Pass",
      "lat": 47.7453,
      "lng": -121.0892,
      "snowfall_24hr": 7.9,
      "snowfall_48hr": 8.2,
      "snowfall_7day": 8.3,
      "forecast_text": "7.9\" expected in next 24 hours",
      "last_updated": "2026-04-15T13:57:43.319Z"
    },
    {
      "name": "Mt. Baker",
      "lat": 48.8597,
      "lng": -121.6686,
      "snowfall_24hr": 0.8,
      "snowfall_48hr": 0.8,
      "snowfall_7day": 0.8,
      "forecast_text": "0.8\" expected in next 24 hours",
      "last_updated": "2026-04-15T13:57:43.515Z"
    },
    {
      "name": "Schweitzer",
      "lat": 48.3642,
      "lng": -116.6228,
      "snowfall_24hr": 5.7,
      "snowfall_48hr": 6.1,
      "snowfall_7day": 6.1,
      "forecast_text": "5.7\" expected in next 24 hours",
      "last_updated": "2026-04-15T13:57:43.712Z"
    },
    {
      "name": "Sun Peaks",
      "lat": 50.8817,
      "lng": -119.8847,
      "snowfall_24hr": 0,
      "snowfall_48hr": 0,
      "snowfall_7day": 0.6,
      "forecast_text": "0.6\" expected in next 7 days",
      "last_updated": "2026-04-15T13:57:43.920Z"
    },
    {
      "name": "Revelstoke",
      "lat": 50.9981,
      "lng": -118.1956,
      "snowfall_24hr": 2.1,
      "snowfall_48hr": 2.1,
      "snowfall_7day": 2.3,
      "forecast_text": "2.1\" expected in next 24 hours",
      "last_updated": "2026-04-15T13:57:44.117Z"
    },
    {
      "name": "Fernie",
      "lat": 49.4653,
      "lng": -115.0636,
      "snowfall_24hr": 1.2,
      "snowfall_48hr": 1.8,
      "snowfall_7day": 2.3,
      "forecast_text": "1.2\" expected in next 24 hours",
      "last_updated": "2026-04-15T13:57:44.313Z"
    },
    {
      "name": "Big White",
      "lat": 49.7311,
      "lng": -118.935,
      "snowfall_24hr": 0.7,
      "snowfall_48hr": 0.7,
      "snowfall_7day": 0.7,
      "forecast_text": "0.7\" expected in next 24 hours",
      "last_updated": "2026-04-15T13:57:44.509Z"
    },
    {
      "name": "Kicking Horse",
      "lat": 51.2514,
      "lng": -117.0492,
      "snowfall_24hr": 0.9,
      "snowfall_48hr": 0.9,
      "snowfall_7day": 1.1,
      "forecast_text": "0.9\" expected in next 24 hours",
      "last_updated": "2026-04-15T13:57:44.706Z"
    },
    {
      "name": "Mont Tremblant",
      "lat": 46.2094,
      "lng": -74.5847,
      "snowfall_24hr": 0,
      "snowfall_48hr": 0,
      "snowfall_7day": 0.6,
      "forecast_text": "0.6\" expected in next 7 days",
      "last_updated": "2026-04-15T13:57:44.903Z"
    },
    {
      "name": "Blue Mountain",
      "lat": 44.5075,
      "lng": -80.3231,
      "snowfall_24hr": 0,
      "snowfall_48hr": 0,
      "snowfall_7day": 0.2,
      "forecast_text": "0.2\" expected in next 7 days",
      "last_updated": "2026-04-15T13:57:45.101Z"
    },
    {
      "name": "Sugarloaf",
      "lat": 45.0314,
      "lng": -70.3139,
      "snowfall_24hr": 0,
      "snowfall_48hr": 0,
      "snowfall_7day": 1.2,
      "forecast_text": "1.2\" expected in next 7 days",
      "last_updated": "2026-04-15T13:57:45.298Z"
    },
    {
      "name": "Sunday River",
      "lat": 44.4697,
      "lng": -70.8561,
      "snowfall_24hr": 0,
      "snowfall_48hr": 0,
      "snowfall_7day": 0.3,
      "forecast_text": "0.3\" expected in next 7 days",
      "last_updated": "2026-04-15T13:57:45.496Z"
    },
    {
      "name": "Sugarbush",
      "lat": 44.135,
      "lng": -72.9017,
      "snowfall_24hr": 0,
      "snowfall_48hr": 0,
      "snowfall_7day": 0.5,
      "forecast_text": "0.5\" expected in next 7 days",
      "last_updated": "2026-04-15T13:57:45.691Z"
    },
    {
      "name": "Stratton",
      "lat": 43.1133,
      "lng": -72.9083,
      "snowfall_24hr": 0,
      "snowfall_48hr": 0,
      "snowfall_7day": 0.2,
      "forecast_text": "0.2\" expected in next 7 days",
      "last_updated": "2026-04-15T13:57:45.889Z"
    },
    {
      "name": "Okemo",
      "lat": 43.4017,
      "lng": -72.7167,
      "snowfall_24hr": 0,
      "snowfall_48hr": 0,
      "snowfall_7day": 0.4,
      "forecast_text": "0.4\" expected in next 7 days",
      "last_updated": "2026-04-15T13:57:46.087Z"
    },
    {
      "name": "Jay Peak",
      "lat": 44.9378,
      "lng": -72.5036,
      "snowfall_24hr": 0,
      "snowfall_48hr": 0,
      "snowfall_7day": 0.6,
      "forecast_text": "0.6\" expected in next 7 days",
      "last_updated": "2026-04-15T13:57:46.284Z"
    },
    {
      "name": "Smugglers' Notch",
      "lat": 44.5458,
      "lng": -72.7872,
      "snowfall_24hr": 0,
      "snowfall_48hr": 0,
      "snowfall_7day": 0.5,
      "forecast_text": "0.5\" expected in next 7 days",
      "last_updated": "2026-04-15T13:57:46.481Z"
    },
    {
      "name": "Loon Mountain",
      "lat": 44.0369,
      "lng": -71.6206,
      "snowfall_24hr": 0,
      "snowfall_48hr": 0,
      "snowfall_7day": 0.5,
      "forecast_text": "0.5\" expected in next 7 days",
      "last_updated": "2026-04-15T13:57:46.679Z"
    },
    {
      "name": "Cannon Mountain",
      "lat": 44.1572,
      "lng": -71.6978,
      "snowfall_24hr": 0,
      "snowfall_48hr": 0,
      "snowfall_7day": 1.6,
      "forecast_text": "1.6\" expected in next 7 days",
      "last_updated": "2026-04-15T13:57:46.876Z"
    },
    {
      "name": "Wildcat Mountain",
      "lat": 44.2636,
      "lng": -71.2328,
      "snowfall_24hr": 0,
      "snowfall_48hr": 0,
      "snowfall_7day": 1.8,
      "forecast_text": "1.8\" expected in next 7 days",
      "last_updated": "2026-04-15T13:57:47.073Z"
    },
    {
      "name": "Bretton Woods",
      "lat": 44.2633,
      "lng": -71.4439,
      "snowfall_24hr": 0,
      "snowfall_48hr": 0,
      "snowfall_7day": 3,
      "forecast_text": "3.0\" expected in next 7 days",
      "last_updated": "2026-04-15T13:57:47.270Z"
    },
    {
      "name": "Snowbasin",
      "lat": 41.2156,
      "lng": -111.8567,
      "snowfall_24hr": 0,
      "snowfall_48hr": 3.1,
      "snowfall_7day": 3.1,
      "forecast_text": "3.1\" expected in next 48 hours",
      "last_updated": "2026-04-15T13:57:47.466Z"
    },
    {
      "name": "Powder Mountain",
      "lat": 41.3814,
      "lng": -111.7806,
      "snowfall_24hr": 0,
      "snowfall_48hr": 5.6,
      "snowfall_7day": 5.7,
      "forecast_text": "0.0\" expected in next 24 hours",
      "last_updated": "2026-04-15T13:57:47.662Z"
    },
    {
      "name": "Solitude",
      "lat": 40.62,
      "lng": -111.5917,
      "snowfall_24hr": 0,
      "snowfall_48hr": 3,
      "snowfall_7day": 4.1,
      "forecast_text": "3.0\" expected in next 48 hours",
      "last_updated": "2026-04-15T13:57:47.859Z"
    },
    {
      "name": "Brighton",
      "lat": 40.5981,
      "lng": -111.5831,
      "snowfall_24hr": 0,
      "snowfall_48hr": 4,
      "snowfall_7day": 5.1,
      "forecast_text": "4.0\" expected in next 48 hours",
      "last_updated": "2026-04-15T13:57:48.056Z"
    },
    {
      "name": "Snowmass",
      "lat": 39.2133,
      "lng": -106.9378,
      "snowfall_24hr": 0,
      "snowfall_48hr": 0,
      "snowfall_7day": 1.6,
      "forecast_text": "1.6\" expected in next 7 days",
      "last_updated": "2026-04-15T13:57:48.252Z"
    },
    {
      "name": "Aspen Highlands",
      "lat": 39.1825,
      "lng": -106.8553,
      "snowfall_24hr": 0,
      "snowfall_48hr": 0,
      "snowfall_7day": 2,
      "forecast_text": "0.0\" expected in next 48 hours",
      "last_updated": "2026-04-15T13:57:48.448Z"
    },
    {
      "name": "Buttermilk",
      "lat": 39.2078,
      "lng": -106.8608,
      "snowfall_24hr": 0,
      "snowfall_48hr": 0,
      "snowfall_7day": 2,
      "forecast_text": "0.0\" expected in next 48 hours",
      "last_updated": "2026-04-15T13:57:48.645Z"
    },
    {
      "name": "Beaver Creek",
      "lat": 39.6042,
      "lng": -106.5164,
      "snowfall_24hr": 0,
      "snowfall_48hr": 0,
      "snowfall_7day": 1.8,
      "forecast_text": "1.8\" expected in next 7 days",
      "last_updated": "2026-04-15T13:57:48.841Z"
    },
    {
      "name": "Purgatory",
      "lat": 37.6303,
      "lng": -107.8139,
      "snowfall_24hr": 0,
      "snowfall_48hr": 0,
      "snowfall_7day": 0.1,
      "forecast_text": "0.1\" expected in next 7 days",
      "last_updated": "2026-04-15T13:57:49.037Z"
    },
    {
      "name": "Wolf Creek",
      "lat": 37.4722,
      "lng": -106.7931,
      "snowfall_24hr": 0,
      "snowfall_48hr": 0,
      "snowfall_7day": 0,
      "forecast_text": "0.0\" expected in next 7 days",
      "last_updated": "2026-04-15T13:57:49.233Z"
    },
    {
      "name": "Monarch Mountain",
      "lat": 38.5117,
      "lng": -106.3317,
      "snowfall_24hr": 0,
      "snowfall_48hr": 0,
      "snowfall_7day": 0,
      "forecast_text": "No snow expected",
      "last_updated": "2026-04-15T13:57:49.429Z"
    },
    {
      "name": "Eldora",
      "lat": 39.9372,
      "lng": -105.5828,
      "snowfall_24hr": 0,
      "snowfall_48hr": 0,
      "snowfall_7day": 1.6,
      "forecast_text": "0.0\" expected in next 24 hours",
      "last_updated": "2026-04-15T13:57:49.625Z"
    },
    {
      "name": "Grand Targhee",
      "lat": 43.7886,
      "lng": -110.9586,
      "snowfall_24hr": 2.8,
      "snowfall_48hr": 9.9,
      "snowfall_7day": 11.1,
      "forecast_text": "2.8\" expected in next 24 hours",
      "last_updated": "2026-04-15T13:57:49.821Z"
    },
    {
      "name": "Snow King",
      "lat": 43.4783,
      "lng": -110.7628,
      "snowfall_24hr": 0,
      "snowfall_48hr": 0.2,
      "snowfall_7day": 0.8,
      "forecast_text": "0.0\" expected in next 24 hours",
      "last_updated": "2026-04-15T13:57:50.018Z"
    },
    {
      "name": "Bridger Bowl",
      "lat": 45.8167,
      "lng": -110.8969,
      "snowfall_24hr": 2.1,
      "snowfall_48hr": 6.1,
      "snowfall_7day": 6.3,
      "forecast_text": "2.1\" expected in next 24 hours",
      "last_updated": "2026-04-15T13:57:50.214Z"
    },
    {
      "name": "Big Mountain",
      "lat": 48.4928,
      "lng": -114.3483,
      "snowfall_24hr": 5.5,
      "snowfall_48hr": 8.2,
      "snowfall_7day": 9.3,
      "forecast_text": "5.5\" expected in next 24 hours",
      "last_updated": "2026-04-15T13:57:50.412Z"
    },
    {
      "name": "Snowbowl",
      "lat": 46.9417,
      "lng": -113.9492,
      "snowfall_24hr": 0.3,
      "snowfall_48hr": 2.4,
      "snowfall_7day": 3.6,
      "forecast_text": "0.3\" expected in next 24 hours",
      "last_updated": "2026-04-15T13:57:50.609Z"
    },
    {
      "name": "Bogus Basin",
      "lat": 43.7725,
      "lng": -116.0939,
      "snowfall_24hr": 7.6,
      "snowfall_48hr": 8.5,
      "snowfall_7day": 8.5,
      "forecast_text": "7.6\" expected in next 24 hours",
      "last_updated": "2026-04-15T13:57:50.805Z"
    },
    {
      "name": "Tamarack",
      "lat": 44.6922,
      "lng": -116.1344,
      "snowfall_24hr": 7.5,
      "snowfall_48hr": 8,
      "snowfall_7day": 8.1,
      "forecast_text": "7.5\" expected in next 24 hours",
      "last_updated": "2026-04-15T13:57:51.001Z"
    },
    {
      "name": "Silver Mountain",
      "lat": 47.6764,
      "lng": -116.0703,
      "snowfall_24hr": 0,
      "snowfall_48hr": 0.4,
      "snowfall_7day": 0.4,
      "forecast_text": "0.4\" expected in next 48 hours",
      "last_updated": "2026-04-15T13:57:51.198Z"
    },
    {
      "name": "Mt. Hood Meadows",
      "lat": 45.3319,
      "lng": -121.6653,
      "snowfall_24hr": 14.7,
      "snowfall_48hr": 14.9,
      "snowfall_7day": 14.9,
      "forecast_text": "14.7\" expected in next 24 hours",
      "last_updated": "2026-04-15T13:57:51.395Z"
    },
    {
      "name": "Timberline",
      "lat": 45.3306,
      "lng": -121.7108,
      "snowfall_24hr": 17.3,
      "snowfall_48hr": 18.5,
      "snowfall_7day": 18.6,
      "forecast_text": "17.3\" expected in next 24 hours",
      "last_updated": "2026-04-15T13:57:51.592Z"
    },
    {
      "name": "Willamette Pass",
      "lat": 43.6006,
      "lng": -122.0336,
      "snowfall_24hr": 6.8,
      "snowfall_48hr": 9.5,
      "snowfall_7day": 9.5,
      "forecast_text": "6.8\" expected in next 24 hours",
      "last_updated": "2026-04-15T13:57:51.789Z"
    },
    {
      "name": "Mission Ridge",
      "lat": 47.2917,
      "lng": -120.3997,
      "snowfall_24hr": 1.7,
      "snowfall_48hr": 1.7,
      "snowfall_7day": 1.7,
      "forecast_text": "1.7\" expected in next 24 hours",
      "last_updated": "2026-04-15T13:57:51.986Z"
    },
    {
      "name": "Snoqualmie",
      "lat": 47.4219,
      "lng": -121.4136,
      "snowfall_24hr": 6.5,
      "snowfall_48hr": 7.2,
      "snowfall_7day": 7.2,
      "forecast_text": "6.5\" expected in next 24 hours",
      "last_updated": "2026-04-15T13:57:52.183Z"
    },
    {
      "name": "Mt. Spokane",
      "lat": 47.9208,
      "lng": -117.0856,
      "snowfall_24hr": 3.8,
      "snowfall_48hr": 4.2,
      "snowfall_7day": 4.2,
      "forecast_text": "3.8\" expected in next 24 hours",
      "last_updated": "2026-04-15T13:57:52.382Z"
    },
    {
      "name": "White Pass",
      "lat": 46.6394,
      "lng": -121.3908,
      "snowfall_24hr": 8.1,
      "snowfall_48hr": 8.4,
      "snowfall_7day": 8.4,
      "forecast_text": "8.1\" expected in next 24 hours",
      "last_updated": "2026-04-15T13:57:52.578Z"
    },
    {
      "name": "49 Degrees North",
      "lat": 48.7511,
      "lng": -117.6369,
      "snowfall_24hr": 0.1,
      "snowfall_48hr": 0.1,
      "snowfall_7day": 0.3,
      "forecast_text": "0.1\" expected in next 24 hours",
      "last_updated": "2026-04-15T13:57:52.777Z"
    },
    {
      "name": "Red Mountain",
      "lat": 49.0917,
      "lng": -117.8233,
      "snowfall_24hr": 1.7,
      "snowfall_48hr": 1.7,
      "snowfall_7day": 1.7,
      "forecast_text": "1.7\" expected in next 24 hours",
      "last_updated": "2026-04-15T13:57:52.973Z"
    },
    {
      "name": "Whitewater",
      "lat": 49.5394,
      "lng": -117.2717,
      "snowfall_24hr": 3.5,
      "snowfall_48hr": 3.5,
      "snowfall_7day": 3.9,
      "forecast_text": "3.5\" expected in next 24 hours",
      "last_updated": "2026-04-15T13:57:53.169Z"
    },
    {
      "name": "Panorama",
      "lat": 50.8036,
      "lng": -116.0533,
      "snowfall_24hr": 2.9,
      "snowfall_48hr": 3.1,
      "snowfall_7day": 3.3,
      "forecast_text": "2.9\" expected in next 24 hours",
      "last_updated": "2026-04-15T13:57:53.367Z"
    },
    {
      "name": "Marmot Basin",
      "lat": 52.8236,
      "lng": -118.0747,
      "snowfall_24hr": 0.1,
      "snowfall_48hr": 0.1,
      "snowfall_7day": 0.1,
      "forecast_text": "0.1\" expected in next 24 hours",
      "last_updated": "2026-04-15T13:57:53.564Z"
    },
    {
      "name": "Nakiska",
      "lat": 50.98,
      "lng": -115.0733,
      "snowfall_24hr": 5.4,
      "snowfall_48hr": 5.8,
      "snowfall_7day": 6.8,
      "forecast_text": "5.4\" expected in next 24 hours",
      "last_updated": "2026-04-15T13:57:53.761Z"
    },
    {
      "name": "Castle Mountain",
      "lat": 49.4058,
      "lng": -114.5169,
      "snowfall_24hr": 1.9,
      "snowfall_48hr": 3.7,
      "snowfall_7day": 4.3,
      "forecast_text": "1.9\" expected in next 24 hours",
      "last_updated": "2026-04-15T13:57:53.960Z"
    },
    {
      "name": "Norquay",
      "lat": 51.1967,
      "lng": -115.5531,
      "snowfall_24hr": 3.8,
      "snowfall_48hr": 3.8,
      "snowfall_7day": 4.7,
      "forecast_text": "3.8\" expected in next 24 hours",
      "last_updated": "2026-04-15T13:57:54.156Z"
    },
    {
      "name": "Le Massif",
      "lat": 47.3136,
      "lng": -70.6358,
      "snowfall_24hr": 0,
      "snowfall_48hr": 0,
      "snowfall_7day": 0.6,
      "forecast_text": "0.6\" expected in next 7 days",
      "last_updated": "2026-04-15T13:57:54.353Z"
    },
    {
      "name": "Calabogie",
      "lat": 45.2906,
      "lng": -76.7019,
      "snowfall_24hr": 0,
      "snowfall_48hr": 0,
      "snowfall_7day": 0.2,
      "forecast_text": "0.2\" expected in next 7 days",
      "last_updated": "2026-04-15T13:57:54.549Z"
    },
    {
      "name": "Sierra-at-Tahoe",
      "lat": 38.7986,
      "lng": -120.0828,
      "snowfall_24hr": 0,
      "snowfall_48hr": 0,
      "snowfall_7day": 1.3,
      "forecast_text": "1.3\" expected in next 7 days",
      "last_updated": "2026-04-15T13:57:54.746Z"
    },
    {
      "name": "Kirkwood",
      "lat": 38.6867,
      "lng": -120.0656,
      "snowfall_24hr": 0,
      "snowfall_48hr": 0,
      "snowfall_7day": 1.7,
      "forecast_text": "1.7\" expected in next 7 days",
      "last_updated": "2026-04-15T13:57:54.943Z"
    },
    {
      "name": "Northstar",
      "lat": 39.2733,
      "lng": -120.1211,
      "snowfall_24hr": 0,
      "snowfall_48hr": 0,
      "snowfall_7day": 0.2,
      "forecast_text": "0.2\" expected in next 7 days",
      "last_updated": "2026-04-15T13:57:55.140Z"
    },
    {
      "name": "Homewood",
      "lat": 39.0833,
      "lng": -120.1667,
      "snowfall_24hr": 0,
      "snowfall_48hr": 0,
      "snowfall_7day": 0.3,
      "forecast_text": "0.3\" expected in next 7 days",
      "last_updated": "2026-04-15T13:57:55.337Z"
    },
    {
      "name": "Mt. Rose",
      "lat": 39.3397,
      "lng": -119.8894,
      "snowfall_24hr": 0,
      "snowfall_48hr": 0,
      "snowfall_7day": 0.2,
      "forecast_text": "0.2\" expected in next 7 days",
      "last_updated": "2026-04-15T13:57:55.533Z"
    },
    {
      "name": "Diamond Peak",
      "lat": 39.2525,
      "lng": -119.9169,
      "snowfall_24hr": 0,
      "snowfall_48hr": 0,
      "snowfall_7day": 0.2,
      "forecast_text": "0.2\" expected in next 7 days",
      "last_updated": "2026-04-15T13:57:55.730Z"
    },
    {
      "name": "June Mountain",
      "lat": 37.7853,
      "lng": -119.0781,
      "snowfall_24hr": 0,
      "snowfall_48hr": 0,
      "snowfall_7day": 0.6,
      "forecast_text": "0.6\" expected in next 7 days",
      "last_updated": "2026-04-15T13:57:55.927Z"
    },
    {
      "name": "Bear Mountain",
      "lat": 34.235,
      "lng": -116.865,
      "snowfall_24hr": 0,
      "snowfall_48hr": 0,
      "snowfall_7day": 0,
      "forecast_text": "No snow expected",
      "last_updated": "2026-04-15T13:57:56.123Z"
    },
    {
      "name": "Snow Summit",
      "lat": 34.2306,
      "lng": -116.8886,
      "snowfall_24hr": 0,
      "snowfall_48hr": 0,
      "snowfall_7day": 0,
      "forecast_text": "No snow expected",
      "last_updated": "2026-04-15T13:57:56.320Z"
    },
    {
      "name": "Mountain High",
      "lat": 34.3811,
      "lng": -117.6881,
      "snowfall_24hr": 0,
      "snowfall_48hr": 0,
      "snowfall_7day": 0,
      "forecast_text": "No snow expected",
      "last_updated": "2026-04-15T13:57:56.517Z"
    },
    {
      "name": "Ski Santa Fe",
      "lat": 35.7869,
      "lng": -105.7961,
      "snowfall_24hr": 0,
      "snowfall_48hr": 0,
      "snowfall_7day": 0,
      "forecast_text": "No snow expected",
      "last_updated": "2026-04-15T13:57:56.714Z"
    },
    {
      "name": "Angel Fire",
      "lat": 36.3975,
      "lng": -105.2886,
      "snowfall_24hr": 0,
      "snowfall_48hr": 0,
      "snowfall_7day": 0,
      "forecast_text": "No snow expected",
      "last_updated": "2026-04-15T13:57:56.911Z"
    },
    {
      "name": "Whiteface Mountain",
      "lat": 44.3659,
      "lng": -73.9024,
      "snowfall_24hr": 0,
      "snowfall_48hr": 0,
      "snowfall_7day": 0.7,
      "forecast_text": "0.7\" expected in next 7 days",
      "last_updated": "2026-04-15T13:57:57.110Z"
    },
    {
      "name": "Bristol Mountain",
      "lat": 42.7455,
      "lng": -77.4016,
      "snowfall_24hr": 0,
      "snowfall_48hr": 0,
      "snowfall_7day": 0.4,
      "forecast_text": "0.4\" expected in next 7 days",
      "last_updated": "2026-04-15T13:57:57.591Z"
    },
    {
      "name": "Revelstoke Mountain Resort",
      "lat": 50.9981,
      "lng": -118.1958,
      "snowfall_24hr": 2.1,
      "snowfall_48hr": 2.1,
      "snowfall_7day": 2.3,
      "forecast_text": "2.1\" expected in next 24 hours",
      "last_updated": "2026-04-15T13:57:57.787Z"
    },
    {
      "name": "Big White Ski Resort",
      "lat": 49.7308,
      "lng": -118.9357,
      "snowfall_24hr": 0.7,
      "snowfall_48hr": 0.7,
      "snowfall_7day": 0.7,
      "forecast_text": "0.7\" expected in next 24 hours",
      "last_updated": "2026-04-15T13:57:57.983Z"
    },
    {
      "name": "Sun Peaks Resort",
      "lat": 50.8847,
      "lng": -119.8892,
      "snowfall_24hr": 0,
      "snowfall_48hr": 0,
      "snowfall_7day": 0.6,
      "forecast_text": "0.6\" expected in next 7 days",
      "last_updated": "2026-04-15T13:57:58.179Z"
    },
    {
      "name": "Fernie Alpine Resort",
      "lat": 49.4651,
      "lng": -115.0764,
      "snowfall_24hr": 1.2,
      "snowfall_48hr": 1.8,
      "snowfall_7day": 2.3,
      "forecast_text": "1.2\" expected in next 24 hours",
      "last_updated": "2026-04-15T13:57:58.376Z"
    },
    {
      "name": "Kicking Horse Mountain Resort",
      "lat": 51.2983,
      "lng": -116.955,
      "snowfall_24hr": 0.3,
      "snowfall_48hr": 0.3,
      "snowfall_7day": 0.4,
      "forecast_text": "0.3\" expected in next 24 hours",
      "last_updated": "2026-04-15T13:57:58.572Z"
    },
    {
      "name": "Panorama Mountain Resort",
      "lat": 50.9806,
      "lng": -116.0972,
      "snowfall_24hr": 4,
      "snowfall_48hr": 4.1,
      "snowfall_7day": 4.4,
      "forecast_text": "4.0\" expected in next 24 hours",
      "last_updated": "2026-04-15T13:57:58.767Z"
    },
    {
      "name": "RED Mountain Resort",
      "lat": 49.0878,
      "lng": -117.8197,
      "snowfall_24hr": 1.5,
      "snowfall_48hr": 1.5,
      "snowfall_7day": 1.5,
      "forecast_text": "1.5\" expected in next 24 hours",
      "last_updated": "2026-04-15T13:57:58.962Z"
    },
    {
      "name": "SilverStar Mountain Resort",
      "lat": 50.4,
      "lng": -119.0833,
      "snowfall_24hr": 0.3,
      "snowfall_48hr": 0.4,
      "snowfall_7day": 0.7,
      "forecast_text": "0.3\" expected in next 24 hours",
      "last_updated": "2026-04-15T13:57:59.160Z"
    },
    {
      "name": "Lake Louise Ski Resort",
      "lat": 51.4254,
      "lng": -116.1773,
      "snowfall_24hr": 1.1,
      "snowfall_48hr": 1.1,
      "snowfall_7day": 1.3,
      "forecast_text": "1.1\" expected in next 24 hours",
      "last_updated": "2026-04-15T13:57:59.356Z"
    },
    {
      "name": "Sunshine Village",
      "lat": 51.1128,
      "lng": -115.7631,
      "snowfall_24hr": 3.8,
      "snowfall_48hr": 3.9,
      "snowfall_7day": 4.8,
      "forecast_text": "3.8\" expected in next 24 hours",
      "last_updated": "2026-04-15T13:57:59.553Z"
    },
    {
      "name": "Mount Norquay",
      "lat": 51.2094,
      "lng": -115.5797,
      "snowfall_24hr": 4,
      "snowfall_48hr": 4,
      "snowfall_7day": 4.8,
      "forecast_text": "4.0\" expected in next 24 hours",
      "last_updated": "2026-04-15T13:57:59.749Z"
    },
    {
      "name": "Nakiska Ski Area",
      "lat": 50.9042,
      "lng": -115.0856,
      "snowfall_24hr": 8.3,
      "snowfall_48hr": 10.2,
      "snowfall_7day": 11.2,
      "forecast_text": "8.3\" expected in next 24 hours",
      "last_updated": "2026-04-15T13:57:59.944Z"
    },
    {
      "name": "Le Massif de Charlevoix",
      "lat": 47.3389,
      "lng": -70.6375,
      "snowfall_24hr": 0,
      "snowfall_48hr": 0,
      "snowfall_7day": 0.4,
      "forecast_text": "0.4\" expected in next 7 days",
      "last_updated": "2026-04-15T13:58:00.141Z"
    },
    {
      "name": "Blue Mountain Resort",
      "lat": 44.5067,
      "lng": -80.3158,
      "snowfall_24hr": 0,
      "snowfall_48hr": 0,
      "snowfall_7day": 0.2,
      "forecast_text": "0.2\" expected in next 7 days",
      "last_updated": "2026-04-15T13:58:00.362Z"
    }
  ]
}