{
  "generated_at": "2026-02-16T18:57:30.873Z",
  "total_resorts": 115,
  "data_source": "Open-Meteo",
  "resorts": [
    {
      "name": "Whistler Blackcomb",
      "lat": 50.1163,
      "lng": -122.9574,
      "snowfall_24hr": 0.3,
      "snowfall_48hr": 1.1,
      "snowfall_7day": 1.9,
      "forecast_text": "0.3\" expected in next 24 hours",
      "last_updated": "2026-02-16T18:57:08.080Z"
    },
    {
      "name": "Vail",
      "lat": 39.6403,
      "lng": -106.3742,
      "snowfall_24hr": 0,
      "snowfall_48hr": 2,
      "snowfall_7day": 4.8,
      "forecast_text": "2.0\" expected in next 48 hours",
      "last_updated": "2026-02-16T18:57:08.281Z"
    },
    {
      "name": "Park City",
      "lat": 40.6514,
      "lng": -111.5079,
      "snowfall_24hr": 0,
      "snowfall_48hr": 4,
      "snowfall_7day": 10.6,
      "forecast_text": "0.0\" expected in next 24 hours",
      "last_updated": "2026-02-16T18:57:08.478Z"
    },
    {
      "name": "Breckenridge",
      "lat": 39.4817,
      "lng": -106.0384,
      "snowfall_24hr": 0,
      "snowfall_48hr": 2.3,
      "snowfall_7day": 3.5,
      "forecast_text": "2.3\" expected in next 48 hours",
      "last_updated": "2026-02-16T18:57:08.676Z"
    },
    {
      "name": "Heavenly",
      "lat": 38.935,
      "lng": -119.9403,
      "snowfall_24hr": 3.3,
      "snowfall_48hr": 12.4,
      "snowfall_7day": 13,
      "forecast_text": "3.3\" expected in next 24 hours",
      "last_updated": "2026-02-16T18:57:08.873Z"
    },
    {
      "name": "Aspen Snowmass",
      "lat": 39.1911,
      "lng": -106.8175,
      "snowfall_24hr": 0,
      "snowfall_48hr": 1.3,
      "snowfall_7day": 5.6,
      "forecast_text": "1.3\" expected in next 48 hours",
      "last_updated": "2026-02-16T18:57:09.070Z"
    },
    {
      "name": "Jackson Hole",
      "lat": 43.5875,
      "lng": -110.8278,
      "snowfall_24hr": 0,
      "snowfall_48hr": 1.4,
      "snowfall_7day": 5,
      "forecast_text": "1.4\" expected in next 48 hours",
      "last_updated": "2026-02-16T18:57:09.267Z"
    },
    {
      "name": "Banff Sunshine",
      "lat": 51.1158,
      "lng": -115.7631,
      "snowfall_24hr": 0.5,
      "snowfall_48hr": 4.2,
      "snowfall_7day": 4.2,
      "forecast_text": "0.5\" expected in next 24 hours",
      "last_updated": "2026-02-16T18:57:09.464Z"
    },
    {
      "name": "Lake Louise",
      "lat": 51.4254,
      "lng": -116.1773,
      "snowfall_24hr": 0.9,
      "snowfall_48hr": 2.7,
      "snowfall_7day": 2.7,
      "forecast_text": "0.9\" expected in next 24 hours",
      "last_updated": "2026-02-16T18:57:09.662Z"
    },
    {
      "name": "Big Sky",
      "lat": 45.2846,
      "lng": -111.4008,
      "snowfall_24hr": 0,
      "snowfall_48hr": 0.8,
      "snowfall_7day": 1.6,
      "forecast_text": "0.8\" expected in next 48 hours",
      "last_updated": "2026-02-16T18:57:09.859Z"
    },
    {
      "name": "Steamboat",
      "lat": 40.458,
      "lng": -106.8047,
      "snowfall_24hr": 0,
      "snowfall_48hr": 0.4,
      "snowfall_7day": 3.2,
      "forecast_text": "0.4\" expected in next 48 hours",
      "last_updated": "2026-02-16T18:57:10.056Z"
    },
    {
      "name": "Mammoth Mountain",
      "lat": 37.6308,
      "lng": -119.0326,
      "snowfall_24hr": 9.6,
      "snowfall_48hr": 24.5,
      "snowfall_7day": 27.6,
      "forecast_text": "9.6\" expected in next 24 hours",
      "last_updated": "2026-02-16T18:57:10.256Z"
    },
    {
      "name": "Squaw Valley",
      "lat": 39.197,
      "lng": -120.2356,
      "snowfall_24hr": 6.5,
      "snowfall_48hr": 23.3,
      "snowfall_7day": 25.3,
      "forecast_text": "6.5\" expected in next 24 hours",
      "last_updated": "2026-02-16T18:57:10.453Z"
    },
    {
      "name": "Telluride",
      "lat": 37.9375,
      "lng": -107.8123,
      "snowfall_24hr": 0,
      "snowfall_48hr": 2.5,
      "snowfall_7day": 6.7,
      "forecast_text": "2.5\" expected in next 48 hours",
      "last_updated": "2026-02-16T18:57:10.650Z"
    },
    {
      "name": "Sun Valley",
      "lat": 43.6966,
      "lng": -114.3553,
      "snowfall_24hr": 1.5,
      "snowfall_48hr": 4,
      "snowfall_7day": 4.4,
      "forecast_text": "1.5\" expected in next 24 hours",
      "last_updated": "2026-02-16T18:57:10.847Z"
    },
    {
      "name": "Deer Valley",
      "lat": 40.6374,
      "lng": -111.4783,
      "snowfall_24hr": 0,
      "snowfall_48hr": 4.8,
      "snowfall_7day": 11.2,
      "forecast_text": "0.0\" expected in next 24 hours",
      "last_updated": "2026-02-16T18:57:11.043Z"
    },
    {
      "name": "Killington",
      "lat": 43.6046,
      "lng": -72.822,
      "snowfall_24hr": 0,
      "snowfall_48hr": 1.3,
      "snowfall_7day": 4.3,
      "forecast_text": "1.3\" expected in next 48 hours",
      "last_updated": "2026-02-16T18:57:11.240Z"
    },
    {
      "name": "Stowe",
      "lat": 44.5303,
      "lng": -72.7817,
      "snowfall_24hr": 0,
      "snowfall_48hr": 1.1,
      "snowfall_7day": 3.4,
      "forecast_text": "1.1\" expected in next 48 hours",
      "last_updated": "2026-02-16T18:57:11.436Z"
    },
    {
      "name": "Alta",
      "lat": 40.5885,
      "lng": -111.6376,
      "snowfall_24hr": 0.3,
      "snowfall_48hr": 4.7,
      "snowfall_7day": 12.4,
      "forecast_text": "0.3\" expected in next 24 hours",
      "last_updated": "2026-02-16T18:57:11.632Z"
    },
    {
      "name": "Snowbird",
      "lat": 40.5803,
      "lng": -111.6573,
      "snowfall_24hr": 0.2,
      "snowfall_48hr": 3.4,
      "snowfall_7day": 10.6,
      "forecast_text": "0.2\" expected in next 24 hours",
      "last_updated": "2026-02-16T18:57:11.827Z"
    },
    {
      "name": "Taos",
      "lat": 36.5924,
      "lng": -105.4467,
      "snowfall_24hr": 0,
      "snowfall_48hr": 0.5,
      "snowfall_7day": 4.8,
      "forecast_text": "0.5\" expected in next 48 hours",
      "last_updated": "2026-02-16T18:57:12.023Z"
    },
    {
      "name": "Copper Mountain",
      "lat": 39.5022,
      "lng": -106.1506,
      "snowfall_24hr": 0,
      "snowfall_48hr": 2.6,
      "snowfall_7day": 4.4,
      "forecast_text": "2.6\" expected in next 48 hours",
      "last_updated": "2026-02-16T18:57:12.218Z"
    },
    {
      "name": "Winter Park",
      "lat": 39.8868,
      "lng": -105.7625,
      "snowfall_24hr": 0,
      "snowfall_48hr": 1.1,
      "snowfall_7day": 3.2,
      "forecast_text": "1.1\" expected in next 48 hours",
      "last_updated": "2026-02-16T18:57:12.415Z"
    },
    {
      "name": "Keystone",
      "lat": 39.605,
      "lng": -105.9347,
      "snowfall_24hr": 0,
      "snowfall_48hr": 1.8,
      "snowfall_7day": 3.6,
      "forecast_text": "1.8\" expected in next 48 hours",
      "last_updated": "2026-02-16T18:57:12.611Z"
    },
    {
      "name": "Arapahoe Basin",
      "lat": 39.6426,
      "lng": -105.8717,
      "snowfall_24hr": 0,
      "snowfall_48hr": 2.2,
      "snowfall_7day": 4.8,
      "forecast_text": "2.2\" expected in next 48 hours",
      "last_updated": "2026-02-16T18:57:12.807Z"
    },
    {
      "name": "Crested Butte",
      "lat": 38.8997,
      "lng": -106.9653,
      "snowfall_24hr": 0,
      "snowfall_48hr": 2.5,
      "snowfall_7day": 10.3,
      "forecast_text": "2.5\" expected in next 48 hours",
      "last_updated": "2026-02-16T18:57:13.004Z"
    },
    {
      "name": "Loveland",
      "lat": 39.6803,
      "lng": -105.8978,
      "snowfall_24hr": 0,
      "snowfall_48hr": 3.1,
      "snowfall_7day": 5.1,
      "forecast_text": "3.1\" expected in next 48 hours",
      "last_updated": "2026-02-16T18:57:13.200Z"
    },
    {
      "name": "Mt. Bachelor",
      "lat": 43.979,
      "lng": -121.688,
      "snowfall_24hr": 1.9,
      "snowfall_48hr": 4.1,
      "snowfall_7day": 5.7,
      "forecast_text": "1.9\" expected in next 24 hours",
      "last_updated": "2026-02-16T18:57:13.396Z"
    },
    {
      "name": "Crystal Mountain",
      "lat": 46.9358,
      "lng": -121.4742,
      "snowfall_24hr": 1,
      "snowfall_48hr": 1.3,
      "snowfall_7day": 2.8,
      "forecast_text": "1.0\" expected in next 24 hours",
      "last_updated": "2026-02-16T18:57:13.592Z"
    },
    {
      "name": "Stevens Pass",
      "lat": 47.7453,
      "lng": -121.0892,
      "snowfall_24hr": 0.2,
      "snowfall_48hr": 1.6,
      "snowfall_7day": 2.3,
      "forecast_text": "0.2\" expected in next 24 hours",
      "last_updated": "2026-02-16T18:57:13.789Z"
    },
    {
      "name": "Mt. Baker",
      "lat": 48.8597,
      "lng": -121.6686,
      "snowfall_24hr": 0.7,
      "snowfall_48hr": 0.9,
      "snowfall_7day": 3.2,
      "forecast_text": "0.7\" expected in next 24 hours",
      "last_updated": "2026-02-16T18:57:13.985Z"
    },
    {
      "name": "Schweitzer",
      "lat": 48.3642,
      "lng": -116.6228,
      "snowfall_24hr": 3,
      "snowfall_48hr": 3.9,
      "snowfall_7day": 6.1,
      "forecast_text": "3.0\" expected in next 24 hours",
      "last_updated": "2026-02-16T18:57:14.181Z"
    },
    {
      "name": "Sun Peaks",
      "lat": 50.8817,
      "lng": -119.8847,
      "snowfall_24hr": 0.5,
      "snowfall_48hr": 0.5,
      "snowfall_7day": 0.5,
      "forecast_text": "0.5\" expected in next 24 hours",
      "last_updated": "2026-02-16T18:57:14.377Z"
    },
    {
      "name": "Revelstoke",
      "lat": 50.9981,
      "lng": -118.1956,
      "snowfall_24hr": 0.5,
      "snowfall_48hr": 0.6,
      "snowfall_7day": 0.7,
      "forecast_text": "0.5\" expected in next 24 hours",
      "last_updated": "2026-02-16T18:57:14.573Z"
    },
    {
      "name": "Fernie",
      "lat": 49.4653,
      "lng": -115.0636,
      "snowfall_24hr": 0.7,
      "snowfall_48hr": 2.7,
      "snowfall_7day": 3.1,
      "forecast_text": "0.7\" expected in next 24 hours",
      "last_updated": "2026-02-16T18:57:14.769Z"
    },
    {
      "name": "Big White",
      "lat": 49.7311,
      "lng": -118.935,
      "snowfall_24hr": 2.3,
      "snowfall_48hr": 3.1,
      "snowfall_7day": 3.2,
      "forecast_text": "2.3\" expected in next 24 hours",
      "last_updated": "2026-02-16T18:57:14.966Z"
    },
    {
      "name": "Kicking Horse",
      "lat": 51.2514,
      "lng": -117.0492,
      "snowfall_24hr": 1,
      "snowfall_48hr": 1.3,
      "snowfall_7day": 1.3,
      "forecast_text": "1.0\" expected in next 24 hours",
      "last_updated": "2026-02-16T18:57:15.161Z"
    },
    {
      "name": "Mont Tremblant",
      "lat": 46.2094,
      "lng": -74.5847,
      "snowfall_24hr": 0,
      "snowfall_48hr": 0.9,
      "snowfall_7day": 1,
      "forecast_text": "0.9\" expected in next 48 hours",
      "last_updated": "2026-02-16T18:57:15.359Z"
    },
    {
      "name": "Blue Mountain",
      "lat": 44.5075,
      "lng": -80.3231,
      "snowfall_24hr": 0,
      "snowfall_48hr": 0,
      "snowfall_7day": 6.9,
      "forecast_text": "6.9\" expected in next 7 days",
      "last_updated": "2026-02-16T18:57:15.557Z"
    },
    {
      "name": "Sugarloaf",
      "lat": 45.0314,
      "lng": -70.3139,
      "snowfall_24hr": 0,
      "snowfall_48hr": 0.4,
      "snowfall_7day": 1.8,
      "forecast_text": "0.4\" expected in next 48 hours",
      "last_updated": "2026-02-16T18:57:15.752Z"
    },
    {
      "name": "Sunday River",
      "lat": 44.4697,
      "lng": -70.8561,
      "snowfall_24hr": 0,
      "snowfall_48hr": 0.3,
      "snowfall_7day": 2.4,
      "forecast_text": "0.3\" expected in next 48 hours",
      "last_updated": "2026-02-16T18:57:15.949Z"
    },
    {
      "name": "Sugarbush",
      "lat": 44.135,
      "lng": -72.9017,
      "snowfall_24hr": 0,
      "snowfall_48hr": 1.5,
      "snowfall_7day": 4.6,
      "forecast_text": "1.5\" expected in next 48 hours",
      "last_updated": "2026-02-16T18:57:16.146Z"
    },
    {
      "name": "Stratton",
      "lat": 43.1133,
      "lng": -72.9083,
      "snowfall_24hr": 0,
      "snowfall_48hr": 0.1,
      "snowfall_7day": 3.3,
      "forecast_text": "0.1\" expected in next 48 hours",
      "last_updated": "2026-02-16T18:57:16.343Z"
    },
    {
      "name": "Okemo",
      "lat": 43.4017,
      "lng": -72.7167,
      "snowfall_24hr": 0,
      "snowfall_48hr": 0.4,
      "snowfall_7day": 3.7,
      "forecast_text": "0.4\" expected in next 48 hours",
      "last_updated": "2026-02-16T18:57:16.540Z"
    },
    {
      "name": "Jay Peak",
      "lat": 44.9378,
      "lng": -72.5036,
      "snowfall_24hr": 0,
      "snowfall_48hr": 1.4,
      "snowfall_7day": 3.2,
      "forecast_text": "1.4\" expected in next 48 hours",
      "last_updated": "2026-02-16T18:57:16.737Z"
    },
    {
      "name": "Smugglers' Notch",
      "lat": 44.5458,
      "lng": -72.7872,
      "snowfall_24hr": 0,
      "snowfall_48hr": 1.1,
      "snowfall_7day": 3.6,
      "forecast_text": "1.1\" expected in next 48 hours",
      "last_updated": "2026-02-16T18:57:16.933Z"
    },
    {
      "name": "Loon Mountain",
      "lat": 44.0369,
      "lng": -71.6206,
      "snowfall_24hr": 0,
      "snowfall_48hr": 0.7,
      "snowfall_7day": 3.4,
      "forecast_text": "0.7\" expected in next 48 hours",
      "last_updated": "2026-02-16T18:57:17.129Z"
    },
    {
      "name": "Cannon Mountain",
      "lat": 44.1572,
      "lng": -71.6978,
      "snowfall_24hr": 0,
      "snowfall_48hr": 0.7,
      "snowfall_7day": 3.5,
      "forecast_text": "0.7\" expected in next 48 hours",
      "last_updated": "2026-02-16T18:57:17.327Z"
    },
    {
      "name": "Wildcat Mountain",
      "lat": 44.2636,
      "lng": -71.2328,
      "snowfall_24hr": 0,
      "snowfall_48hr": 0.1,
      "snowfall_7day": 2.6,
      "forecast_text": "0.1\" expected in next 48 hours",
      "last_updated": "2026-02-16T18:57:17.523Z"
    },
    {
      "name": "Bretton Woods",
      "lat": 44.2633,
      "lng": -71.4439,
      "snowfall_24hr": 0,
      "snowfall_48hr": 0.3,
      "snowfall_7day": 3.1,
      "forecast_text": "0.3\" expected in next 48 hours",
      "last_updated": "2026-02-16T18:57:17.719Z"
    },
    {
      "name": "Snowbasin",
      "lat": 41.2156,
      "lng": -111.8567,
      "snowfall_24hr": 0,
      "snowfall_48hr": 2.1,
      "snowfall_7day": 8.7,
      "forecast_text": "0.0\" expected in next 24 hours",
      "last_updated": "2026-02-16T18:57:17.915Z"
    },
    {
      "name": "Powder Mountain",
      "lat": 41.3814,
      "lng": -111.7806,
      "snowfall_24hr": 0,
      "snowfall_48hr": 3.7,
      "snowfall_7day": 10.8,
      "forecast_text": "0.0\" expected in next 24 hours",
      "last_updated": "2026-02-16T18:57:18.112Z"
    },
    {
      "name": "Solitude",
      "lat": 40.62,
      "lng": -111.5917,
      "snowfall_24hr": 0.2,
      "snowfall_48hr": 4.2,
      "snowfall_7day": 11.4,
      "forecast_text": "0.2\" expected in next 24 hours",
      "last_updated": "2026-02-16T18:57:18.307Z"
    },
    {
      "name": "Brighton",
      "lat": 40.5981,
      "lng": -111.5831,
      "snowfall_24hr": 0.2,
      "snowfall_48hr": 4.7,
      "snowfall_7day": 12.8,
      "forecast_text": "0.2\" expected in next 24 hours",
      "last_updated": "2026-02-16T18:57:18.511Z"
    },
    {
      "name": "Snowmass",
      "lat": 39.2133,
      "lng": -106.9378,
      "snowfall_24hr": 0,
      "snowfall_48hr": 1.6,
      "snowfall_7day": 4.4,
      "forecast_text": "1.6\" expected in next 48 hours",
      "last_updated": "2026-02-16T18:57:18.706Z"
    },
    {
      "name": "Aspen Highlands",
      "lat": 39.1825,
      "lng": -106.8553,
      "snowfall_24hr": 0,
      "snowfall_48hr": 1.9,
      "snowfall_7day": 6.2,
      "forecast_text": "1.9\" expected in next 48 hours",
      "last_updated": "2026-02-16T18:57:18.901Z"
    },
    {
      "name": "Buttermilk",
      "lat": 39.2078,
      "lng": -106.8608,
      "snowfall_24hr": 0,
      "snowfall_48hr": 1.3,
      "snowfall_7day": 5.6,
      "forecast_text": "1.3\" expected in next 48 hours",
      "last_updated": "2026-02-16T18:57:19.101Z"
    },
    {
      "name": "Beaver Creek",
      "lat": 39.6042,
      "lng": -106.5164,
      "snowfall_24hr": 0,
      "snowfall_48hr": 1.1,
      "snowfall_7day": 3.7,
      "forecast_text": "1.1\" expected in next 48 hours",
      "last_updated": "2026-02-16T18:57:19.299Z"
    },
    {
      "name": "Purgatory",
      "lat": 37.6303,
      "lng": -107.8139,
      "snowfall_24hr": 0,
      "snowfall_48hr": 4.2,
      "snowfall_7day": 11.9,
      "forecast_text": "4.2\" expected in next 48 hours",
      "last_updated": "2026-02-16T18:57:19.494Z"
    },
    {
      "name": "Wolf Creek",
      "lat": 37.4722,
      "lng": -106.7931,
      "snowfall_24hr": 0.1,
      "snowfall_48hr": 5,
      "snowfall_7day": 20.3,
      "forecast_text": "0.1\" expected in next 24 hours",
      "last_updated": "2026-02-16T18:57:19.690Z"
    },
    {
      "name": "Monarch Mountain",
      "lat": 38.5117,
      "lng": -106.3317,
      "snowfall_24hr": 0,
      "snowfall_48hr": 1.6,
      "snowfall_7day": 4,
      "forecast_text": "1.6\" expected in next 48 hours",
      "last_updated": "2026-02-16T18:57:19.886Z"
    },
    {
      "name": "Eldora",
      "lat": 39.9372,
      "lng": -105.5828,
      "snowfall_24hr": 0,
      "snowfall_48hr": 1.2,
      "snowfall_7day": 3.2,
      "forecast_text": "1.2\" expected in next 48 hours",
      "last_updated": "2026-02-16T18:57:20.081Z"
    },
    {
      "name": "Grand Targhee",
      "lat": 43.7886,
      "lng": -110.9586,
      "snowfall_24hr": 0,
      "snowfall_48hr": 1.8,
      "snowfall_7day": 5.9,
      "forecast_text": "1.8\" expected in next 48 hours",
      "last_updated": "2026-02-16T18:57:20.279Z"
    },
    {
      "name": "Snow King",
      "lat": 43.4783,
      "lng": -110.7628,
      "snowfall_24hr": 0,
      "snowfall_48hr": 1,
      "snowfall_7day": 2.8,
      "forecast_text": "1.0\" expected in next 48 hours",
      "last_updated": "2026-02-16T18:57:20.475Z"
    },
    {
      "name": "Bridger Bowl",
      "lat": 45.8167,
      "lng": -110.8969,
      "snowfall_24hr": 0,
      "snowfall_48hr": 0.4,
      "snowfall_7day": 1.9,
      "forecast_text": "0.4\" expected in next 48 hours",
      "last_updated": "2026-02-16T18:57:20.671Z"
    },
    {
      "name": "Big Mountain",
      "lat": 48.4928,
      "lng": -114.3483,
      "snowfall_24hr": 0.1,
      "snowfall_48hr": 4.1,
      "snowfall_7day": 5,
      "forecast_text": "0.1\" expected in next 24 hours",
      "last_updated": "2026-02-16T18:57:20.869Z"
    },
    {
      "name": "Snowbowl",
      "lat": 46.9417,
      "lng": -113.9492,
      "snowfall_24hr": 0,
      "snowfall_48hr": 2.3,
      "snowfall_7day": 2.6,
      "forecast_text": "2.3\" expected in next 48 hours",
      "last_updated": "2026-02-16T18:57:21.065Z"
    },
    {
      "name": "Bogus Basin",
      "lat": 43.7725,
      "lng": -116.0939,
      "snowfall_24hr": 0.9,
      "snowfall_48hr": 4.3,
      "snowfall_7day": 5.3,
      "forecast_text": "0.9\" expected in next 24 hours",
      "last_updated": "2026-02-16T18:57:21.261Z"
    },
    {
      "name": "Tamarack",
      "lat": 44.6922,
      "lng": -116.1344,
      "snowfall_24hr": 0.5,
      "snowfall_48hr": 2.8,
      "snowfall_7day": 3.8,
      "forecast_text": "0.5\" expected in next 24 hours",
      "last_updated": "2026-02-16T18:57:21.458Z"
    },
    {
      "name": "Silver Mountain",
      "lat": 47.6764,
      "lng": -116.0703,
      "snowfall_24hr": 0,
      "snowfall_48hr": 1.3,
      "snowfall_7day": 4,
      "forecast_text": "1.3\" expected in next 48 hours",
      "last_updated": "2026-02-16T18:57:21.655Z"
    },
    {
      "name": "Mt. Hood Meadows",
      "lat": 45.3319,
      "lng": -121.6653,
      "snowfall_24hr": 2.9,
      "snowfall_48hr": 3.7,
      "snowfall_7day": 7.1,
      "forecast_text": "2.9\" expected in next 24 hours",
      "last_updated": "2026-02-16T18:57:21.852Z"
    },
    {
      "name": "Timberline",
      "lat": 45.3306,
      "lng": -121.7108,
      "snowfall_24hr": 4.2,
      "snowfall_48hr": 4.8,
      "snowfall_7day": 8.5,
      "forecast_text": "4.2\" expected in next 24 hours",
      "last_updated": "2026-02-16T18:57:22.047Z"
    },
    {
      "name": "Willamette Pass",
      "lat": 43.6006,
      "lng": -122.0336,
      "snowfall_24hr": 2.2,
      "snowfall_48hr": 3.1,
      "snowfall_7day": 4.6,
      "forecast_text": "2.2\" expected in next 24 hours",
      "last_updated": "2026-02-16T18:57:22.247Z"
    },
    {
      "name": "Mission Ridge",
      "lat": 47.2917,
      "lng": -120.3997,
      "snowfall_24hr": 1.2,
      "snowfall_48hr": 1.3,
      "snowfall_7day": 2.3,
      "forecast_text": "1.2\" expected in next 24 hours",
      "last_updated": "2026-02-16T18:57:22.443Z"
    },
    {
      "name": "Snoqualmie",
      "lat": 47.4219,
      "lng": -121.4136,
      "snowfall_24hr": 0.2,
      "snowfall_48hr": 0.6,
      "snowfall_7day": 3.2,
      "forecast_text": "0.2\" expected in next 24 hours",
      "last_updated": "2026-02-16T18:57:22.640Z"
    },
    {
      "name": "Mt. Spokane",
      "lat": 47.9208,
      "lng": -117.0856,
      "snowfall_24hr": 1,
      "snowfall_48hr": 1.8,
      "snowfall_7day": 4.2,
      "forecast_text": "1.0\" expected in next 24 hours",
      "last_updated": "2026-02-16T18:57:22.836Z"
    },
    {
      "name": "White Pass",
      "lat": 46.6394,
      "lng": -121.3908,
      "snowfall_24hr": 1.1,
      "snowfall_48hr": 1.3,
      "snowfall_7day": 2.4,
      "forecast_text": "1.1\" expected in next 24 hours",
      "last_updated": "2026-02-16T18:57:23.032Z"
    },
    {
      "name": "49 Degrees North",
      "lat": 48.7511,
      "lng": -117.6369,
      "snowfall_24hr": 0,
      "snowfall_48hr": 0.7,
      "snowfall_7day": 0.7,
      "forecast_text": "0.0\" expected in next 24 hours",
      "last_updated": "2026-02-16T18:57:23.229Z"
    },
    {
      "name": "Red Mountain",
      "lat": 49.0917,
      "lng": -117.8233,
      "snowfall_24hr": 2.7,
      "snowfall_48hr": 3,
      "snowfall_7day": 3.6,
      "forecast_text": "2.7\" expected in next 24 hours",
      "last_updated": "2026-02-16T18:57:23.424Z"
    },
    {
      "name": "Whitewater",
      "lat": 49.5394,
      "lng": -117.2717,
      "snowfall_24hr": 1.3,
      "snowfall_48hr": 1.3,
      "snowfall_7day": 1.9,
      "forecast_text": "1.3\" expected in next 24 hours",
      "last_updated": "2026-02-16T18:57:23.620Z"
    },
    {
      "name": "Panorama",
      "lat": 50.8036,
      "lng": -116.0533,
      "snowfall_24hr": 0.4,
      "snowfall_48hr": 4.7,
      "snowfall_7day": 5.3,
      "forecast_text": "0.4\" expected in next 24 hours",
      "last_updated": "2026-02-16T18:57:23.820Z"
    },
    {
      "name": "Marmot Basin",
      "lat": 52.8236,
      "lng": -118.0747,
      "snowfall_24hr": 0.3,
      "snowfall_48hr": 0.4,
      "snowfall_7day": 0.5,
      "forecast_text": "0.3\" expected in next 24 hours",
      "last_updated": "2026-02-16T18:57:24.016Z"
    },
    {
      "name": "Nakiska",
      "lat": 50.98,
      "lng": -115.0733,
      "snowfall_24hr": 0.7,
      "snowfall_48hr": 4.5,
      "snowfall_7day": 4.5,
      "forecast_text": "0.7\" expected in next 24 hours",
      "last_updated": "2026-02-16T18:57:24.212Z"
    },
    {
      "name": "Castle Mountain",
      "lat": 49.4058,
      "lng": -114.5169,
      "snowfall_24hr": 0.7,
      "snowfall_48hr": 3.3,
      "snowfall_7day": 3.4,
      "forecast_text": "0.7\" expected in next 24 hours",
      "last_updated": "2026-02-16T18:57:24.408Z"
    },
    {
      "name": "Norquay",
      "lat": 51.1967,
      "lng": -115.5531,
      "snowfall_24hr": 0.5,
      "snowfall_48hr": 3.4,
      "snowfall_7day": 3.4,
      "forecast_text": "0.5\" expected in next 24 hours",
      "last_updated": "2026-02-16T18:57:24.604Z"
    },
    {
      "name": "Le Massif",
      "lat": 47.3136,
      "lng": -70.6358,
      "snowfall_24hr": 0,
      "snowfall_48hr": 0.3,
      "snowfall_7day": 0.3,
      "forecast_text": "0.3\" expected in next 48 hours",
      "last_updated": "2026-02-16T18:57:24.801Z"
    },
    {
      "name": "Calabogie",
      "lat": 45.2906,
      "lng": -76.7019,
      "snowfall_24hr": 0.2,
      "snowfall_48hr": 0.2,
      "snowfall_7day": 2.9,
      "forecast_text": "0.2\" expected in next 24 hours",
      "last_updated": "2026-02-16T18:57:25.004Z"
    },
    {
      "name": "Sierra-at-Tahoe",
      "lat": 38.7986,
      "lng": -120.0828,
      "snowfall_24hr": 8.2,
      "snowfall_48hr": 17.4,
      "snowfall_7day": 19.7,
      "forecast_text": "8.2\" expected in next 24 hours",
      "last_updated": "2026-02-16T18:57:25.200Z"
    },
    {
      "name": "Kirkwood",
      "lat": 38.6867,
      "lng": -120.0656,
      "snowfall_24hr": 9.8,
      "snowfall_48hr": 21.2,
      "snowfall_7day": 23.9,
      "forecast_text": "9.8\" expected in next 24 hours",
      "last_updated": "2026-02-16T18:57:25.396Z"
    },
    {
      "name": "Northstar",
      "lat": 39.2733,
      "lng": -120.1211,
      "snowfall_24hr": 3.6,
      "snowfall_48hr": 15.7,
      "snowfall_7day": 16.5,
      "forecast_text": "3.6\" expected in next 24 hours",
      "last_updated": "2026-02-16T18:57:25.592Z"
    },
    {
      "name": "Homewood",
      "lat": 39.0833,
      "lng": -120.1667,
      "snowfall_24hr": 7.7,
      "snowfall_48hr": 22.4,
      "snowfall_7day": 23.7,
      "forecast_text": "7.7\" expected in next 24 hours",
      "last_updated": "2026-02-16T18:57:25.788Z"
    },
    {
      "name": "Mt. Rose",
      "lat": 39.3397,
      "lng": -119.8894,
      "snowfall_24hr": 3.1,
      "snowfall_48hr": 13.5,
      "snowfall_7day": 14.6,
      "forecast_text": "3.1\" expected in next 24 hours",
      "last_updated": "2026-02-16T18:57:25.985Z"
    },
    {
      "name": "Diamond Peak",
      "lat": 39.2525,
      "lng": -119.9169,
      "snowfall_24hr": 3.6,
      "snowfall_48hr": 10.1,
      "snowfall_7day": 11.1,
      "forecast_text": "3.6\" expected in next 24 hours",
      "last_updated": "2026-02-16T18:57:26.180Z"
    },
    {
      "name": "June Mountain",
      "lat": 37.7853,
      "lng": -119.0781,
      "snowfall_24hr": 5.8,
      "snowfall_48hr": 10.9,
      "snowfall_7day": 12,
      "forecast_text": "5.8\" expected in next 24 hours",
      "last_updated": "2026-02-16T18:57:26.378Z"
    },
    {
      "name": "Bear Mountain",
      "lat": 34.235,
      "lng": -116.865,
      "snowfall_24hr": 7.9,
      "snowfall_48hr": 14.6,
      "snowfall_7day": 23.6,
      "forecast_text": "7.9\" expected in next 24 hours",
      "last_updated": "2026-02-16T18:57:26.574Z"
    },
    {
      "name": "Snow Summit",
      "lat": 34.2306,
      "lng": -116.8886,
      "snowfall_24hr": 8.1,
      "snowfall_48hr": 16.4,
      "snowfall_7day": 24.9,
      "forecast_text": "8.1\" expected in next 24 hours",
      "last_updated": "2026-02-16T18:57:26.769Z"
    },
    {
      "name": "Mountain High",
      "lat": 34.3811,
      "lng": -117.6881,
      "snowfall_24hr": 9.3,
      "snowfall_48hr": 20,
      "snowfall_7day": 26,
      "forecast_text": "9.3\" expected in next 24 hours",
      "last_updated": "2026-02-16T18:57:26.965Z"
    },
    {
      "name": "Ski Santa Fe",
      "lat": 35.7869,
      "lng": -105.7961,
      "snowfall_24hr": 0,
      "snowfall_48hr": 1.3,
      "snowfall_7day": 5.4,
      "forecast_text": "1.3\" expected in next 48 hours",
      "last_updated": "2026-02-16T18:57:27.161Z"
    },
    {
      "name": "Angel Fire",
      "lat": 36.3975,
      "lng": -105.2886,
      "snowfall_24hr": 0,
      "snowfall_48hr": 1.3,
      "snowfall_7day": 3.3,
      "forecast_text": "1.3\" expected in next 48 hours",
      "last_updated": "2026-02-16T18:57:27.357Z"
    },
    {
      "name": "Whiteface Mountain",
      "lat": 44.3659,
      "lng": -73.9024,
      "snowfall_24hr": 0,
      "snowfall_48hr": 1.4,
      "snowfall_7day": 4,
      "forecast_text": "1.4\" expected in next 48 hours",
      "last_updated": "2026-02-16T18:57:27.557Z"
    },
    {
      "name": "Bristol Mountain",
      "lat": 42.7455,
      "lng": -77.4016,
      "snowfall_24hr": 0,
      "snowfall_48hr": 0,
      "snowfall_7day": 2.2,
      "forecast_text": "2.2\" expected in next 7 days",
      "last_updated": "2026-02-16T18:57:28.032Z"
    },
    {
      "name": "Revelstoke Mountain Resort",
      "lat": 50.9981,
      "lng": -118.1958,
      "snowfall_24hr": 0.5,
      "snowfall_48hr": 0.6,
      "snowfall_7day": 0.7,
      "forecast_text": "0.5\" expected in next 24 hours",
      "last_updated": "2026-02-16T18:57:28.228Z"
    },
    {
      "name": "Big White Ski Resort",
      "lat": 49.7308,
      "lng": -118.9357,
      "snowfall_24hr": 2.3,
      "snowfall_48hr": 3.1,
      "snowfall_7day": 3.2,
      "forecast_text": "2.3\" expected in next 24 hours",
      "last_updated": "2026-02-16T18:57:28.424Z"
    },
    {
      "name": "Sun Peaks Resort",
      "lat": 50.8847,
      "lng": -119.8892,
      "snowfall_24hr": 0.5,
      "snowfall_48hr": 0.5,
      "snowfall_7day": 0.5,
      "forecast_text": "0.5\" expected in next 24 hours",
      "last_updated": "2026-02-16T18:57:28.620Z"
    },
    {
      "name": "Fernie Alpine Resort",
      "lat": 49.4651,
      "lng": -115.0764,
      "snowfall_24hr": 0.7,
      "snowfall_48hr": 2.7,
      "snowfall_7day": 3.1,
      "forecast_text": "0.7\" expected in next 24 hours",
      "last_updated": "2026-02-16T18:57:28.815Z"
    },
    {
      "name": "Kicking Horse Mountain Resort",
      "lat": 51.2983,
      "lng": -116.955,
      "snowfall_24hr": 0.7,
      "snowfall_48hr": 1,
      "snowfall_7day": 1,
      "forecast_text": "0.7\" expected in next 24 hours",
      "last_updated": "2026-02-16T18:57:29.011Z"
    },
    {
      "name": "Panorama Mountain Resort",
      "lat": 50.9806,
      "lng": -116.0972,
      "snowfall_24hr": 0.5,
      "snowfall_48hr": 3.2,
      "snowfall_7day": 3.2,
      "forecast_text": "0.5\" expected in next 24 hours",
      "last_updated": "2026-02-16T18:57:29.207Z"
    },
    {
      "name": "RED Mountain Resort",
      "lat": 49.0878,
      "lng": -117.8197,
      "snowfall_24hr": 2.2,
      "snowfall_48hr": 2.4,
      "snowfall_7day": 2.7,
      "forecast_text": "2.2\" expected in next 24 hours",
      "last_updated": "2026-02-16T18:57:29.402Z"
    },
    {
      "name": "SilverStar Mountain Resort",
      "lat": 50.4,
      "lng": -119.0833,
      "snowfall_24hr": 1.9,
      "snowfall_48hr": 2.2,
      "snowfall_7day": 2.2,
      "forecast_text": "1.9\" expected in next 24 hours",
      "last_updated": "2026-02-16T18:57:29.597Z"
    },
    {
      "name": "Lake Louise Ski Resort",
      "lat": 51.4254,
      "lng": -116.1773,
      "snowfall_24hr": 0.9,
      "snowfall_48hr": 2.7,
      "snowfall_7day": 2.7,
      "forecast_text": "0.9\" expected in next 24 hours",
      "last_updated": "2026-02-16T18:57:29.793Z"
    },
    {
      "name": "Sunshine Village",
      "lat": 51.1128,
      "lng": -115.7631,
      "snowfall_24hr": 0.5,
      "snowfall_48hr": 4.2,
      "snowfall_7day": 4.2,
      "forecast_text": "0.5\" expected in next 24 hours",
      "last_updated": "2026-02-16T18:57:29.989Z"
    },
    {
      "name": "Mount Norquay",
      "lat": 51.2094,
      "lng": -115.5797,
      "snowfall_24hr": 0.6,
      "snowfall_48hr": 4.1,
      "snowfall_7day": 4.1,
      "forecast_text": "0.6\" expected in next 24 hours",
      "last_updated": "2026-02-16T18:57:30.185Z"
    },
    {
      "name": "Nakiska Ski Area",
      "lat": 50.9042,
      "lng": -115.0856,
      "snowfall_24hr": 1.2,
      "snowfall_48hr": 4.8,
      "snowfall_7day": 4.9,
      "forecast_text": "1.2\" expected in next 24 hours",
      "last_updated": "2026-02-16T18:57:30.381Z"
    },
    {
      "name": "Le Massif de Charlevoix",
      "lat": 47.3389,
      "lng": -70.6375,
      "snowfall_24hr": 0,
      "snowfall_48hr": 0.3,
      "snowfall_7day": 0.4,
      "forecast_text": "0.3\" expected in next 48 hours",
      "last_updated": "2026-02-16T18:57:30.576Z"
    },
    {
      "name": "Blue Mountain Resort",
      "lat": 44.5067,
      "lng": -80.3158,
      "snowfall_24hr": 0,
      "snowfall_48hr": 0,
      "snowfall_7day": 6.9,
      "forecast_text": "6.9\" expected in next 7 days",
      "last_updated": "2026-02-16T18:57:30.773Z"
    }
  ]
}