{
  "generated_at": "2025-11-15T02:08:20.441Z",
  "total_resorts": 100,
  "resorts": [
    {
      "name": "Whistler Blackcomb",
      "lat": 50.1163,
      "lng": -122.9574,
      "snowfall_24hr": 0,
      "snowfall_48hr": 0,
      "snowfall_7day": 0,
      "forecast_text": "Data unavailable",
      "last_updated": "2025-11-15T02:01:42.269Z",
      "error": "Point API failed: 404"
    },
    {
      "name": "Vail",
      "lat": 39.6403,
      "lng": -106.3742,
      "snowfall_24hr": 0,
      "snowfall_48hr": 0,
      "snowfall_7day": 1.2,
      "forecast_text": "Mostly clear, with a low around 31. West northwest wind around 5 mph.",
      "last_updated": "2025-11-15T02:02:22.068Z"
    },
    {
      "name": "Park City",
      "lat": 40.6514,
      "lng": -111.5079,
      "snowfall_24hr": 0,
      "snowfall_48hr": 0,
      "snowfall_7day": 0.6,
      "forecast_text": "Partly cloudy. Low around 39, with temperatures rising to around 41 overnight. South wind 2 to 6 mph.",
      "last_updated": "2025-11-15T02:02:30.121Z"
    },
    {
      "name": "Breckenridge",
      "lat": 39.4817,
      "lng": -106.0384,
      "snowfall_24hr": 0,
      "snowfall_48hr": 0.2,
      "snowfall_7day": 1.3,
      "forecast_text": "Partly cloudy, with a low around 29. West northwest wind around 8 mph.",
      "last_updated": "2025-11-15T02:02:34.240Z"
    },
    {
      "name": "Heavenly",
      "lat": 38.935,
      "lng": -119.9403,
      "snowfall_24hr": 0,
      "snowfall_48hr": 0,
      "snowfall_7day": 1.8,
      "forecast_text": "A chance of rain before 4pm. Partly sunny, with a high near 44. South wind 0 to 5 mph. Chance of precipitation is 50%.",
      "last_updated": "2025-11-15T02:02:39.091Z"
    },
    {
      "name": "Aspen Snowmass",
      "lat": 39.1911,
      "lng": -106.8175,
      "snowfall_24hr": 0,
      "snowfall_48hr": 0,
      "snowfall_7day": 0.3,
      "forecast_text": "Partly cloudy, with a low around 35. South southeast wind around 5 mph.",
      "last_updated": "2025-11-15T02:02:40.360Z"
    },
    {
      "name": "Jackson Hole",
      "lat": 43.5875,
      "lng": -110.8278,
      "snowfall_24hr": 0,
      "snowfall_48hr": 0,
      "snowfall_7day": 0.2,
      "forecast_text": "Scattered rain showers. Mostly cloudy, with a low around 37. Southwest wind 5 to 12 mph, with gusts as high as 28 mph. Chance of precipitation is 40%. New rainfall amounts between a tenth and quarter of an inch possible.",
      "last_updated": "2025-11-15T02:02:41.963Z"
    },
    {
      "name": "Banff Sunshine",
      "lat": 51.1158,
      "lng": -115.7631,
      "snowfall_24hr": 0,
      "snowfall_48hr": 0,
      "snowfall_7day": 0,
      "forecast_text": "Data unavailable",
      "last_updated": "2025-11-15T02:02:44.164Z",
      "error": "Point API failed: 404"
    },
    {
      "name": "Lake Louise",
      "lat": 51.4254,
      "lng": -116.1773,
      "snowfall_24hr": 0,
      "snowfall_48hr": 0,
      "snowfall_7day": 0,
      "forecast_text": "Data unavailable",
      "last_updated": "2025-11-15T02:02:44.732Z",
      "error": "Point API failed: 404"
    },
    {
      "name": "Big Sky",
      "lat": 45.2846,
      "lng": -111.4008,
      "snowfall_24hr": 0,
      "snowfall_48hr": 0,
      "snowfall_7day": 1.3,
      "forecast_text": "Partly cloudy, with a low around 32. West southwest wind 9 to 15 mph, with gusts as high as 29 mph.",
      "last_updated": "2025-11-15T02:02:48.693Z"
    },
    {
      "name": "Steamboat",
      "lat": 40.458,
      "lng": -106.8047,
      "snowfall_24hr": 0,
      "snowfall_48hr": 0,
      "snowfall_7day": 0.4,
      "forecast_text": "Partly cloudy, with a low around 34. East northeast wind 0 to 5 mph.",
      "last_updated": "2025-11-15T02:02:50.342Z"
    },
    {
      "name": "Mammoth Mountain",
      "lat": 37.6308,
      "lng": -119.0326,
      "snowfall_24hr": 4.8,
      "snowfall_48hr": 12,
      "snowfall_7day": 26.4,
      "forecast_text": "A chance of snow. Mostly cloudy, with a low around 31. Wind chill values as low as 21. East southeast wind 10 to 20 mph, with gusts as high as 30 mph. Chance of precipitation is 50%. New snow accumulation of less than half an inch possible.",
      "last_updated": "2025-11-15T02:02:53.323Z"
    },
    {
      "name": "Squaw Valley",
      "lat": 39.197,
      "lng": -120.2356,
      "snowfall_24hr": 0,
      "snowfall_48hr": 0.4,
      "snowfall_7day": 3.4,
      "forecast_text": "A chance of rain. Partly sunny, with a high near 48. South wind around 0 mph. Chance of precipitation is 50%.",
      "last_updated": "2025-11-15T02:03:05.687Z"
    },
    {
      "name": "Telluride",
      "lat": 37.9375,
      "lng": -107.8123,
      "snowfall_24hr": 0,
      "snowfall_48hr": 1,
      "snowfall_7day": 3.6,
      "forecast_text": "Partly cloudy, with a low around 27. Southeast wind around 5 mph.",
      "last_updated": "2025-11-15T02:03:08.200Z"
    },
    {
      "name": "Sun Valley",
      "lat": 43.6966,
      "lng": -114.3553,
      "snowfall_24hr": 0,
      "snowfall_48hr": 0,
      "snowfall_7day": 0,
      "forecast_text": "Partly cloudy, with a low around 29. North northeast wind around 6 mph.",
      "last_updated": "2025-11-15T02:03:11.464Z"
    },
    {
      "name": "Deer Valley",
      "lat": 40.6374,
      "lng": -111.4783,
      "snowfall_24hr": 0,
      "snowfall_48hr": 0.4,
      "snowfall_7day": 1.7,
      "forecast_text": "Partly cloudy. Low around 37, with temperatures rising to around 39 overnight. South wind 3 to 7 mph.",
      "last_updated": "2025-11-15T02:03:12.889Z"
    },
    {
      "name": "Killington",
      "lat": 43.6046,
      "lng": -72.822,
      "snowfall_24hr": 0.3,
      "snowfall_48hr": 1.2,
      "snowfall_7day": 1.6,
      "forecast_text": "Isolated snow showers before 10pm. Mostly cloudy, with a low around 20. Northwest wind around 10 mph. Chance of precipitation is 20%.",
      "last_updated": "2025-11-15T02:03:15.569Z"
    },
    {
      "name": "Stowe",
      "lat": 44.5303,
      "lng": -72.7817,
      "snowfall_24hr": 1.6,
      "snowfall_48hr": 5.7,
      "snowfall_7day": 10.1,
      "forecast_text": "Scattered snow showers before midnight. Mostly cloudy, with a low around 20. Northwest wind around 6 mph. Chance of precipitation is 30%. New snow accumulation of less than half an inch possible.",
      "last_updated": "2025-11-15T02:03:18.374Z"
    },
    {
      "name": "Alta",
      "lat": 40.5885,
      "lng": -111.6376,
      "snowfall_24hr": 0,
      "snowfall_48hr": 3.9,
      "snowfall_7day": 13.2,
      "forecast_text": "Mostly cloudy, with a low around 36. Southwest wind 6 to 9 mph.",
      "last_updated": "2025-11-15T02:03:22.022Z"
    },
    {
      "name": "Snowbird",
      "lat": 40.5803,
      "lng": -111.6573,
      "snowfall_24hr": 0,
      "snowfall_48hr": 1.5,
      "snowfall_7day": 9.7,
      "forecast_text": "Partly cloudy, with a low around 36. Southwest wind around 7 mph.",
      "last_updated": "2025-11-15T02:03:40.409Z"
    },
    {
      "name": "Taos",
      "lat": 36.5924,
      "lng": -105.4467,
      "snowfall_24hr": 0,
      "snowfall_48hr": 1.3,
      "snowfall_7day": 5,
      "forecast_text": "Partly cloudy, with a low around 32. West wind around 10 mph.",
      "last_updated": "2025-11-15T02:03:54.229Z"
    },
    {
      "name": "Copper Mountain",
      "lat": 39.5022,
      "lng": -106.1506,
      "snowfall_24hr": 0,
      "snowfall_48hr": 0.3,
      "snowfall_7day": 2,
      "forecast_text": "Mostly clear, with a low around 24. West southwest wind around 8 mph.",
      "last_updated": "2025-11-15T02:03:57.540Z"
    },
    {
      "name": "Winter Park",
      "lat": 39.8868,
      "lng": -105.7625,
      "snowfall_24hr": 0,
      "snowfall_48hr": 0,
      "snowfall_7day": 3.1,
      "forecast_text": "Mostly clear, with a low around 29. West northwest wind around 15 mph, with gusts as high as 24 mph.",
      "last_updated": "2025-11-15T02:04:00.548Z"
    },
    {
      "name": "Keystone",
      "lat": 39.605,
      "lng": -105.9347,
      "snowfall_24hr": 0,
      "snowfall_48hr": 0.1,
      "snowfall_7day": 2,
      "forecast_text": "Mostly clear, with a low around 28. West wind around 10 mph, with gusts as high as 16 mph.",
      "last_updated": "2025-11-15T02:04:04.591Z"
    },
    {
      "name": "Arapahoe Basin",
      "lat": 39.6426,
      "lng": -105.8717,
      "snowfall_24hr": 0,
      "snowfall_48hr": 0.8,
      "snowfall_7day": 4.8,
      "forecast_text": "Mostly clear, with a low around 30. West wind 16 to 20 mph, with gusts as high as 31 mph.",
      "last_updated": "2025-11-15T02:04:06.753Z"
    },
    {
      "name": "Crested Butte",
      "lat": 38.8997,
      "lng": -106.9653,
      "snowfall_24hr": 0,
      "snowfall_48hr": 0.6,
      "snowfall_7day": 1.8,
      "forecast_text": "Partly cloudy, with a low around 29. Northwest wind around 5 mph.",
      "last_updated": "2025-11-15T02:04:11.559Z"
    },
    {
      "name": "Loveland",
      "lat": 39.6803,
      "lng": -105.8978,
      "snowfall_24hr": 0,
      "snowfall_48hr": 1.1,
      "snowfall_7day": 5,
      "forecast_text": "Mostly clear, with a low around 29. West wind 16 to 21 mph, with gusts as high as 33 mph.",
      "last_updated": "2025-11-15T02:04:15.394Z"
    },
    {
      "name": "Mt. Bachelor",
      "lat": 43.979,
      "lng": -121.688,
      "snowfall_24hr": 0,
      "snowfall_48hr": 0,
      "snowfall_7day": 6.2,
      "forecast_text": "A slight chance of rain and snow after 4am. Mostly cloudy. Low around 31, with temperatures rising to around 34 overnight. West wind 6 to 12 mph. Chance of precipitation is 20%.",
      "last_updated": "2025-11-15T02:04:18.547Z"
    },
    {
      "name": "Crystal Mountain",
      "lat": 46.9358,
      "lng": -121.4742,
      "snowfall_24hr": 0,
      "snowfall_48hr": 0,
      "snowfall_7day": 7,
      "forecast_text": "Rain. Cloudy. Low around 37, with temperatures rising to around 39 overnight. Southwest wind 12 to 16 mph, with gusts as high as 23 mph. Chance of precipitation is 90%. New rainfall amounts between a tenth and quarter of an inch possible.",
      "last_updated": "2025-11-15T02:04:20.064Z"
    },
    {
      "name": "Stevens Pass",
      "lat": 47.7453,
      "lng": -121.0892,
      "snowfall_24hr": 0,
      "snowfall_48hr": 0,
      "snowfall_7day": 5.7,
      "forecast_text": "Rain and snow. Cloudy. Low around 39, with temperatures rising to around 41 overnight. West southwest wind around 10 mph. Chance of precipitation is 100%. New rainfall amounts between three quarters and one inch possible.",
      "last_updated": "2025-11-15T02:04:21.607Z"
    },
    {
      "name": "Mt. Baker",
      "lat": 48.8597,
      "lng": -121.6686,
      "snowfall_24hr": 0.1,
      "snowfall_48hr": 0.1,
      "snowfall_7day": 10,
      "forecast_text": "Rain and snow. Cloudy. Low around 34, with temperatures rising to around 39 overnight. South wind 7 to 10 mph. Chance of precipitation is 100%. New rainfall amounts between a half and three quarters of an inch possible.",
      "last_updated": "2025-11-15T02:04:24.959Z"
    },
    {
      "name": "Schweitzer",
      "lat": 48.3642,
      "lng": -116.6228,
      "snowfall_24hr": 0,
      "snowfall_48hr": 0,
      "snowfall_7day": 3.4,
      "forecast_text": "Rain and snow. Cloudy, with a low around 38. Southwest wind around 17 mph, with gusts as high as 31 mph. Chance of precipitation is 100%. New rainfall amounts between a half and three quarters of an inch possible.",
      "last_updated": "2025-11-15T02:04:27.132Z"
    },
    {
      "name": "Sun Peaks",
      "lat": 50.8817,
      "lng": -119.8847,
      "snowfall_24hr": 0,
      "snowfall_48hr": 0,
      "snowfall_7day": 0,
      "forecast_text": "Data unavailable",
      "last_updated": "2025-11-15T02:04:33.430Z",
      "error": "Point API failed: 404"
    },
    {
      "name": "Revelstoke",
      "lat": 50.9981,
      "lng": -118.1956,
      "snowfall_24hr": 0,
      "snowfall_48hr": 0,
      "snowfall_7day": 0,
      "forecast_text": "Data unavailable",
      "last_updated": "2025-11-15T02:04:36.212Z",
      "error": "Point API failed: 404"
    },
    {
      "name": "Fernie",
      "lat": 49.4653,
      "lng": -115.0636,
      "snowfall_24hr": 0,
      "snowfall_48hr": 0,
      "snowfall_7day": 0,
      "forecast_text": "Data unavailable",
      "last_updated": "2025-11-15T02:04:38.246Z",
      "error": "Point API failed: 404"
    },
    {
      "name": "Big White",
      "lat": 49.7311,
      "lng": -118.935,
      "snowfall_24hr": 0,
      "snowfall_48hr": 0,
      "snowfall_7day": 0,
      "forecast_text": "Data unavailable",
      "last_updated": "2025-11-15T02:04:38.595Z",
      "error": "Point API failed: 404"
    },
    {
      "name": "Kicking Horse",
      "lat": 51.2514,
      "lng": -117.0492,
      "snowfall_24hr": 0,
      "snowfall_48hr": 0,
      "snowfall_7day": 0,
      "forecast_text": "Data unavailable",
      "last_updated": "2025-11-15T02:04:39.533Z",
      "error": "Point API failed: 404"
    },
    {
      "name": "Mont Tremblant",
      "lat": 46.2094,
      "lng": -74.5847,
      "snowfall_24hr": 0,
      "snowfall_48hr": 0,
      "snowfall_7day": 0,
      "forecast_text": "Data unavailable",
      "last_updated": "2025-11-15T02:04:40.346Z",
      "error": "Point API failed: 404"
    },
    {
      "name": "Blue Mountain",
      "lat": 44.5075,
      "lng": -80.3231,
      "snowfall_24hr": 0,
      "snowfall_48hr": 0,
      "snowfall_7day": 0,
      "forecast_text": "Data unavailable",
      "last_updated": "2025-11-15T02:04:40.962Z",
      "error": "Point API failed: 404"
    },
    {
      "name": "Sugarloaf",
      "lat": 45.0314,
      "lng": -70.3139,
      "snowfall_24hr": 0.5,
      "snowfall_48hr": 3.6,
      "snowfall_7day": 4.1,
      "forecast_text": "Partly cloudy, with a low around 20. Northwest wind 15 to 20 mph, with gusts as high as 35 mph.",
      "last_updated": "2025-11-15T02:04:44.879Z"
    },
    {
      "name": "Sunday River",
      "lat": 44.4697,
      "lng": -70.8561,
      "snowfall_24hr": 0.4,
      "snowfall_48hr": 1.3,
      "snowfall_7day": 1.7,
      "forecast_text": "Partly cloudy. Low around 24, with temperatures rising to around 30 overnight. Northwest wind 5 to 10 mph, with gusts as high as 25 mph.",
      "last_updated": "2025-11-15T02:04:49.645Z"
    },
    {
      "name": "Sugarbush",
      "lat": 44.135,
      "lng": -72.9017,
      "snowfall_24hr": 1.3,
      "snowfall_48hr": 2.7,
      "snowfall_7day": 4.3,
      "forecast_text": "Isolated snow showers before midnight. Mostly cloudy, with a low around 21. Northwest wind around 6 mph. Chance of precipitation is 20%. New snow accumulation of less than half an inch possible.",
      "last_updated": "2025-11-15T02:04:52.479Z"
    },
    {
      "name": "Stratton",
      "lat": 43.1133,
      "lng": -72.9083,
      "snowfall_24hr": 0,
      "snowfall_48hr": 0.1,
      "snowfall_7day": 0.1,
      "forecast_text": "Isolated snow showers before 11pm. Mostly cloudy, with a low around 22. Northwest wind around 2 mph. Chance of precipitation is 20%.",
      "last_updated": "2025-11-15T02:04:54.610Z"
    },
    {
      "name": "Okemo",
      "lat": 43.4017,
      "lng": -72.7167,
      "snowfall_24hr": 0,
      "snowfall_48hr": 0.2,
      "snowfall_7day": 0.2,
      "forecast_text": "Isolated snow showers before 10pm. Mostly cloudy, with a low around 23. Northwest wind around 5 mph. Chance of precipitation is 20%. New rainfall amounts less than a tenth of an inch possible.",
      "last_updated": "2025-11-15T02:04:58.903Z"
    },
    {
      "name": "Jay Peak",
      "lat": 44.9378,
      "lng": -72.5036,
      "snowfall_24hr": 1.1,
      "snowfall_48hr": 6.4,
      "snowfall_7day": 10.7,
      "forecast_text": "Isolated snow showers before 11pm. Mostly cloudy, with a low around 19. Northwest wind around 3 mph. Chance of precipitation is 20%. New snow accumulation of less than half an inch possible.",
      "last_updated": "2025-11-15T02:05:02.646Z"
    },
    {
      "name": "Smugglers' Notch",
      "lat": 44.5458,
      "lng": -72.7872,
      "snowfall_24hr": 1.5,
      "snowfall_48hr": 5.9,
      "snowfall_7day": 10.5,
      "forecast_text": "Scattered snow showers before midnight. Mostly cloudy, with a low around 20. Northwest wind around 6 mph. Chance of precipitation is 30%. New snow accumulation of less than half an inch possible.",
      "last_updated": "2025-11-15T02:05:05.923Z"
    },
    {
      "name": "Loon Mountain",
      "lat": 44.0369,
      "lng": -71.6206,
      "snowfall_24hr": 0.3,
      "snowfall_48hr": 1.1,
      "snowfall_7day": 1.7,
      "forecast_text": "Mostly cloudy, with a low around 20. Northwest wind around 10 mph, with gusts as high as 25 mph.",
      "last_updated": "2025-11-15T02:05:31.589Z"
    },
    {
      "name": "Cannon Mountain",
      "lat": 44.1572,
      "lng": -71.6978,
      "snowfall_24hr": 0.5,
      "snowfall_48hr": 2.6,
      "snowfall_7day": 3.2,
      "forecast_text": "Mostly cloudy, with a low around 17. Northwest wind around 20 mph, with gusts as high as 40 mph.",
      "last_updated": "2025-11-15T02:05:34.380Z"
    },
    {
      "name": "Wildcat Mountain",
      "lat": 44.2636,
      "lng": -71.2328,
      "snowfall_24hr": 0.4,
      "snowfall_48hr": 2,
      "snowfall_7day": 2.8,
      "forecast_text": "Mostly cloudy, with a low around 21. Northwest wind around 10 mph, with gusts as high as 25 mph.",
      "last_updated": "2025-11-15T02:05:40.510Z"
    },
    {
      "name": "Bretton Woods",
      "lat": 44.2633,
      "lng": -71.4439,
      "snowfall_24hr": 0.3,
      "snowfall_48hr": 1.7,
      "snowfall_7day": 2.2,
      "forecast_text": "Mostly cloudy, with a low around 19. Northwest wind around 5 mph.",
      "last_updated": "2025-11-15T02:05:45.642Z"
    },
    {
      "name": "Snowbasin",
      "lat": 41.2156,
      "lng": -111.8567,
      "snowfall_24hr": 0,
      "snowfall_48hr": 0,
      "snowfall_7day": 0.4,
      "forecast_text": "Mostly cloudy. Low around 41, with temperatures rising to around 43 overnight. South southwest wind around 6 mph.",
      "last_updated": "2025-11-15T02:05:49.461Z"
    },
    {
      "name": "Powder Mountain",
      "lat": 41.3814,
      "lng": -111.7806,
      "snowfall_24hr": 0,
      "snowfall_48hr": 1,
      "snowfall_7day": 5.7,
      "forecast_text": "Mostly cloudy. Low around 38, with temperatures rising to around 40 overnight. Southwest wind around 8 mph.",
      "last_updated": "2025-11-15T02:05:51.311Z"
    },
    {
      "name": "Solitude",
      "lat": 40.62,
      "lng": -111.5917,
      "snowfall_24hr": 0,
      "snowfall_48hr": 2,
      "snowfall_7day": 8.6,
      "forecast_text": "Partly cloudy. Low around 36, with temperatures rising to around 39 overnight. Southwest wind 3 to 7 mph.",
      "last_updated": "2025-11-15T02:05:54.975Z"
    },
    {
      "name": "Brighton",
      "lat": 40.5981,
      "lng": -111.5831,
      "snowfall_24hr": 0,
      "snowfall_48hr": 1.8,
      "snowfall_7day": 9.1,
      "forecast_text": "Partly cloudy. Low around 36, with temperatures rising to around 38 overnight. Southwest wind around 7 mph.",
      "last_updated": "2025-11-15T02:05:56.291Z"
    },
    {
      "name": "Snowmass",
      "lat": 39.2133,
      "lng": -106.9378,
      "snowfall_24hr": 0,
      "snowfall_48hr": 0,
      "snowfall_7day": 0.9,
      "forecast_text": "Partly cloudy, with a low around 34. South southwest wind 5 to 10 mph.",
      "last_updated": "2025-11-15T02:06:03.643Z"
    },
    {
      "name": "Aspen Highlands",
      "lat": 39.1825,
      "lng": -106.8553,
      "snowfall_24hr": 0,
      "snowfall_48hr": 0,
      "snowfall_7day": 0.5,
      "forecast_text": "Partly cloudy, with a low around 33. South wind around 5 mph.",
      "last_updated": "2025-11-15T02:06:06.293Z"
    },
    {
      "name": "Buttermilk",
      "lat": 39.2078,
      "lng": -106.8608,
      "snowfall_24hr": 0,
      "snowfall_48hr": 0,
      "snowfall_7day": 0.2,
      "forecast_text": "Partly cloudy, with a low around 32. South wind around 5 mph.",
      "last_updated": "2025-11-15T02:06:13.908Z"
    },
    {
      "name": "Beaver Creek",
      "lat": 39.6042,
      "lng": -106.5164,
      "snowfall_24hr": 0,
      "snowfall_48hr": 0,
      "snowfall_7day": 0.9,
      "forecast_text": "Mostly clear, with a low around 31. Southwest wind around 5 mph.",
      "last_updated": "2025-11-15T02:06:31.021Z"
    },
    {
      "name": "Purgatory",
      "lat": 37.6303,
      "lng": -107.8139,
      "snowfall_24hr": 0,
      "snowfall_48hr": 1,
      "snowfall_7day": 6,
      "forecast_text": "Partly cloudy, with a low around 31. North wind 0 to 5 mph.",
      "last_updated": "2025-11-15T02:06:40.705Z"
    },
    {
      "name": "Wolf Creek",
      "lat": 37.4722,
      "lng": -106.7931,
      "snowfall_24hr": 0,
      "snowfall_48hr": 5.2,
      "snowfall_7day": 13.9,
      "forecast_text": "Partly cloudy, with a low around 32. Southwest wind around 10 mph.",
      "last_updated": "2025-11-15T02:06:46.248Z"
    },
    {
      "name": "Monarch Mountain",
      "lat": 38.5117,
      "lng": -106.3317,
      "snowfall_24hr": 0,
      "snowfall_48hr": 0.8,
      "snowfall_7day": 2.3,
      "forecast_text": "Mostly clear, with a low around 31. West wind 10 to 15 mph.",
      "last_updated": "2025-11-15T02:06:49.449Z"
    },
    {
      "name": "Eldora",
      "lat": 39.9372,
      "lng": -105.5828,
      "snowfall_24hr": 0,
      "snowfall_48hr": 0,
      "snowfall_7day": 2.6,
      "forecast_text": "Partly cloudy, with a low around 34. West wind 14 to 17 mph, with gusts as high as 28 mph.",
      "last_updated": "2025-11-15T02:06:50.490Z"
    },
    {
      "name": "Grand Targhee",
      "lat": 43.7886,
      "lng": -110.9586,
      "snowfall_24hr": 0.1,
      "snowfall_48hr": 0.7,
      "snowfall_7day": 5.8,
      "forecast_text": "Scattered rain and snow showers. Mostly cloudy, with a low around 30. Southwest wind 10 to 18 mph, with gusts as high as 29 mph. Chance of precipitation is 30%.",
      "last_updated": "2025-11-15T02:06:52.297Z"
    },
    {
      "name": "Snow King",
      "lat": 43.4783,
      "lng": -110.7628,
      "snowfall_24hr": 0,
      "snowfall_48hr": 0,
      "snowfall_7day": 0.1,
      "forecast_text": "Scattered rain showers before 5am. Mostly cloudy. Low around 35, with temperatures rising to around 38 overnight. South wind 7 to 12 mph, with gusts as high as 24 mph. Chance of precipitation is 40%.",
      "last_updated": "2025-11-15T02:06:55.225Z"
    },
    {
      "name": "Bridger Bowl",
      "lat": 45.8167,
      "lng": -110.8969,
      "snowfall_24hr": 0,
      "snowfall_48hr": 0,
      "snowfall_7day": 0.7,
      "forecast_text": "Partly cloudy, with a low around 37. West southwest wind 8 to 14 mph, with gusts as high as 28 mph.",
      "last_updated": "2025-11-15T02:06:56.468Z"
    },
    {
      "name": "Big Mountain",
      "lat": 48.4928,
      "lng": -114.3483,
      "snowfall_24hr": 0,
      "snowfall_48hr": 0,
      "snowfall_7day": 2.5,
      "forecast_text": "Rain and snow. Cloudy, with a low around 33. Southwest wind 12 to 20 mph, with gusts as high as 25 mph. Chance of precipitation is 90%. New rainfall amounts between a quarter and half of an inch possible.",
      "last_updated": "2025-11-15T02:07:00.202Z"
    },
    {
      "name": "Snowbowl",
      "lat": 46.9417,
      "lng": -113.9492,
      "snowfall_24hr": 0,
      "snowfall_48hr": 0,
      "snowfall_7day": 0,
      "forecast_text": "A chance of rain. Cloudy, with a low around 40. West wind around 13 mph, with gusts as high as 20 mph. Chance of precipitation is 50%.",
      "last_updated": "2025-11-15T02:07:02.144Z"
    },
    {
      "name": "Bogus Basin",
      "lat": 43.7725,
      "lng": -116.0939,
      "snowfall_24hr": 0,
      "snowfall_48hr": 0,
      "snowfall_7day": 0.7,
      "forecast_text": "Partly cloudy, with a low around 38. West southwest wind 3 to 7 mph.",
      "last_updated": "2025-11-15T02:07:10.475Z"
    },
    {
      "name": "Tamarack",
      "lat": 44.6922,
      "lng": -116.1344,
      "snowfall_24hr": 0,
      "snowfall_48hr": 0,
      "snowfall_7day": 0.6,
      "forecast_text": "Partly cloudy, with a low around 33. Southwest wind around 7 mph.",
      "last_updated": "2025-11-15T02:07:11.913Z"
    },
    {
      "name": "Silver Mountain",
      "lat": 47.6764,
      "lng": -116.0703,
      "snowfall_24hr": 0,
      "snowfall_48hr": 0,
      "snowfall_7day": 0,
      "forecast_text": "Rain before 1am, then rain and patchy fog. Cloudy, with a low around 43. Southwest wind around 12 mph, with gusts as high as 28 mph. Chance of precipitation is 100%. New rainfall amounts between a quarter and half of an inch possible.",
      "last_updated": "2025-11-15T02:07:14.990Z"
    },
    {
      "name": "Mt. Hood Meadows",
      "lat": 45.3319,
      "lng": -121.6653,
      "snowfall_24hr": 0,
      "snowfall_48hr": 0,
      "snowfall_7day": 4.5,
      "forecast_text": "Rain showers likely. Mostly cloudy, with a low around 38. West southwest wind around 7 mph, with gusts as high as 22 mph. Chance of precipitation is 60%. New rainfall amounts less than a tenth of an inch possible.",
      "last_updated": "2025-11-15T02:07:22.573Z"
    },
    {
      "name": "Timberline",
      "lat": 45.3306,
      "lng": -121.7108,
      "snowfall_24hr": 0,
      "snowfall_48hr": 0,
      "snowfall_7day": 8.2,
      "forecast_text": "Rain and snow showers likely. Mostly cloudy, with a low around 36. West southwest wind 8 to 12 mph, with gusts as high as 24 mph. Chance of precipitation is 60%. New rainfall amounts between a tenth and quarter of an inch possible.",
      "last_updated": "2025-11-15T02:07:26.204Z"
    },
    {
      "name": "Willamette Pass",
      "lat": 43.6006,
      "lng": -122.0336,
      "snowfall_24hr": 0,
      "snowfall_48hr": 0,
      "snowfall_7day": 2.5,
      "forecast_text": "Mostly cloudy. Low around 34, with temperatures rising to around 36 overnight. West northwest wind around 5 mph.",
      "last_updated": "2025-11-15T02:07:28.076Z"
    },
    {
      "name": "Mission Ridge",
      "lat": 47.2917,
      "lng": -120.3997,
      "snowfall_24hr": 0,
      "snowfall_48hr": 0,
      "snowfall_7day": 1.3,
      "forecast_text": "Rain and snow likely. Mostly cloudy. Low around 38, with temperatures rising to around 42 overnight. Southwest wind around 9 mph. Chance of precipitation is 60%. New rainfall amounts between a tenth and quarter of an inch possible.",
      "last_updated": "2025-11-15T02:07:30.518Z"
    },
    {
      "name": "Snoqualmie",
      "lat": 47.4219,
      "lng": -121.4136,
      "snowfall_24hr": 0,
      "snowfall_48hr": 0,
      "snowfall_7day": 0.3,
      "forecast_text": "Rain. Cloudy. Low around 41, with temperatures rising to around 43 overnight. West wind around 3 mph. Chance of precipitation is 100%. New rainfall amounts between 1 and 2 inches possible.",
      "last_updated": "2025-11-15T02:07:31.649Z"
    },
    {
      "name": "Mt. Spokane",
      "lat": 47.9208,
      "lng": -117.0856,
      "snowfall_24hr": 0,
      "snowfall_48hr": 0,
      "snowfall_7day": 0.5,
      "forecast_text": "Rain. Cloudy, with a low around 40. Southwest wind around 14 mph, with gusts as high as 29 mph. Chance of precipitation is 90%. New rainfall amounts between a quarter and half of an inch possible.",
      "last_updated": "2025-11-15T02:07:33.280Z"
    },
    {
      "name": "White Pass",
      "lat": 46.6394,
      "lng": -121.3908,
      "snowfall_24hr": 0,
      "snowfall_48hr": 0,
      "snowfall_7day": 3.7,
      "forecast_text": "Rain. Cloudy. Low around 38, with temperatures rising to around 40 overnight. West wind around 9 mph, with gusts as high as 23 mph. Chance of precipitation is 90%. New rainfall amounts between a half and three quarters of an inch possible.",
      "last_updated": "2025-11-15T02:07:35.830Z"
    },
    {
      "name": "49 Degrees North",
      "lat": 48.7511,
      "lng": -117.6369,
      "snowfall_24hr": 0,
      "snowfall_48hr": 0,
      "snowfall_7day": 0,
      "forecast_text": "Rain and patchy fog. Cloudy, with a low around 41. South wind around 3 mph. Chance of precipitation is 90%. New rainfall amounts between a tenth and quarter of an inch possible.",
      "last_updated": "2025-11-15T02:07:39.583Z"
    },
    {
      "name": "Red Mountain",
      "lat": 49.0917,
      "lng": -117.8233,
      "snowfall_24hr": 0,
      "snowfall_48hr": 0,
      "snowfall_7day": 0,
      "forecast_text": "Data unavailable",
      "last_updated": "2025-11-15T02:07:40.485Z",
      "error": "Point API failed: 404"
    },
    {
      "name": "Whitewater",
      "lat": 49.5394,
      "lng": -117.2717,
      "snowfall_24hr": 0,
      "snowfall_48hr": 0,
      "snowfall_7day": 0,
      "forecast_text": "Data unavailable",
      "last_updated": "2025-11-15T02:07:41.339Z",
      "error": "Point API failed: 404"
    },
    {
      "name": "Panorama",
      "lat": 50.8036,
      "lng": -116.0533,
      "snowfall_24hr": 0,
      "snowfall_48hr": 0,
      "snowfall_7day": 0,
      "forecast_text": "Data unavailable",
      "last_updated": "2025-11-15T02:07:41.708Z",
      "error": "Point API failed: 404"
    },
    {
      "name": "Marmot Basin",
      "lat": 52.8236,
      "lng": -118.0747,
      "snowfall_24hr": 0,
      "snowfall_48hr": 0,
      "snowfall_7day": 0,
      "forecast_text": "Data unavailable",
      "last_updated": "2025-11-15T02:07:45.315Z",
      "error": "Point API failed: 404"
    },
    {
      "name": "Nakiska",
      "lat": 50.98,
      "lng": -115.0733,
      "snowfall_24hr": 0,
      "snowfall_48hr": 0,
      "snowfall_7day": 0,
      "forecast_text": "Data unavailable",
      "last_updated": "2025-11-15T02:07:45.796Z",
      "error": "Point API failed: 404"
    },
    {
      "name": "Castle Mountain",
      "lat": 49.4058,
      "lng": -114.5169,
      "snowfall_24hr": 0,
      "snowfall_48hr": 0,
      "snowfall_7day": 0,
      "forecast_text": "Data unavailable",
      "last_updated": "2025-11-15T02:07:46.145Z",
      "error": "Point API failed: 404"
    },
    {
      "name": "Norquay",
      "lat": 51.1967,
      "lng": -115.5531,
      "snowfall_24hr": 0,
      "snowfall_48hr": 0,
      "snowfall_7day": 0,
      "forecast_text": "Data unavailable",
      "last_updated": "2025-11-15T02:07:46.472Z",
      "error": "Point API failed: 404"
    },
    {
      "name": "Le Massif",
      "lat": 47.3136,
      "lng": -70.6358,
      "snowfall_24hr": 0,
      "snowfall_48hr": 0,
      "snowfall_7day": 0,
      "forecast_text": "Data unavailable",
      "last_updated": "2025-11-15T02:07:46.848Z",
      "error": "Point API failed: 404"
    },
    {
      "name": "Calabogie",
      "lat": 45.2906,
      "lng": -76.7019,
      "snowfall_24hr": 0,
      "snowfall_48hr": 0,
      "snowfall_7day": 0,
      "forecast_text": "Data unavailable",
      "last_updated": "2025-11-15T02:07:47.336Z",
      "error": "Point API failed: 404"
    },
    {
      "name": "Sierra-at-Tahoe",
      "lat": 38.7986,
      "lng": -120.0828,
      "snowfall_24hr": 0,
      "snowfall_48hr": 3.4,
      "snowfall_7day": 10.9,
      "forecast_text": "A slight chance of rain showers between midnight and 4am. Mostly cloudy, with a low around 38. East wind 0 to 5 mph. Chance of precipitation is 20%.",
      "last_updated": "2025-11-15T02:07:49.160Z"
    },
    {
      "name": "Kirkwood",
      "lat": 38.6867,
      "lng": -120.0656,
      "snowfall_24hr": 0,
      "snowfall_48hr": 8.1,
      "snowfall_7day": 21.6,
      "forecast_text": "A chance of rain showers. Partly sunny. High near 41, with temperatures falling to around 39 in the afternoon. South southeast wind around 2 mph. Chance of precipitation is 40%. New rainfall amounts between a tenth and quarter of an inch possible.",
      "last_updated": "2025-11-15T02:07:50.991Z"
    },
    {
      "name": "Northstar",
      "lat": 39.2733,
      "lng": -120.1211,
      "snowfall_24hr": 0,
      "snowfall_48hr": 0,
      "snowfall_7day": 1.7,
      "forecast_text": "A chance of rain. Mostly sunny, with a high near 49. South wind around 0 mph. Chance of precipitation is 40%.",
      "last_updated": "2025-11-15T02:07:52.795Z"
    },
    {
      "name": "Homewood",
      "lat": 39.0833,
      "lng": -120.1667,
      "snowfall_24hr": 0,
      "snowfall_48hr": 0.3,
      "snowfall_7day": 2.7,
      "forecast_text": "A slight chance of rain. Mostly cloudy, with a low around 39. Southeast wind 0 to 5 mph. Chance of precipitation is 20%.",
      "last_updated": "2025-11-15T02:07:53.673Z"
    },
    {
      "name": "Mt. Rose",
      "lat": 39.3397,
      "lng": -119.8894,
      "snowfall_24hr": 0,
      "snowfall_48hr": 2.8,
      "snowfall_7day": 8.2,
      "forecast_text": "A slight chance of rain after 4am. Mostly cloudy, with a low around 35. Southeast wind around 5 mph. Chance of precipitation is 20%.",
      "last_updated": "2025-11-15T02:07:56.522Z"
    },
    {
      "name": "Diamond Peak",
      "lat": 39.2525,
      "lng": -119.9169,
      "snowfall_24hr": 0,
      "snowfall_48hr": 0.4,
      "snowfall_7day": 3.2,
      "forecast_text": "A slight chance of rain after 1am. Mostly cloudy, with a low around 38. Northeast wind 0 to 5 mph. Chance of precipitation is 20%.",
      "last_updated": "2025-11-15T02:07:59.251Z"
    },
    {
      "name": "June Mountain",
      "lat": 37.7853,
      "lng": -119.0781,
      "snowfall_24hr": 0,
      "snowfall_48hr": 1.7,
      "snowfall_7day": 5.9,
      "forecast_text": "A chance of rain before 4am, then a chance of rain and snow. Mostly cloudy, with a low around 37. Southeast wind 0 to 5 mph. Chance of precipitation is 40%.",
      "last_updated": "2025-11-15T02:08:00.623Z"
    },
    {
      "name": "Bear Mountain",
      "lat": 34.235,
      "lng": -116.865,
      "snowfall_24hr": 0,
      "snowfall_48hr": 0.6,
      "snowfall_7day": 3.9,
      "forecast_text": "Rain showers before 4am, then showers and thunderstorms. Cloudy, with a low around 35. South wind 0 to 10 mph. Chance of precipitation is 90%. New rainfall amounts between a half and three quarters of an inch possible.",
      "last_updated": "2025-11-15T02:08:05.671Z"
    },
    {
      "name": "Snow Summit",
      "lat": 34.2306,
      "lng": -116.8886,
      "snowfall_24hr": 0.1,
      "snowfall_48hr": 0.7,
      "snowfall_7day": 4.6,
      "forecast_text": "Rain showers before 4am, then showers and thunderstorms. Cloudy, with a low around 37. South wind 0 to 10 mph. Chance of precipitation is 90%. New rainfall amounts between a half and three quarters of an inch possible.",
      "last_updated": "2025-11-15T02:08:08.018Z"
    },
    {
      "name": "Mountain High",
      "lat": 34.3811,
      "lng": -117.6881,
      "snowfall_24hr": 0.1,
      "snowfall_48hr": 0.2,
      "snowfall_7day": 1.1,
      "forecast_text": "Showers and thunderstorms. Cloudy, with a low around 45. South wind 5 to 10 mph. Chance of precipitation is 100%. New rainfall amounts between 1 and 2 inches possible.",
      "last_updated": "2025-11-15T02:08:13.250Z"
    },
    {
      "name": "Ski Santa Fe",
      "lat": 35.7869,
      "lng": -105.7961,
      "snowfall_24hr": 0,
      "snowfall_48hr": 0.5,
      "snowfall_7day": 4.7,
      "forecast_text": "Mostly clear, with a low around 34. Northwest wind 5 to 10 mph.",
      "last_updated": "2025-11-15T02:08:14.426Z"
    },
    {
      "name": "Angel Fire",
      "lat": 36.3975,
      "lng": -105.2886,
      "snowfall_24hr": 0,
      "snowfall_48hr": 0,
      "snowfall_7day": 0.4,
      "forecast_text": "Partly cloudy, with a low around 34. West wind 5 to 10 mph.",
      "last_updated": "2025-11-15T02:08:18.492Z"
    },
    {
      "name": "Whiteface Mountain",
      "lat": 44.3659,
      "lng": -73.9024,
      "snowfall_24hr": 1,
      "snowfall_48hr": 3.5,
      "snowfall_7day": 4.4,
      "forecast_text": "Isolated snow showers before 10pm. Mostly cloudy, with a low around 17. Northwest wind around 8 mph. Chance of precipitation is 20%. New snow accumulation of less than half an inch possible.",
      "last_updated": "2025-11-15T02:08:20.240Z"
    }
  ]
}