{
  "generated_at": "2025-11-14T06:46:59.972Z",
  "total_resorts": 100,
  "resorts": [
    {
      "name": "Whistler Blackcomb",
      "lat": 50.1163,
      "lng": -122.9574,
      "snowfall_24hr": 0,
      "snowfall_48hr": 0,
      "snowfall_7day": 0,
      "forecast_text": "Data unavailable",
      "last_updated": "2025-11-14T06:39:44.950Z",
      "error": "Point API failed: 404"
    },
    {
      "name": "Vail",
      "lat": 39.6403,
      "lng": -106.3742,
      "snowfall_24hr": 0,
      "snowfall_48hr": 0,
      "snowfall_7day": 0,
      "forecast_text": "Mostly clear, with a low around 31. East southeast wind around 5 mph.",
      "last_updated": "2025-11-14T06:39:45.544Z"
    },
    {
      "name": "Park City",
      "lat": 40.6514,
      "lng": -111.5079,
      "snowfall_24hr": 0,
      "snowfall_48hr": 0,
      "snowfall_7day": 5,
      "forecast_text": "Mostly clear. Low around 42, with temperatures rising to around 44 overnight. South wind 9 to 13 mph.",
      "last_updated": "2025-11-14T06:39:45.935Z"
    },
    {
      "name": "Breckenridge",
      "lat": 39.4817,
      "lng": -106.0384,
      "snowfall_24hr": 0,
      "snowfall_48hr": 0,
      "snowfall_7day": 1.5,
      "forecast_text": "Mostly clear, with a low around 28. Southwest wind around 7 mph.",
      "last_updated": "2025-11-14T06:39:46.329Z"
    },
    {
      "name": "Heavenly",
      "lat": 38.935,
      "lng": -119.9403,
      "snowfall_24hr": 0,
      "snowfall_48hr": 0,
      "snowfall_7day": 6,
      "forecast_text": "Rain before 4am, then rain and snow likely. Cloudy, with a low around 37. Southwest wind 0 to 5 mph, with gusts as high as 25 mph. Chance of precipitation is 90%. New rainfall amounts between a half and three quarters of an inch possible.",
      "last_updated": "2025-11-14T06:39:47.785Z"
    },
    {
      "name": "Aspen Snowmass",
      "lat": 39.1911,
      "lng": -106.8175,
      "snowfall_24hr": 0,
      "snowfall_48hr": 0,
      "snowfall_7day": 0,
      "forecast_text": "Mostly clear, with a low around 35. South southeast wind around 5 mph.",
      "last_updated": "2025-11-14T06:39:48.481Z"
    },
    {
      "name": "Jackson Hole",
      "lat": 43.5875,
      "lng": -110.8278,
      "snowfall_24hr": 0,
      "snowfall_48hr": 0,
      "snowfall_7day": 0,
      "forecast_text": "Partly cloudy, with a low around 36. Southwest wind around 12 mph.",
      "last_updated": "2025-11-14T06:39:49.567Z"
    },
    {
      "name": "Banff Sunshine",
      "lat": 51.1158,
      "lng": -115.7631,
      "snowfall_24hr": 0,
      "snowfall_48hr": 0,
      "snowfall_7day": 0,
      "forecast_text": "Data unavailable",
      "last_updated": "2025-11-14T06:39:50.539Z",
      "error": "Point API failed: 404"
    },
    {
      "name": "Lake Louise",
      "lat": 51.4254,
      "lng": -116.1773,
      "snowfall_24hr": 0,
      "snowfall_48hr": 0,
      "snowfall_7day": 0,
      "forecast_text": "Data unavailable",
      "last_updated": "2025-11-14T06:39:53.826Z",
      "error": "Point API failed: 404"
    },
    {
      "name": "Big Sky",
      "lat": 45.2846,
      "lng": -111.4008,
      "snowfall_24hr": 0,
      "snowfall_48hr": 0,
      "snowfall_7day": 1.5,
      "forecast_text": "A chance of rain after 3am. Partly cloudy. Low around 37, with temperatures rising to around 41 overnight. South southwest wind around 17 mph, with gusts as high as 39 mph. Chance of precipitation is 30%. New rainfall amounts between a tenth and quarter of an inch possible.",
      "last_updated": "2025-11-14T06:39:54.933Z"
    },
    {
      "name": "Steamboat",
      "lat": 40.458,
      "lng": -106.8047,
      "snowfall_24hr": 0,
      "snowfall_48hr": 0,
      "snowfall_7day": 0,
      "forecast_text": "Mostly clear, with a low around 34. Southeast wind around 5 mph.",
      "last_updated": "2025-11-14T06:40:02.556Z"
    },
    {
      "name": "Mammoth Mountain",
      "lat": 37.6308,
      "lng": -119.0326,
      "snowfall_24hr": 7,
      "snowfall_48hr": 9,
      "snowfall_7day": 40,
      "forecast_text": "Snow. Cloudy. Low around 31, with temperatures rising to around 34 overnight. Wind chill values as low as 21. South southwest wind 30 to 40 mph, with gusts as high as 65 mph. Chance of precipitation is 90%. New snow accumulation of 3 to 5 inches possible.",
      "last_updated": "2025-11-14T06:40:12.290Z"
    },
    {
      "name": "Squaw Valley",
      "lat": 39.197,
      "lng": -120.2356,
      "snowfall_24hr": 0,
      "snowfall_48hr": 0,
      "snowfall_7day": 13.5,
      "forecast_text": "Rain and snow. Cloudy, with a low around 31. South wind 5 to 10 mph, with gusts as high as 35 mph. Chance of precipitation is 100%. New snow accumulation of less than half an inch possible.",
      "last_updated": "2025-11-14T06:40:16.817Z"
    },
    {
      "name": "Telluride",
      "lat": 37.9375,
      "lng": -107.8123,
      "snowfall_24hr": 0,
      "snowfall_48hr": 0,
      "snowfall_7day": 12,
      "forecast_text": "Mostly clear, with a low around 28. Southeast wind around 5 mph.",
      "last_updated": "2025-11-14T06:40:45.512Z"
    },
    {
      "name": "Sun Valley",
      "lat": 43.6966,
      "lng": -114.3553,
      "snowfall_24hr": 0,
      "snowfall_48hr": 0,
      "snowfall_7day": 1.5,
      "forecast_text": "Rain showers likely. Mostly cloudy. Low around 35, with temperatures rising to around 37 overnight. East southeast wind around 6 mph. Chance of precipitation is 70%.",
      "last_updated": "2025-11-14T06:40:46.022Z"
    },
    {
      "name": "Deer Valley",
      "lat": 40.6374,
      "lng": -111.4783,
      "snowfall_24hr": 0,
      "snowfall_48hr": 0,
      "snowfall_7day": 6,
      "forecast_text": "Mostly clear. Low around 39, with temperatures rising to around 41 overnight. South wind 9 to 13 mph.",
      "last_updated": "2025-11-14T06:40:46.418Z"
    },
    {
      "name": "Killington",
      "lat": 43.6046,
      "lng": -72.822,
      "snowfall_24hr": 0,
      "snowfall_48hr": 0,
      "snowfall_7day": 0,
      "forecast_text": "Mostly cloudy, with a low around 21. Northwest wind 22 to 31 mph.",
      "last_updated": "2025-11-14T06:40:57.997Z"
    },
    {
      "name": "Stowe",
      "lat": 44.5303,
      "lng": -72.7817,
      "snowfall_24hr": 5,
      "snowfall_48hr": 7,
      "snowfall_7day": 14.5,
      "forecast_text": "A chance of snow showers. Mostly cloudy, with a low around 23. Northwest wind around 14 mph. Chance of precipitation is 40%. New snow accumulation of 1 to 3 inches possible.",
      "last_updated": "2025-11-14T06:41:02.084Z"
    },
    {
      "name": "Alta",
      "lat": 40.5885,
      "lng": -111.6376,
      "snowfall_24hr": 0,
      "snowfall_48hr": 0,
      "snowfall_7day": 37.5,
      "forecast_text": "A slight chance of snow after 5am. Mostly clear, with a low around 39. South southwest wind 10 to 16 mph. Chance of precipitation is 20%.",
      "last_updated": "2025-11-14T06:41:02.489Z"
    },
    {
      "name": "Snowbird",
      "lat": 40.5803,
      "lng": -111.6573,
      "snowfall_24hr": 0,
      "snowfall_48hr": 0,
      "snowfall_7day": 30,
      "forecast_text": "A slight chance of snow after 5am. Mostly clear, with a low around 39. South southwest wind 9 to 13 mph. Chance of precipitation is 20%.",
      "last_updated": "2025-11-14T06:41:02.901Z"
    },
    {
      "name": "Taos",
      "lat": 36.5924,
      "lng": -105.4467,
      "snowfall_24hr": 0,
      "snowfall_48hr": 0,
      "snowfall_7day": 3,
      "forecast_text": "Mostly clear, with a low around 32. West wind 5 to 10 mph.",
      "last_updated": "2025-11-14T06:41:04.662Z"
    },
    {
      "name": "Copper Mountain",
      "lat": 39.5022,
      "lng": -106.1506,
      "snowfall_24hr": 0,
      "snowfall_48hr": 0,
      "snowfall_7day": 2,
      "forecast_text": "Mostly clear. Low around 25, with temperatures rising to around 27 overnight. Southwest wind around 9 mph.",
      "last_updated": "2025-11-14T06:41:07.787Z"
    },
    {
      "name": "Winter Park",
      "lat": 39.8868,
      "lng": -105.7625,
      "snowfall_24hr": 0,
      "snowfall_48hr": 0,
      "snowfall_7day": 3,
      "forecast_text": "Mostly clear, with a low around 30. West wind around 10 mph, with gusts as high as 16 mph.",
      "last_updated": "2025-11-14T06:41:08.171Z"
    },
    {
      "name": "Keystone",
      "lat": 39.605,
      "lng": -105.9347,
      "snowfall_24hr": 0,
      "snowfall_48hr": 0,
      "snowfall_7day": 3,
      "forecast_text": "Mostly clear, with a low around 28. West southwest wind around 7 mph.",
      "last_updated": "2025-11-14T06:41:08.545Z"
    },
    {
      "name": "Arapahoe Basin",
      "lat": 39.6426,
      "lng": -105.8717,
      "snowfall_24hr": 0,
      "snowfall_48hr": 0,
      "snowfall_7day": 9,
      "forecast_text": "Mostly clear, with a low around 29. West wind 12 to 15 mph, with gusts as high as 24 mph.",
      "last_updated": "2025-11-14T06:41:09.110Z"
    },
    {
      "name": "Crested Butte",
      "lat": 38.8997,
      "lng": -106.9653,
      "snowfall_24hr": 0,
      "snowfall_48hr": 0,
      "snowfall_7day": 3.5,
      "forecast_text": "Mostly clear, with a low around 29. Northwest wind around 0 mph.",
      "last_updated": "2025-11-14T06:41:09.903Z"
    },
    {
      "name": "Loveland",
      "lat": 39.6803,
      "lng": -105.8978,
      "snowfall_24hr": 0,
      "snowfall_48hr": 0,
      "snowfall_7day": 10.5,
      "forecast_text": "Mostly clear, with a low around 27. West wind around 15 mph, with gusts as high as 24 mph.",
      "last_updated": "2025-11-14T06:41:28.196Z"
    },
    {
      "name": "Mt. Bachelor",
      "lat": 43.979,
      "lng": -121.688,
      "snowfall_24hr": 0,
      "snowfall_48hr": 0,
      "snowfall_7day": 21,
      "forecast_text": "Rain and snow likely. Mostly cloudy. Low around 31, with temperatures rising to around 33 overnight. Southwest wind around 13 mph, with gusts as high as 18 mph. Chance of precipitation is 60%. New snow accumulation of less than half an inch possible.",
      "last_updated": "2025-11-14T06:41:33.336Z"
    },
    {
      "name": "Crystal Mountain",
      "lat": 46.9358,
      "lng": -121.4742,
      "snowfall_24hr": 0,
      "snowfall_48hr": 0,
      "snowfall_7day": 17,
      "forecast_text": "Rain and snow likely before midnight, then rain and snow. Mostly cloudy. Low around 34, with temperatures rising to around 36 overnight. Southwest wind 13 to 18 mph, with gusts as high as 30 mph. Chance of precipitation is 80%. New rainfall amounts less than a tenth of an inch possible.",
      "last_updated": "2025-11-14T06:41:34.902Z"
    },
    {
      "name": "Stevens Pass",
      "lat": 47.7453,
      "lng": -121.0892,
      "snowfall_24hr": 0,
      "snowfall_48hr": 0,
      "snowfall_7day": 12.5,
      "forecast_text": "Rain and snow before 1am, then rain and snow likely between 1am and 5am, then a chance of rain and snow. Mostly cloudy. Low around 36, with temperatures rising to around 38 overnight. West southwest wind 7 to 13 mph, with gusts as high as 25 mph. Chance of precipitation is 80%. New rainfall amounts between a half and three quarters of an inch possible.",
      "last_updated": "2025-11-14T06:41:38.981Z"
    },
    {
      "name": "Mt. Baker",
      "lat": 48.8597,
      "lng": -121.6686,
      "snowfall_24hr": 0,
      "snowfall_48hr": 0,
      "snowfall_7day": 17,
      "forecast_text": "A chance of snow. Mostly cloudy. Low around 33, with temperatures rising to around 35 overnight. South southwest wind 5 to 12 mph. Chance of precipitation is 50%. New snow accumulation of less than half an inch possible.",
      "last_updated": "2025-11-14T06:41:40.157Z"
    },
    {
      "name": "Schweitzer",
      "lat": 48.3642,
      "lng": -116.6228,
      "snowfall_24hr": 0,
      "snowfall_48hr": 0,
      "snowfall_7day": 5,
      "forecast_text": "Rain before 2am, then rain and snow. Cloudy, with a low around 38. Southwest wind around 18 mph, with gusts as high as 32 mph. Chance of precipitation is 90%. New rainfall amounts between a half and three quarters of an inch possible.",
      "last_updated": "2025-11-14T06:41:45.228Z"
    },
    {
      "name": "Sun Peaks",
      "lat": 50.8817,
      "lng": -119.8847,
      "snowfall_24hr": 0,
      "snowfall_48hr": 0,
      "snowfall_7day": 0,
      "forecast_text": "Data unavailable",
      "last_updated": "2025-11-14T06:41:47.443Z",
      "error": "Point API failed: 404"
    },
    {
      "name": "Revelstoke",
      "lat": 50.9981,
      "lng": -118.1956,
      "snowfall_24hr": 0,
      "snowfall_48hr": 0,
      "snowfall_7day": 0,
      "forecast_text": "Data unavailable",
      "last_updated": "2025-11-14T06:41:47.744Z",
      "error": "Point API failed: 404"
    },
    {
      "name": "Fernie",
      "lat": 49.4653,
      "lng": -115.0636,
      "snowfall_24hr": 0,
      "snowfall_48hr": 0,
      "snowfall_7day": 0,
      "forecast_text": "Data unavailable",
      "last_updated": "2025-11-14T06:41:48.031Z",
      "error": "Point API failed: 404"
    },
    {
      "name": "Big White",
      "lat": 49.7311,
      "lng": -118.935,
      "snowfall_24hr": 0,
      "snowfall_48hr": 0,
      "snowfall_7day": 0,
      "forecast_text": "Data unavailable",
      "last_updated": "2025-11-14T06:41:48.651Z",
      "error": "Point API failed: 404"
    },
    {
      "name": "Kicking Horse",
      "lat": 51.2514,
      "lng": -117.0492,
      "snowfall_24hr": 0,
      "snowfall_48hr": 0,
      "snowfall_7day": 0,
      "forecast_text": "Data unavailable",
      "last_updated": "2025-11-14T06:41:53.320Z",
      "error": "Point API failed: 404"
    },
    {
      "name": "Mont Tremblant",
      "lat": 46.2094,
      "lng": -74.5847,
      "snowfall_24hr": 0,
      "snowfall_48hr": 0,
      "snowfall_7day": 0,
      "forecast_text": "Data unavailable",
      "last_updated": "2025-11-14T06:41:56.035Z",
      "error": "Point API failed: 404"
    },
    {
      "name": "Blue Mountain",
      "lat": 44.5075,
      "lng": -80.3231,
      "snowfall_24hr": 0,
      "snowfall_48hr": 0,
      "snowfall_7day": 0,
      "forecast_text": "Data unavailable",
      "last_updated": "2025-11-14T06:41:56.354Z",
      "error": "Point API failed: 404"
    },
    {
      "name": "Sugarloaf",
      "lat": 45.0314,
      "lng": -70.3139,
      "snowfall_24hr": 0,
      "snowfall_48hr": 0,
      "snowfall_7day": 7.5,
      "forecast_text": "A slight chance of snow showers between 4am and 5am. Mostly cloudy, with a low around 25. Northwest wind around 10 mph. Chance of precipitation is 20%.",
      "last_updated": "2025-11-14T06:42:11.501Z"
    },
    {
      "name": "Sunday River",
      "lat": 44.4697,
      "lng": -70.8561,
      "snowfall_24hr": 0,
      "snowfall_48hr": 0,
      "snowfall_7day": 3.5,
      "forecast_text": "Mostly cloudy, with a low around 28. Northwest wind 5 to 10 mph.",
      "last_updated": "2025-11-14T06:42:17.828Z"
    },
    {
      "name": "Sugarbush",
      "lat": 44.135,
      "lng": -72.9017,
      "snowfall_24hr": 1.5,
      "snowfall_48hr": 3.5,
      "snowfall_7day": 5.5,
      "forecast_text": "A chance of snow showers. Mostly cloudy, with a low around 23. Northwest wind 17 to 25 mph. Chance of precipitation is 30%.",
      "last_updated": "2025-11-14T06:42:25.041Z"
    },
    {
      "name": "Stratton",
      "lat": 43.1133,
      "lng": -72.9083,
      "snowfall_24hr": 0,
      "snowfall_48hr": 0,
      "snowfall_7day": 0,
      "forecast_text": "Mostly cloudy, with a low around 26. Northwest wind around 5 mph.",
      "last_updated": "2025-11-14T06:42:30.112Z"
    },
    {
      "name": "Okemo",
      "lat": 43.4017,
      "lng": -72.7167,
      "snowfall_24hr": 0,
      "snowfall_48hr": 0,
      "snowfall_7day": 0,
      "forecast_text": "Partly cloudy, with a low around 27. Northwest wind around 6 mph.",
      "last_updated": "2025-11-14T06:42:32.143Z"
    },
    {
      "name": "Jay Peak",
      "lat": 44.9378,
      "lng": -72.5036,
      "snowfall_24hr": 2,
      "snowfall_48hr": 2,
      "snowfall_7day": 10.5,
      "forecast_text": "A chance of snow showers. Cloudy, with a low around 23. Northwest wind around 17 mph. Chance of precipitation is 50%. New snow accumulation of less than one inch possible.",
      "last_updated": "2025-11-14T06:42:34.456Z"
    },
    {
      "name": "Smugglers' Notch",
      "lat": 44.5458,
      "lng": -72.7872,
      "snowfall_24hr": 5,
      "snowfall_48hr": 7,
      "snowfall_7day": 14.5,
      "forecast_text": "A chance of snow showers. Mostly cloudy, with a low around 23. Northwest wind around 15 mph. Chance of precipitation is 40%. New snow accumulation of 1 to 3 inches possible.",
      "last_updated": "2025-11-14T06:42:37.274Z"
    },
    {
      "name": "Loon Mountain",
      "lat": 44.0369,
      "lng": -71.6206,
      "snowfall_24hr": 0,
      "snowfall_48hr": 0,
      "snowfall_7day": 3.5,
      "forecast_text": "A slight chance of snow showers before 4am. Mostly cloudy, with a low around 24. Northwest wind around 10 mph, with gusts as high as 25 mph. Chance of precipitation is 20%. New snow accumulation of less than half an inch possible.",
      "last_updated": "2025-11-14T06:42:39.020Z"
    },
    {
      "name": "Cannon Mountain",
      "lat": 44.1572,
      "lng": -71.6978,
      "snowfall_24hr": 2,
      "snowfall_48hr": 2,
      "snowfall_7day": 7,
      "forecast_text": "A slight chance of snow showers. Mostly cloudy, with a low around 21. Northwest wind around 15 mph, with gusts as high as 30 mph. Chance of precipitation is 20%. New snow accumulation of around one inch possible.",
      "last_updated": "2025-11-14T06:42:40.514Z"
    },
    {
      "name": "Wildcat Mountain",
      "lat": 44.2636,
      "lng": -71.2328,
      "snowfall_24hr": 0,
      "snowfall_48hr": 0,
      "snowfall_7day": 5,
      "forecast_text": "A chance of snow showers. Mostly cloudy, with a low around 26. Northwest wind around 10 mph, with gusts as high as 25 mph. Chance of precipitation is 50%. New snow accumulation of less than half an inch possible.",
      "last_updated": "2025-11-14T06:42:48.513Z"
    },
    {
      "name": "Bretton Woods",
      "lat": 44.2633,
      "lng": -71.4439,
      "snowfall_24hr": 0,
      "snowfall_48hr": 0,
      "snowfall_7day": 3,
      "forecast_text": "A chance of snow showers. Mostly cloudy, with a low around 23. Northwest wind around 5 mph. Chance of precipitation is 30%. New snow accumulation of less than one inch possible.",
      "last_updated": "2025-11-14T06:42:54.379Z"
    },
    {
      "name": "Snowbasin",
      "lat": 41.2156,
      "lng": -111.8567,
      "snowfall_24hr": 0,
      "snowfall_48hr": 0,
      "snowfall_7day": 6.5,
      "forecast_text": "A slight chance of rain after 5am. Mostly clear. Low around 44, with temperatures rising to around 46 overnight. South wind around 10 mph. Chance of precipitation is 20%.",
      "last_updated": "2025-11-14T06:42:54.832Z"
    },
    {
      "name": "Powder Mountain",
      "lat": 41.3814,
      "lng": -111.7806,
      "snowfall_24hr": 0,
      "snowfall_48hr": 0,
      "snowfall_7day": 18.5,
      "forecast_text": "A slight chance of rain after 5am. Mostly clear. Low around 40, with temperatures rising to around 42 overnight. South southwest wind around 14 mph. Chance of precipitation is 20%.",
      "last_updated": "2025-11-14T06:42:55.354Z"
    },
    {
      "name": "Solitude",
      "lat": 40.62,
      "lng": -111.5917,
      "snowfall_24hr": 0,
      "snowfall_48hr": 0,
      "snowfall_7day": 23.5,
      "forecast_text": "A slight chance of rain and snow after 5am. Mostly clear. Low around 39, with temperatures rising to around 42 overnight. South southwest wind 10 to 14 mph. Chance of precipitation is 20%.",
      "last_updated": "2025-11-14T06:42:55.863Z"
    },
    {
      "name": "Brighton",
      "lat": 40.5981,
      "lng": -111.5831,
      "snowfall_24hr": 0,
      "snowfall_48hr": 0,
      "snowfall_7day": 27.5,
      "forecast_text": "A slight chance of rain and snow after 5am. Mostly clear. Low around 39, with temperatures rising to around 41 overnight. South southwest wind 9 to 13 mph. Chance of precipitation is 20%.",
      "last_updated": "2025-11-14T06:42:56.189Z"
    },
    {
      "name": "Snowmass",
      "lat": 39.2133,
      "lng": -106.9378,
      "snowfall_24hr": 0,
      "snowfall_48hr": 0,
      "snowfall_7day": 0,
      "forecast_text": "Mostly clear, with a low around 35. South southwest wind around 5 mph.",
      "last_updated": "2025-11-14T06:43:13.533Z"
    },
    {
      "name": "Aspen Highlands",
      "lat": 39.1825,
      "lng": -106.8553,
      "snowfall_24hr": 0,
      "snowfall_48hr": 0,
      "snowfall_7day": 0,
      "forecast_text": "Mostly clear, with a low around 33. South wind around 5 mph.",
      "last_updated": "2025-11-14T06:43:23.633Z"
    },
    {
      "name": "Buttermilk",
      "lat": 39.2078,
      "lng": -106.8608,
      "snowfall_24hr": 0,
      "snowfall_48hr": 0,
      "snowfall_7day": 0,
      "forecast_text": "Mostly clear, with a low around 32. South southeast wind around 5 mph.",
      "last_updated": "2025-11-14T06:43:29.402Z"
    },
    {
      "name": "Beaver Creek",
      "lat": 39.6042,
      "lng": -106.5164,
      "snowfall_24hr": 0,
      "snowfall_48hr": 0,
      "snowfall_7day": 0,
      "forecast_text": "Mostly clear, with a low around 31. South wind around 5 mph.",
      "last_updated": "2025-11-14T06:43:32.063Z"
    },
    {
      "name": "Purgatory",
      "lat": 37.6303,
      "lng": -107.8139,
      "snowfall_24hr": 0,
      "snowfall_48hr": 0,
      "snowfall_7day": 21,
      "forecast_text": "Mostly clear, with a low around 31. North wind around 0 mph.",
      "last_updated": "2025-11-14T06:43:49.754Z"
    },
    {
      "name": "Wolf Creek",
      "lat": 37.4722,
      "lng": -106.7931,
      "snowfall_24hr": 0,
      "snowfall_48hr": 0,
      "snowfall_7day": 43,
      "forecast_text": "Mostly clear, with a low around 31. Southwest wind around 10 mph.",
      "last_updated": "2025-11-14T06:43:52.048Z"
    },
    {
      "name": "Monarch Mountain",
      "lat": 38.5117,
      "lng": -106.3317,
      "snowfall_24hr": 0,
      "snowfall_48hr": 0,
      "snowfall_7day": 8.5,
      "forecast_text": "Clear, with a low around 30. West wind 10 to 15 mph.",
      "last_updated": "2025-11-14T06:43:55.668Z"
    },
    {
      "name": "Eldora",
      "lat": 39.9372,
      "lng": -105.5828,
      "snowfall_24hr": 0,
      "snowfall_48hr": 0,
      "snowfall_7day": 3,
      "forecast_text": "Mostly clear, with a low around 32. West wind around 13 mph, with gusts as high as 21 mph.",
      "last_updated": "2025-11-14T06:43:56.125Z"
    },
    {
      "name": "Grand Targhee",
      "lat": 43.7886,
      "lng": -110.9586,
      "snowfall_24hr": 0,
      "snowfall_48hr": 0,
      "snowfall_7day": 7.5,
      "forecast_text": "Mostly cloudy. Low around 33, with temperatures rising to around 37 overnight. South southwest wind around 18 mph, with gusts as high as 25 mph.",
      "last_updated": "2025-11-14T06:43:58.009Z"
    },
    {
      "name": "Snow King",
      "lat": 43.4783,
      "lng": -110.7628,
      "snowfall_24hr": 0,
      "snowfall_48hr": 0,
      "snowfall_7day": 0,
      "forecast_text": "Partly cloudy, with a low around 34. South wind around 13 mph.",
      "last_updated": "2025-11-14T06:43:59.324Z"
    },
    {
      "name": "Bridger Bowl",
      "lat": 45.8167,
      "lng": -110.8969,
      "snowfall_24hr": 0,
      "snowfall_48hr": 0,
      "snowfall_7day": 0,
      "forecast_text": "A chance of rain after 5am. Partly cloudy, with a low around 43. Southwest wind around 15 mph, with gusts as high as 36 mph. Chance of precipitation is 30%.",
      "last_updated": "2025-11-14T06:44:03.727Z"
    },
    {
      "name": "Big Mountain",
      "lat": 48.4928,
      "lng": -114.3483,
      "snowfall_24hr": 0,
      "snowfall_48hr": 0,
      "snowfall_7day": 0,
      "forecast_text": "Rain before 4am, then rain and snow likely between 4am and 5am, then rain and snow likely. Cloudy, with a low around 33. Southwest wind 9 to 17 mph, with gusts as high as 30 mph. Chance of precipitation is 100%. New rainfall amounts between a quarter and half of an inch possible.",
      "last_updated": "2025-11-14T06:44:04.057Z"
    },
    {
      "name": "Snowbowl",
      "lat": 46.9417,
      "lng": -113.9492,
      "snowfall_24hr": 0,
      "snowfall_48hr": 0,
      "snowfall_7day": 0,
      "forecast_text": "Rain. Cloudy, with a low around 44. Southwest wind 6 to 10 mph, with gusts as high as 21 mph. Chance of precipitation is 90%. New rainfall amounts between a tenth and quarter of an inch possible.",
      "last_updated": "2025-11-14T06:44:04.584Z"
    },
    {
      "name": "Bogus Basin",
      "lat": 43.7725,
      "lng": -116.0939,
      "snowfall_24hr": 0,
      "snowfall_48hr": 0,
      "snowfall_7day": 8,
      "forecast_text": "Rain before 5am, then rain showers likely. Cloudy, with a low around 42. Southwest wind around 9 mph. Chance of precipitation is 80%. New rainfall amounts between a tenth and quarter of an inch possible.",
      "last_updated": "2025-11-14T06:44:09.848Z"
    },
    {
      "name": "Tamarack",
      "lat": 44.6922,
      "lng": -116.1344,
      "snowfall_24hr": 0,
      "snowfall_48hr": 0,
      "snowfall_7day": 6.5,
      "forecast_text": "Rain before 5am, then rain showers. Cloudy, with a low around 39. Southwest wind around 10 mph. Chance of precipitation is 100%. New rainfall amounts between a quarter and half of an inch possible.",
      "last_updated": "2025-11-14T06:44:11.939Z"
    },
    {
      "name": "Silver Mountain",
      "lat": 47.6764,
      "lng": -116.0703,
      "snowfall_24hr": 0,
      "snowfall_48hr": 0,
      "snowfall_7day": 0,
      "forecast_text": "Rain. Cloudy, with a low around 44. Southwest wind around 10 mph, with gusts as high as 24 mph. Chance of precipitation is 100%. New rainfall amounts between a quarter and half of an inch possible.",
      "last_updated": "2025-11-14T06:44:15.266Z"
    },
    {
      "name": "Mt. Hood Meadows",
      "lat": 45.3319,
      "lng": -121.6653,
      "snowfall_24hr": 0,
      "snowfall_48hr": 0,
      "snowfall_7day": 28,
      "forecast_text": "Rain before 1am, then rain and snow likely. Mostly cloudy. Low around 37, with temperatures rising to around 39 overnight. West southwest wind around 8 mph, with gusts as high as 22 mph. Chance of precipitation is 80%. New rainfall amounts less than a tenth of an inch possible.",
      "last_updated": "2025-11-14T06:44:17.506Z"
    },
    {
      "name": "Timberline",
      "lat": 45.3306,
      "lng": -121.7108,
      "snowfall_24hr": 0,
      "snowfall_48hr": 0,
      "snowfall_7day": 33,
      "forecast_text": "Rain and snow. Mostly cloudy. Low around 35, with temperatures rising to around 37 overnight. West wind around 13 mph, with gusts as high as 23 mph. Chance of precipitation is 80%. New snow accumulation of less than half an inch possible.",
      "last_updated": "2025-11-14T06:44:24.335Z"
    },
    {
      "name": "Willamette Pass",
      "lat": 43.6006,
      "lng": -122.0336,
      "snowfall_24hr": 0,
      "snowfall_48hr": 0,
      "snowfall_7day": 19,
      "forecast_text": "Rain likely before 4am, then patchy fog and a slight chance of rain and snow. Mostly cloudy. Low around 35, with temperatures rising to around 37 overnight. Southwest wind around 6 mph. Chance of precipitation is 60%.",
      "last_updated": "2025-11-14T06:44:25.723Z"
    },
    {
      "name": "Mission Ridge",
      "lat": 47.2917,
      "lng": -120.3997,
      "snowfall_24hr": 0,
      "snowfall_48hr": 0,
      "snowfall_7day": 5,
      "forecast_text": "A chance of rain and snow. Mostly cloudy. Low around 36, with temperatures rising to around 38 overnight. West wind around 14 mph, with gusts as high as 21 mph. Chance of precipitation is 30%. New rainfall amounts less than a tenth of an inch possible.",
      "last_updated": "2025-11-14T06:44:32.254Z"
    },
    {
      "name": "Snoqualmie",
      "lat": 47.4219,
      "lng": -121.4136,
      "snowfall_24hr": 0,
      "snowfall_48hr": 0,
      "snowfall_7day": 10,
      "forecast_text": "Rain. Mostly cloudy, with a low around 38. West wind around 3 mph. Chance of precipitation is 80%. New rainfall amounts between a half and three quarters of an inch possible.",
      "last_updated": "2025-11-14T06:44:36.212Z"
    },
    {
      "name": "Mt. Spokane",
      "lat": 47.9208,
      "lng": -117.0856,
      "snowfall_24hr": 0,
      "snowfall_48hr": 0,
      "snowfall_7day": 5,
      "forecast_text": "Rain. Cloudy. Low around 40, with temperatures rising to around 42 overnight. Southwest wind around 15 mph, with gusts as high as 29 mph. Chance of precipitation is 90%. New rainfall amounts between a half and three quarters of an inch possible.",
      "last_updated": "2025-11-14T06:44:44.867Z"
    },
    {
      "name": "White Pass",
      "lat": 46.6394,
      "lng": -121.3908,
      "snowfall_24hr": 0,
      "snowfall_48hr": 0,
      "snowfall_7day": 13.5,
      "forecast_text": "Rain. Cloudy, with a low around 36. West wind around 10 mph, with gusts as high as 25 mph. Chance of precipitation is 80%. New rainfall amounts between a tenth and quarter of an inch possible.",
      "last_updated": "2025-11-14T06:44:55.704Z"
    },
    {
      "name": "49 Degrees North",
      "lat": 48.7511,
      "lng": -117.6369,
      "snowfall_24hr": 0,
      "snowfall_48hr": 0,
      "snowfall_7day": 0,
      "forecast_text": "Rain likely and patchy fog. Cloudy, with a low around 41. Southwest wind 2 to 6 mph. Chance of precipitation is 60%. New rainfall amounts between a tenth and quarter of an inch possible.",
      "last_updated": "2025-11-14T06:44:57.598Z"
    },
    {
      "name": "Red Mountain",
      "lat": 49.0917,
      "lng": -117.8233,
      "snowfall_24hr": 0,
      "snowfall_48hr": 0,
      "snowfall_7day": 0,
      "forecast_text": "Data unavailable",
      "last_updated": "2025-11-14T06:45:01.731Z",
      "error": "Point API failed: 404"
    },
    {
      "name": "Whitewater",
      "lat": 49.5394,
      "lng": -117.2717,
      "snowfall_24hr": 0,
      "snowfall_48hr": 0,
      "snowfall_7day": 0,
      "forecast_text": "Data unavailable",
      "last_updated": "2025-11-14T06:45:14.729Z",
      "error": "Point API failed: 404"
    },
    {
      "name": "Panorama",
      "lat": 50.8036,
      "lng": -116.0533,
      "snowfall_24hr": 0,
      "snowfall_48hr": 0,
      "snowfall_7day": 0,
      "forecast_text": "Data unavailable",
      "last_updated": "2025-11-14T06:45:15.015Z",
      "error": "Point API failed: 404"
    },
    {
      "name": "Marmot Basin",
      "lat": 52.8236,
      "lng": -118.0747,
      "snowfall_24hr": 0,
      "snowfall_48hr": 0,
      "snowfall_7day": 0,
      "forecast_text": "Data unavailable",
      "last_updated": "2025-11-14T06:45:18.549Z",
      "error": "Point API failed: 404"
    },
    {
      "name": "Nakiska",
      "lat": 50.98,
      "lng": -115.0733,
      "snowfall_24hr": 0,
      "snowfall_48hr": 0,
      "snowfall_7day": 0,
      "forecast_text": "Data unavailable",
      "last_updated": "2025-11-14T06:45:20.916Z",
      "error": "Point API failed: 404"
    },
    {
      "name": "Castle Mountain",
      "lat": 49.4058,
      "lng": -114.5169,
      "snowfall_24hr": 0,
      "snowfall_48hr": 0,
      "snowfall_7day": 0,
      "forecast_text": "Data unavailable",
      "last_updated": "2025-11-14T06:45:22.120Z",
      "error": "Point API failed: 404"
    },
    {
      "name": "Norquay",
      "lat": 51.1967,
      "lng": -115.5531,
      "snowfall_24hr": 0,
      "snowfall_48hr": 0,
      "snowfall_7day": 0,
      "forecast_text": "Data unavailable",
      "last_updated": "2025-11-14T06:45:22.484Z",
      "error": "Point API failed: 404"
    },
    {
      "name": "Le Massif",
      "lat": 47.3136,
      "lng": -70.6358,
      "snowfall_24hr": 0,
      "snowfall_48hr": 0,
      "snowfall_7day": 0,
      "forecast_text": "Data unavailable",
      "last_updated": "2025-11-14T06:45:25.265Z",
      "error": "Point API failed: 404"
    },
    {
      "name": "Calabogie",
      "lat": 45.2906,
      "lng": -76.7019,
      "snowfall_24hr": 0,
      "snowfall_48hr": 0,
      "snowfall_7day": 0,
      "forecast_text": "Data unavailable",
      "last_updated": "2025-11-14T06:45:25.619Z",
      "error": "Point API failed: 404"
    },
    {
      "name": "Sierra-at-Tahoe",
      "lat": 38.7986,
      "lng": -120.0828,
      "snowfall_24hr": 0,
      "snowfall_48hr": 0,
      "snowfall_7day": 20,
      "forecast_text": "Rain showers. Cloudy, with a low around 36. Southwest wind 5 to 10 mph, with gusts as high as 25 mph. Chance of precipitation is 100%. New rainfall amounts between 1 and 2 inches possible.",
      "last_updated": "2025-11-14T06:45:36.869Z"
    },
    {
      "name": "Kirkwood",
      "lat": 38.6867,
      "lng": -120.0656,
      "snowfall_24hr": 0,
      "snowfall_48hr": 0,
      "snowfall_7day": 32.5,
      "forecast_text": "Rain showers before 4am, then rain and snow showers. Cloudy. Low around 33, with temperatures rising to around 35 overnight. South southwest wind 8 to 15 mph, with gusts as high as 35 mph. Chance of precipitation is 100%. New snow accumulation of less than one inch possible.",
      "last_updated": "2025-11-14T06:45:42.109Z"
    },
    {
      "name": "Northstar",
      "lat": 39.2733,
      "lng": -120.1211,
      "snowfall_24hr": 0,
      "snowfall_48hr": 0,
      "snowfall_7day": 4,
      "forecast_text": "Rain before 4am, then a chance of rain and snow. Mostly cloudy, with a low around 36. South wind 5 to 10 mph, with gusts as high as 25 mph. Chance of precipitation is 90%. New rainfall amounts between a half and three quarters of an inch possible.",
      "last_updated": "2025-11-14T06:45:43.232Z"
    },
    {
      "name": "Homewood",
      "lat": 39.0833,
      "lng": -120.1667,
      "snowfall_24hr": 0,
      "snowfall_48hr": 0,
      "snowfall_7day": 15,
      "forecast_text": "Rain before 4am, then rain and snow likely. Cloudy, with a low around 36. Southwest wind 5 to 15 mph, with gusts as high as 40 mph. Chance of precipitation is 100%. New rainfall amounts between three quarters and one inch possible.",
      "last_updated": "2025-11-14T06:45:44.006Z"
    },
    {
      "name": "Mt. Rose",
      "lat": 39.3397,
      "lng": -119.8894,
      "snowfall_24hr": 0,
      "snowfall_48hr": 0,
      "snowfall_7day": 13,
      "forecast_text": "Rain and snow. Mostly cloudy, with a low around 33. Southwest wind 10 to 15 mph, with gusts as high as 35 mph. Chance of precipitation is 90%. New snow accumulation of less than half an inch possible.",
      "last_updated": "2025-11-14T06:46:01.273Z"
    },
    {
      "name": "Diamond Peak",
      "lat": 39.2525,
      "lng": -119.9169,
      "snowfall_24hr": 0,
      "snowfall_48hr": 0,
      "snowfall_7day": 11,
      "forecast_text": "Rain before 1am, then rain and snow likely. Mostly cloudy, with a low around 36. Southwest wind around 5 mph, with gusts as high as 20 mph. Chance of precipitation is 90%. New rainfall amounts between a half and three quarters of an inch possible.",
      "last_updated": "2025-11-14T06:46:29.107Z"
    },
    {
      "name": "June Mountain",
      "lat": 37.7853,
      "lng": -119.0781,
      "snowfall_24hr": 0,
      "snowfall_48hr": 0,
      "snowfall_7day": 11.5,
      "forecast_text": "Rain and snow. Mostly cloudy, with a low around 37. South wind 10 to 15 mph, with gusts as high as 40 mph. Chance of precipitation is 90%. New rainfall amounts between 1 and 2 inches possible.",
      "last_updated": "2025-11-14T06:46:30.387Z"
    },
    {
      "name": "Bear Mountain",
      "lat": 34.235,
      "lng": -116.865,
      "snowfall_24hr": 0,
      "snowfall_48hr": 0,
      "snowfall_7day": 1.5,
      "forecast_text": "Rain showers likely. Mostly cloudy, with a low around 34. Southwest wind around 10 mph, with gusts as high as 20 mph. Chance of precipitation is 60%. New rainfall amounts between a tenth and quarter of an inch possible.",
      "last_updated": "2025-11-14T06:46:31.473Z"
    },
    {
      "name": "Snow Summit",
      "lat": 34.2306,
      "lng": -116.8886,
      "snowfall_24hr": 0,
      "snowfall_48hr": 0,
      "snowfall_7day": 1.5,
      "forecast_text": "Rain showers likely. Cloudy, with a low around 37. Southwest wind 5 to 10 mph. Chance of precipitation is 60%. New rainfall amounts between a tenth and quarter of an inch possible.",
      "last_updated": "2025-11-14T06:46:32.563Z"
    },
    {
      "name": "Mountain High",
      "lat": 34.3811,
      "lng": -117.6881,
      "snowfall_24hr": 0,
      "snowfall_48hr": 0,
      "snowfall_7day": 0,
      "forecast_text": "Rain showers likely. Mostly cloudy, with a low around 43. South wind 15 to 20 mph, with gusts as high as 30 mph. Chance of precipitation is 70%. New rainfall amounts between a quarter and half of an inch possible.",
      "last_updated": "2025-11-14T06:46:34.994Z"
    },
    {
      "name": "Ski Santa Fe",
      "lat": 35.7869,
      "lng": -105.7961,
      "snowfall_24hr": 0,
      "snowfall_48hr": 0,
      "snowfall_7day": 6.5,
      "forecast_text": "Partly cloudy, with a low around 33. Northwest wind around 10 mph.",
      "last_updated": "2025-11-14T06:46:36.772Z"
    },
    {
      "name": "Angel Fire",
      "lat": 36.3975,
      "lng": -105.2886,
      "snowfall_24hr": 0,
      "snowfall_48hr": 0,
      "snowfall_7day": 0,
      "forecast_text": "Partly cloudy, with a low around 33. West wind around 5 mph.",
      "last_updated": "2025-11-14T06:46:42.238Z"
    },
    {
      "name": "Whiteface Mountain",
      "lat": 44.3659,
      "lng": -73.9024,
      "snowfall_24hr": 0,
      "snowfall_48hr": 0,
      "snowfall_7day": 1.5,
      "forecast_text": "A slight chance of snow showers before 2am. Mostly cloudy, with a low around 20. Northwest wind 21 to 24 mph. Chance of precipitation is 20%.",
      "last_updated": "2025-11-14T06:46:59.771Z"
    }
  ]
}