{
  "generated_at": "2025-11-14T01:26:47.889Z",
  "total_resorts": 100,
  "resorts": [
    {
      "name": "Whistler Blackcomb",
      "lat": 50.1163,
      "lng": -122.9574,
      "snowfall_24hr": 0,
      "snowfall_48hr": 0,
      "snowfall_7day": 0,
      "forecast_text": "Data unavailable",
      "last_updated": "2025-11-14T01:21:03.724Z",
      "error": "Point API failed: 404"
    },
    {
      "name": "Vail",
      "lat": 39.6403,
      "lng": -106.3742,
      "snowfall_24hr": 0,
      "snowfall_48hr": 0,
      "snowfall_7day": 0,
      "forecast_text": "Mostly clear, with a low around 31. Southeast wind around 5 mph.",
      "last_updated": "2025-11-14T01:21:04.772Z"
    },
    {
      "name": "Park City",
      "lat": 40.6514,
      "lng": -111.5079,
      "snowfall_24hr": 0,
      "snowfall_48hr": 0,
      "snowfall_7day": 5,
      "forecast_text": "Mostly clear. Low around 42, with temperatures rising to around 44 overnight. South wind 9 to 13 mph.",
      "last_updated": "2025-11-14T01:21:06.111Z"
    },
    {
      "name": "Breckenridge",
      "lat": 39.4817,
      "lng": -106.0384,
      "snowfall_24hr": 0,
      "snowfall_48hr": 0,
      "snowfall_7day": 1.5,
      "forecast_text": "Mostly clear, with a low around 28. Southwest wind around 7 mph.",
      "last_updated": "2025-11-14T01:21:07.309Z"
    },
    {
      "name": "Heavenly",
      "lat": 38.935,
      "lng": -119.9403,
      "snowfall_24hr": 0,
      "snowfall_48hr": 0,
      "snowfall_7day": 2,
      "forecast_text": "Rain. Cloudy, with a high near 50. South wind around 15 mph, with gusts as high as 25 mph. Chance of precipitation is 80%. New rainfall amounts between a quarter and half of an inch possible.",
      "last_updated": "2025-11-14T01:21:08.555Z"
    },
    {
      "name": "Aspen Snowmass",
      "lat": 39.1911,
      "lng": -106.8175,
      "snowfall_24hr": 0,
      "snowfall_48hr": 0,
      "snowfall_7day": 0,
      "forecast_text": "Mostly clear, with a low around 35. South southeast wind around 5 mph.",
      "last_updated": "2025-11-14T01:21:19.146Z"
    },
    {
      "name": "Jackson Hole",
      "lat": 43.5875,
      "lng": -110.8278,
      "snowfall_24hr": 0,
      "snowfall_48hr": 0,
      "snowfall_7day": 0,
      "forecast_text": "Isolated rain showers after 5am. Partly cloudy, with a low around 36. Southwest wind 9 to 14 mph, with gusts as high as 24 mph. Chance of precipitation is 20%.",
      "last_updated": "2025-11-14T01:21:28.842Z"
    },
    {
      "name": "Banff Sunshine",
      "lat": 51.1158,
      "lng": -115.7631,
      "snowfall_24hr": 0,
      "snowfall_48hr": 0,
      "snowfall_7day": 0,
      "forecast_text": "Data unavailable",
      "last_updated": "2025-11-14T01:21:29.669Z",
      "error": "Point API failed: 404"
    },
    {
      "name": "Lake Louise",
      "lat": 51.4254,
      "lng": -116.1773,
      "snowfall_24hr": 0,
      "snowfall_48hr": 0,
      "snowfall_7day": 0,
      "forecast_text": "Data unavailable",
      "last_updated": "2025-11-14T01:21:30.260Z",
      "error": "Point API failed: 404"
    },
    {
      "name": "Big Sky",
      "lat": 45.2846,
      "lng": -111.4008,
      "snowfall_24hr": 0,
      "snowfall_48hr": 0,
      "snowfall_7day": 1.5,
      "forecast_text": "A chance of rain after 3am. Partly cloudy. Low around 37, with temperatures rising to around 40 overnight. South wind around 17 mph, with gusts as high as 41 mph. Chance of precipitation is 30%. New rainfall amounts between a tenth and quarter of an inch possible.",
      "last_updated": "2025-11-14T01:21:32.130Z"
    },
    {
      "name": "Steamboat",
      "lat": 40.458,
      "lng": -106.8047,
      "snowfall_24hr": 0,
      "snowfall_48hr": 0,
      "snowfall_7day": 0,
      "forecast_text": "Mostly clear, with a low around 34. Southeast wind 0 to 5 mph.",
      "last_updated": "2025-11-14T01:21:36.861Z"
    },
    {
      "name": "Mammoth Mountain",
      "lat": 37.6308,
      "lng": -119.0326,
      "snowfall_24hr": 4,
      "snowfall_48hr": 7,
      "snowfall_7day": 32,
      "forecast_text": "Rain and snow. Cloudy. High near 39, with temperatures falling to around 34 in the afternoon. Wind chill values as low as 20. South southwest wind around 35 mph, with gusts as high as 55 mph. Chance of precipitation is 90%. New snow accumulation of less than half an inch possible.",
      "last_updated": "2025-11-14T01:21:40.130Z"
    },
    {
      "name": "Squaw Valley",
      "lat": 39.197,
      "lng": -120.2356,
      "snowfall_24hr": 0,
      "snowfall_48hr": 0,
      "snowfall_7day": 9.5,
      "forecast_text": "Rain. Cloudy, with a high near 51. South wind around 15 mph, with gusts as high as 25 mph. Chance of precipitation is 100%. New rainfall amounts between a half and three quarters of an inch possible.",
      "last_updated": "2025-11-14T01:21:46.495Z"
    },
    {
      "name": "Telluride",
      "lat": 37.9375,
      "lng": -107.8123,
      "snowfall_24hr": 0,
      "snowfall_48hr": 0,
      "snowfall_7day": 12,
      "forecast_text": "Mostly clear, with a low around 28. East southeast wind around 5 mph.",
      "last_updated": "2025-11-14T01:21:48.039Z"
    },
    {
      "name": "Sun Valley",
      "lat": 43.6966,
      "lng": -114.3553,
      "snowfall_24hr": 0,
      "snowfall_48hr": 0,
      "snowfall_7day": 1.5,
      "forecast_text": "Rain showers likely. Mostly cloudy. Low around 35, with temperatures rising to around 37 overnight. East southeast wind around 6 mph. Chance of precipitation is 70%.",
      "last_updated": "2025-11-14T01:21:50.081Z"
    },
    {
      "name": "Deer Valley",
      "lat": 40.6374,
      "lng": -111.4783,
      "snowfall_24hr": 0,
      "snowfall_48hr": 0,
      "snowfall_7day": 6,
      "forecast_text": "Mostly clear. Low around 39, with temperatures rising to around 41 overnight. South wind 9 to 13 mph.",
      "last_updated": "2025-11-14T01:21:56.485Z"
    },
    {
      "name": "Killington",
      "lat": 43.6046,
      "lng": -72.822,
      "snowfall_24hr": 0,
      "snowfall_48hr": 0,
      "snowfall_7day": 0,
      "forecast_text": "A chance of snow showers before midnight. Mostly cloudy, with a low around 22. Northwest wind 21 to 31 mph. Chance of precipitation is 30%.",
      "last_updated": "2025-11-14T01:22:00.586Z"
    },
    {
      "name": "Stowe",
      "lat": 44.5303,
      "lng": -72.7817,
      "snowfall_24hr": 9,
      "snowfall_48hr": 12,
      "snowfall_7day": 13.5,
      "forecast_text": "Snow showers likely. Mostly cloudy, with a low around 23. Northwest wind around 14 mph. Chance of precipitation is 70%. New snow accumulation of 3 to 5 inches possible.",
      "last_updated": "2025-11-14T01:22:04.620Z"
    },
    {
      "name": "Alta",
      "lat": 40.5885,
      "lng": -111.6376,
      "snowfall_24hr": 0,
      "snowfall_48hr": 0,
      "snowfall_7day": 37.5,
      "forecast_text": "A slight chance of snow after 5am. Mostly clear, with a low around 39. South southwest wind 10 to 16 mph. Chance of precipitation is 20%.",
      "last_updated": "2025-11-14T01:22:06.403Z"
    },
    {
      "name": "Snowbird",
      "lat": 40.5803,
      "lng": -111.6573,
      "snowfall_24hr": 0,
      "snowfall_48hr": 0,
      "snowfall_7day": 30,
      "forecast_text": "A slight chance of snow after 5am. Mostly clear, with a low around 39. South southwest wind 9 to 13 mph. Chance of precipitation is 20%.",
      "last_updated": "2025-11-14T01:22:08.838Z"
    },
    {
      "name": "Taos",
      "lat": 36.5924,
      "lng": -105.4467,
      "snowfall_24hr": 0,
      "snowfall_48hr": 0,
      "snowfall_7day": 3.5,
      "forecast_text": "Partly cloudy, with a low around 32. Southwest wind 5 to 10 mph.",
      "last_updated": "2025-11-14T01:22:11.076Z"
    },
    {
      "name": "Copper Mountain",
      "lat": 39.5022,
      "lng": -106.1506,
      "snowfall_24hr": 0,
      "snowfall_48hr": 0,
      "snowfall_7day": 2,
      "forecast_text": "Mostly clear. Low around 25, with temperatures rising to around 27 overnight. West southwest wind around 9 mph.",
      "last_updated": "2025-11-14T01:22:12.273Z"
    },
    {
      "name": "Winter Park",
      "lat": 39.8868,
      "lng": -105.7625,
      "snowfall_24hr": 0,
      "snowfall_48hr": 0,
      "snowfall_7day": 3,
      "forecast_text": "Mostly clear, with a low around 30. West wind around 10 mph, with gusts as high as 16 mph.",
      "last_updated": "2025-11-14T01:22:14.841Z"
    },
    {
      "name": "Keystone",
      "lat": 39.605,
      "lng": -105.9347,
      "snowfall_24hr": 0,
      "snowfall_48hr": 0,
      "snowfall_7day": 3,
      "forecast_text": "Mostly clear, with a low around 28. West southwest wind around 7 mph.",
      "last_updated": "2025-11-14T01:22:15.910Z"
    },
    {
      "name": "Arapahoe Basin",
      "lat": 39.6426,
      "lng": -105.8717,
      "snowfall_24hr": 0,
      "snowfall_48hr": 0,
      "snowfall_7day": 9,
      "forecast_text": "Mostly clear, with a low around 29. West wind 12 to 15 mph, with gusts as high as 24 mph.",
      "last_updated": "2025-11-14T01:22:22.506Z"
    },
    {
      "name": "Crested Butte",
      "lat": 38.8997,
      "lng": -106.9653,
      "snowfall_24hr": 0,
      "snowfall_48hr": 0,
      "snowfall_7day": 3.5,
      "forecast_text": "Mostly clear, with a low around 29. Northwest wind around 0 mph.",
      "last_updated": "2025-11-14T01:22:26.126Z"
    },
    {
      "name": "Loveland",
      "lat": 39.6803,
      "lng": -105.8978,
      "snowfall_24hr": 0,
      "snowfall_48hr": 0,
      "snowfall_7day": 10.5,
      "forecast_text": "Mostly clear, with a low around 27. West wind 12 to 15 mph, with gusts as high as 24 mph.",
      "last_updated": "2025-11-14T01:22:29.184Z"
    },
    {
      "name": "Mt. Bachelor",
      "lat": 43.979,
      "lng": -121.688,
      "snowfall_24hr": 0,
      "snowfall_48hr": 0,
      "snowfall_7day": 17,
      "forecast_text": "Rain. Cloudy. High near 46, with temperatures falling to around 40 in the afternoon. Southwest wind around 12 mph, with gusts as high as 21 mph. Chance of precipitation is 80%. New rainfall amounts less than a tenth of an inch possible.",
      "last_updated": "2025-11-14T01:22:32.666Z"
    },
    {
      "name": "Crystal Mountain",
      "lat": 46.9358,
      "lng": -121.4742,
      "snowfall_24hr": 0,
      "snowfall_48hr": 0,
      "snowfall_7day": 12.5,
      "forecast_text": "Rain. Mostly cloudy. High near 44, with temperatures falling to around 41 in the afternoon. Southwest wind around 8 mph. Chance of precipitation is 80%. New rainfall amounts less than a tenth of an inch possible.",
      "last_updated": "2025-11-14T01:22:40.260Z"
    },
    {
      "name": "Stevens Pass",
      "lat": 47.7453,
      "lng": -121.0892,
      "snowfall_24hr": 0,
      "snowfall_48hr": 0,
      "snowfall_7day": 7.5,
      "forecast_text": "Rain. Cloudy, with a high near 44. West southwest wind around 6 mph. Chance of precipitation is 90%. New rainfall amounts between a quarter and half of an inch possible.",
      "last_updated": "2025-11-14T01:22:52.330Z"
    },
    {
      "name": "Mt. Baker",
      "lat": 48.8597,
      "lng": -121.6686,
      "snowfall_24hr": 0,
      "snowfall_48hr": 1.5,
      "snowfall_7day": 15,
      "forecast_text": "Rain and snow likely. Cloudy. High near 44, with temperatures falling to around 39 in the afternoon. West southwest wind around 10 mph. Chance of precipitation is 70%. New rainfall amounts between a quarter and half of an inch possible.",
      "last_updated": "2025-11-14T01:22:55.303Z"
    },
    {
      "name": "Schweitzer",
      "lat": 48.3642,
      "lng": -116.6228,
      "snowfall_24hr": 0,
      "snowfall_48hr": 0,
      "snowfall_7day": 3.5,
      "forecast_text": "Rain. Cloudy. High near 44, with temperatures falling to around 42 in the afternoon. Southwest wind around 14 mph, with gusts as high as 24 mph. Chance of precipitation is 80%. New rainfall amounts between a half and three quarters of an inch possible.",
      "last_updated": "2025-11-14T01:22:56.909Z"
    },
    {
      "name": "Sun Peaks",
      "lat": 50.8817,
      "lng": -119.8847,
      "snowfall_24hr": 0,
      "snowfall_48hr": 0,
      "snowfall_7day": 0,
      "forecast_text": "Data unavailable",
      "last_updated": "2025-11-14T01:22:57.219Z",
      "error": "Point API failed: 404"
    },
    {
      "name": "Revelstoke",
      "lat": 50.9981,
      "lng": -118.1956,
      "snowfall_24hr": 0,
      "snowfall_48hr": 0,
      "snowfall_7day": 0,
      "forecast_text": "Data unavailable",
      "last_updated": "2025-11-14T01:22:58.883Z",
      "error": "Point API failed: 404"
    },
    {
      "name": "Fernie",
      "lat": 49.4653,
      "lng": -115.0636,
      "snowfall_24hr": 0,
      "snowfall_48hr": 0,
      "snowfall_7day": 0,
      "forecast_text": "Data unavailable",
      "last_updated": "2025-11-14T01:22:59.327Z",
      "error": "Point API failed: 404"
    },
    {
      "name": "Big White",
      "lat": 49.7311,
      "lng": -118.935,
      "snowfall_24hr": 0,
      "snowfall_48hr": 0,
      "snowfall_7day": 0,
      "forecast_text": "Data unavailable",
      "last_updated": "2025-11-14T01:22:59.614Z",
      "error": "Point API failed: 404"
    },
    {
      "name": "Kicking Horse",
      "lat": 51.2514,
      "lng": -117.0492,
      "snowfall_24hr": 0,
      "snowfall_48hr": 0,
      "snowfall_7day": 0,
      "forecast_text": "Data unavailable",
      "last_updated": "2025-11-14T01:22:59.982Z",
      "error": "Point API failed: 404"
    },
    {
      "name": "Mont Tremblant",
      "lat": 46.2094,
      "lng": -74.5847,
      "snowfall_24hr": 0,
      "snowfall_48hr": 0,
      "snowfall_7day": 0,
      "forecast_text": "Data unavailable",
      "last_updated": "2025-11-14T01:23:00.365Z",
      "error": "Point API failed: 404"
    },
    {
      "name": "Blue Mountain",
      "lat": 44.5075,
      "lng": -80.3231,
      "snowfall_24hr": 0,
      "snowfall_48hr": 0,
      "snowfall_7day": 0,
      "forecast_text": "Data unavailable",
      "last_updated": "2025-11-14T01:23:04.757Z",
      "error": "Point API failed: 404"
    },
    {
      "name": "Sugarloaf",
      "lat": 45.0314,
      "lng": -70.3139,
      "snowfall_24hr": 0,
      "snowfall_48hr": 0,
      "snowfall_7day": 5,
      "forecast_text": "Mostly cloudy, with a low around 26. Northwest wind around 10 mph, with gusts as high as 25 mph.",
      "last_updated": "2025-11-14T01:23:07.094Z"
    },
    {
      "name": "Sunday River",
      "lat": 44.4697,
      "lng": -70.8561,
      "snowfall_24hr": 0,
      "snowfall_48hr": 0,
      "snowfall_7day": 3,
      "forecast_text": "A slight chance of snow showers between 2am and 4am. Mostly cloudy, with a low around 29. Northwest wind around 5 mph. Chance of precipitation is 20%.",
      "last_updated": "2025-11-14T01:23:09.529Z"
    },
    {
      "name": "Sugarbush",
      "lat": 44.135,
      "lng": -72.9017,
      "snowfall_24hr": 1.5,
      "snowfall_48hr": 1.5,
      "snowfall_7day": 1.5,
      "forecast_text": "Snow showers likely. Mostly cloudy, with a low around 24. Northwest wind 17 to 25 mph. Chance of precipitation is 60%. New snow accumulation of 1 to 2 inches possible.",
      "last_updated": "2025-11-14T01:23:11.424Z"
    },
    {
      "name": "Stratton",
      "lat": 43.1133,
      "lng": -72.9083,
      "snowfall_24hr": 0,
      "snowfall_48hr": 0,
      "snowfall_7day": 0,
      "forecast_text": "A chance of snow showers before 11pm. Mostly cloudy, with a low around 24. Northwest wind around 9 mph, with gusts as high as 21 mph. Chance of precipitation is 30%.",
      "last_updated": "2025-11-14T01:23:12.112Z"
    },
    {
      "name": "Okemo",
      "lat": 43.4017,
      "lng": -72.7167,
      "snowfall_24hr": 0,
      "snowfall_48hr": 0,
      "snowfall_7day": 0,
      "forecast_text": "A slight chance of snow showers before 10pm. Mostly cloudy, with a low around 25. Northwest wind around 6 mph. Chance of precipitation is 20%.",
      "last_updated": "2025-11-14T01:23:13.686Z"
    },
    {
      "name": "Jay Peak",
      "lat": 44.9378,
      "lng": -72.5036,
      "snowfall_24hr": 4.5,
      "snowfall_48hr": 4.5,
      "snowfall_7day": 6,
      "forecast_text": "Snow showers likely. Cloudy, with a low around 23. Northwest wind 14 to 17 mph. Chance of precipitation is 70%. New snow accumulation of 2 to 4 inches possible.",
      "last_updated": "2025-11-14T01:23:36.933Z"
    },
    {
      "name": "Smugglers' Notch",
      "lat": 44.5458,
      "lng": -72.7872,
      "snowfall_24hr": 9,
      "snowfall_48hr": 12,
      "snowfall_7day": 14,
      "forecast_text": "Snow showers likely. Cloudy, with a low around 22. Northwest wind around 15 mph. Chance of precipitation is 70%. New snow accumulation of 3 to 5 inches possible.",
      "last_updated": "2025-11-14T01:23:38.758Z"
    },
    {
      "name": "Loon Mountain",
      "lat": 44.0369,
      "lng": -71.6206,
      "snowfall_24hr": 0,
      "snowfall_48hr": 0,
      "snowfall_7day": 4,
      "forecast_text": "Snow showers likely before 2am. Mostly cloudy, with a low around 25. Northwest wind around 10 mph, with gusts as high as 25 mph. Chance of precipitation is 60%. New snow accumulation of less than half an inch possible.",
      "last_updated": "2025-11-14T01:23:41.241Z"
    },
    {
      "name": "Cannon Mountain",
      "lat": 44.1572,
      "lng": -71.6978,
      "snowfall_24hr": 0,
      "snowfall_48hr": 0,
      "snowfall_7day": 4,
      "forecast_text": "Snow showers likely before 2am. Cloudy, with a low around 21. Northwest wind 15 to 20 mph, with gusts as high as 35 mph. Chance of precipitation is 60%. New snow accumulation of around one inch possible.",
      "last_updated": "2025-11-14T01:23:46.781Z"
    },
    {
      "name": "Wildcat Mountain",
      "lat": 44.2636,
      "lng": -71.2328,
      "snowfall_24hr": 0,
      "snowfall_48hr": 0,
      "snowfall_7day": 4,
      "forecast_text": "A chance of snow showers before 3am. Mostly cloudy, with a low around 26. Northwest wind around 5 mph, with gusts as high as 25 mph. Chance of precipitation is 40%. New snow accumulation of less than half an inch possible.",
      "last_updated": "2025-11-14T01:23:50.820Z"
    },
    {
      "name": "Bretton Woods",
      "lat": 44.2633,
      "lng": -71.4439,
      "snowfall_24hr": 0,
      "snowfall_48hr": 0,
      "snowfall_7day": 3.5,
      "forecast_text": "Snow showers likely before 3am. Cloudy, with a low around 24. Northwest wind around 5 mph. Chance of precipitation is 60%. New snow accumulation of less than one inch possible.",
      "last_updated": "2025-11-14T01:23:52.472Z"
    },
    {
      "name": "Snowbasin",
      "lat": 41.2156,
      "lng": -111.8567,
      "snowfall_24hr": 0,
      "snowfall_48hr": 0,
      "snowfall_7day": 6.5,
      "forecast_text": "A slight chance of rain after 5am. Mostly clear. Low around 44, with temperatures rising to around 46 overnight. South wind around 10 mph. Chance of precipitation is 20%.",
      "last_updated": "2025-11-14T01:23:55.094Z"
    },
    {
      "name": "Powder Mountain",
      "lat": 41.3814,
      "lng": -111.7806,
      "snowfall_24hr": 0,
      "snowfall_48hr": 0,
      "snowfall_7day": 18.5,
      "forecast_text": "A slight chance of rain after 5am. Mostly clear. Low around 40, with temperatures rising to around 42 overnight. South southwest wind around 14 mph. Chance of precipitation is 20%.",
      "last_updated": "2025-11-14T01:23:56.473Z"
    },
    {
      "name": "Solitude",
      "lat": 40.62,
      "lng": -111.5917,
      "snowfall_24hr": 0,
      "snowfall_48hr": 0,
      "snowfall_7day": 23.5,
      "forecast_text": "A slight chance of rain and snow after 5am. Mostly clear. Low around 39, with temperatures rising to around 42 overnight. South southwest wind 10 to 14 mph. Chance of precipitation is 20%.",
      "last_updated": "2025-11-14T01:23:57.030Z"
    },
    {
      "name": "Brighton",
      "lat": 40.5981,
      "lng": -111.5831,
      "snowfall_24hr": 0,
      "snowfall_48hr": 0,
      "snowfall_7day": 27.5,
      "forecast_text": "A slight chance of rain and snow after 5am. Mostly clear. Low around 39, with temperatures rising to around 41 overnight. South southwest wind 9 to 13 mph. Chance of precipitation is 20%.",
      "last_updated": "2025-11-14T01:23:57.572Z"
    },
    {
      "name": "Snowmass",
      "lat": 39.2133,
      "lng": -106.9378,
      "snowfall_24hr": 0,
      "snowfall_48hr": 0,
      "snowfall_7day": 0,
      "forecast_text": "Mostly clear, with a low around 35. South southwest wind around 5 mph.",
      "last_updated": "2025-11-14T01:23:58.946Z"
    },
    {
      "name": "Aspen Highlands",
      "lat": 39.1825,
      "lng": -106.8553,
      "snowfall_24hr": 0,
      "snowfall_48hr": 0,
      "snowfall_7day": 0,
      "forecast_text": "Mostly clear, with a low around 33. South wind around 5 mph.",
      "last_updated": "2025-11-14T01:24:04.612Z"
    },
    {
      "name": "Buttermilk",
      "lat": 39.2078,
      "lng": -106.8608,
      "snowfall_24hr": 0,
      "snowfall_48hr": 0,
      "snowfall_7day": 0,
      "forecast_text": "Mostly clear, with a low around 32. South wind around 5 mph.",
      "last_updated": "2025-11-14T01:24:06.017Z"
    },
    {
      "name": "Beaver Creek",
      "lat": 39.6042,
      "lng": -106.5164,
      "snowfall_24hr": 0,
      "snowfall_48hr": 0,
      "snowfall_7day": 0,
      "forecast_text": "Mostly clear, with a low around 31. South wind 5 to 10 mph.",
      "last_updated": "2025-11-14T01:24:07.035Z"
    },
    {
      "name": "Purgatory",
      "lat": 37.6303,
      "lng": -107.8139,
      "snowfall_24hr": 0,
      "snowfall_48hr": 0,
      "snowfall_7day": 21,
      "forecast_text": "Mostly clear, with a low around 31. North northwest wind 0 to 5 mph.",
      "last_updated": "2025-11-14T01:24:15.741Z"
    },
    {
      "name": "Wolf Creek",
      "lat": 37.4722,
      "lng": -106.7931,
      "snowfall_24hr": 0,
      "snowfall_48hr": 0,
      "snowfall_7day": 43,
      "forecast_text": "Mostly clear, with a low around 31. Southwest wind around 10 mph.",
      "last_updated": "2025-11-14T01:24:17.424Z"
    },
    {
      "name": "Monarch Mountain",
      "lat": 38.5117,
      "lng": -106.3317,
      "snowfall_24hr": 0,
      "snowfall_48hr": 0,
      "snowfall_7day": 8.5,
      "forecast_text": "Clear, with a low around 30. West wind 10 to 15 mph.",
      "last_updated": "2025-11-14T01:24:19.722Z"
    },
    {
      "name": "Eldora",
      "lat": 39.9372,
      "lng": -105.5828,
      "snowfall_24hr": 0,
      "snowfall_48hr": 0,
      "snowfall_7day": 3,
      "forecast_text": "Mostly clear, with a low around 32. West wind around 13 mph, with gusts as high as 21 mph.",
      "last_updated": "2025-11-14T01:24:24.509Z"
    },
    {
      "name": "Grand Targhee",
      "lat": 43.7886,
      "lng": -110.9586,
      "snowfall_24hr": 0,
      "snowfall_48hr": 0,
      "snowfall_7day": 7.5,
      "forecast_text": "Scattered rain and snow showers after 5am. Partly cloudy. Low around 33, with temperatures rising to around 37 overnight. South southwest wind 14 to 21 mph, with gusts as high as 31 mph. Chance of precipitation is 30%.",
      "last_updated": "2025-11-14T01:24:28.315Z"
    },
    {
      "name": "Snow King",
      "lat": 43.4783,
      "lng": -110.7628,
      "snowfall_24hr": 0,
      "snowfall_48hr": 0,
      "snowfall_7day": 0,
      "forecast_text": "Isolated rain showers after 5am. Partly cloudy, with a low around 34. South wind 9 to 15 mph, with gusts as high as 26 mph. Chance of precipitation is 20%.",
      "last_updated": "2025-11-14T01:24:38.149Z"
    },
    {
      "name": "Bridger Bowl",
      "lat": 45.8167,
      "lng": -110.8969,
      "snowfall_24hr": 0,
      "snowfall_48hr": 0,
      "snowfall_7day": 0,
      "forecast_text": "A chance of rain after 5am. Partly cloudy. Low around 43, with temperatures rising to around 46 overnight. Southwest wind around 14 mph, with gusts as high as 38 mph. Chance of precipitation is 30%.",
      "last_updated": "2025-11-14T01:24:45.674Z"
    },
    {
      "name": "Big Mountain",
      "lat": 48.4928,
      "lng": -114.3483,
      "snowfall_24hr": 0,
      "snowfall_48hr": 0,
      "snowfall_7day": 0,
      "forecast_text": "Rain before 4am, then rain and snow likely between 4am and 5am, then rain and snow likely. Cloudy, with a low around 33. Southwest wind 9 to 17 mph, with gusts as high as 30 mph. Chance of precipitation is 100%. New rainfall amounts between a quarter and half of an inch possible.",
      "last_updated": "2025-11-14T01:24:49.079Z"
    },
    {
      "name": "Snowbowl",
      "lat": 46.9417,
      "lng": -113.9492,
      "snowfall_24hr": 0,
      "snowfall_48hr": 0,
      "snowfall_7day": 0,
      "forecast_text": "Rain. Cloudy, with a low around 44. Southwest wind 6 to 10 mph, with gusts as high as 21 mph. Chance of precipitation is 90%. New rainfall amounts between a tenth and quarter of an inch possible.",
      "last_updated": "2025-11-14T01:24:53.191Z"
    },
    {
      "name": "Bogus Basin",
      "lat": 43.7725,
      "lng": -116.0939,
      "snowfall_24hr": 0,
      "snowfall_48hr": 0,
      "snowfall_7day": 8,
      "forecast_text": "Rain. Cloudy, with a low around 42. South wind 7 to 12 mph. Chance of precipitation is 80%. New rainfall amounts between a tenth and quarter of an inch possible.",
      "last_updated": "2025-11-14T01:24:57.295Z"
    },
    {
      "name": "Tamarack",
      "lat": 44.6922,
      "lng": -116.1344,
      "snowfall_24hr": 0,
      "snowfall_48hr": 0,
      "snowfall_7day": 6.5,
      "forecast_text": "Rain. Cloudy, with a low around 39. Southwest wind around 10 mph. Chance of precipitation is 100%. New rainfall amounts between a half and three quarters of an inch possible.",
      "last_updated": "2025-11-14T01:24:58.128Z"
    },
    {
      "name": "Silver Mountain",
      "lat": 47.6764,
      "lng": -116.0703,
      "snowfall_24hr": 0,
      "snowfall_48hr": 0,
      "snowfall_7day": 0,
      "forecast_text": "Rain likely. Cloudy. High near 57, with temperatures falling to around 52 in the afternoon. Southwest wind around 8 mph, with gusts as high as 24 mph. Chance of precipitation is 70%. New rainfall amounts between a quarter and half of an inch possible.",
      "last_updated": "2025-11-14T01:24:59.508Z"
    },
    {
      "name": "Mt. Hood Meadows",
      "lat": 45.3319,
      "lng": -121.6653,
      "snowfall_24hr": 0,
      "snowfall_48hr": 0,
      "snowfall_7day": 23,
      "forecast_text": "Rain. Mostly cloudy. High near 49, with temperatures falling to around 44 in the afternoon. West wind around 3 mph. Chance of precipitation is 80%. New rainfall amounts between a tenth and quarter of an inch possible.",
      "last_updated": "2025-11-14T01:25:00.821Z"
    },
    {
      "name": "Timberline",
      "lat": 45.3306,
      "lng": -121.7108,
      "snowfall_24hr": 0,
      "snowfall_48hr": 0,
      "snowfall_7day": 28,
      "forecast_text": "Rain. Mostly cloudy. High near 45, with temperatures falling to around 41 in the afternoon. West wind around 6 mph. Chance of precipitation is 80%. New rainfall amounts between a tenth and quarter of an inch possible.",
      "last_updated": "2025-11-14T01:25:01.266Z"
    },
    {
      "name": "Willamette Pass",
      "lat": 43.6006,
      "lng": -122.0336,
      "snowfall_24hr": 0,
      "snowfall_48hr": 0,
      "snowfall_7day": 16,
      "forecast_text": "Rain likely. Cloudy. High near 51, with temperatures falling to around 44 in the afternoon. South wind around 6 mph. Chance of precipitation is 60%. New rainfall amounts less than a tenth of an inch possible.",
      "last_updated": "2025-11-14T01:25:13.752Z"
    },
    {
      "name": "Mission Ridge",
      "lat": 47.2917,
      "lng": -120.3997,
      "snowfall_24hr": 0,
      "snowfall_48hr": 0,
      "snowfall_7day": 5,
      "forecast_text": "Rain likely. Mostly cloudy, with a high near 42. Southwest wind around 9 mph. Chance of precipitation is 60%. New rainfall amounts less than a tenth of an inch possible.",
      "last_updated": "2025-11-14T01:25:15.403Z"
    },
    {
      "name": "Snoqualmie",
      "lat": 47.4219,
      "lng": -121.4136,
      "snowfall_24hr": 0,
      "snowfall_48hr": 0,
      "snowfall_7day": 8,
      "forecast_text": "Rain. Cloudy, with a high near 43. Southwest wind around 2 mph. Chance of precipitation is 100%. New rainfall amounts between a quarter and half of an inch possible.",
      "last_updated": "2025-11-14T01:25:33.771Z"
    },
    {
      "name": "Mt. Spokane",
      "lat": 47.9208,
      "lng": -117.0856,
      "snowfall_24hr": 0,
      "snowfall_48hr": 0,
      "snowfall_7day": 3,
      "forecast_text": "Rain likely. Cloudy. High near 48, with temperatures falling to around 45 in the afternoon. Southwest wind around 10 mph, with gusts as high as 21 mph. Chance of precipitation is 60%. New rainfall amounts between a half and three quarters of an inch possible.",
      "last_updated": "2025-11-14T01:25:39.336Z"
    },
    {
      "name": "White Pass",
      "lat": 46.6394,
      "lng": -121.3908,
      "snowfall_24hr": 0,
      "snowfall_48hr": 0,
      "snowfall_7day": 11.5,
      "forecast_text": "Rain. Mostly cloudy. High near 51, with temperatures falling to around 45 in the afternoon. West wind around 6 mph. Chance of precipitation is 80%. New rainfall amounts between a quarter and half of an inch possible.",
      "last_updated": "2025-11-14T01:25:40.767Z"
    },
    {
      "name": "49 Degrees North",
      "lat": 48.7511,
      "lng": -117.6369,
      "snowfall_24hr": 0,
      "snowfall_48hr": 0,
      "snowfall_7day": 0,
      "forecast_text": "Rain. Cloudy, with a high near 47. South wind around 6 mph. Chance of precipitation is 80%. New rainfall amounts less than a tenth of an inch possible.",
      "last_updated": "2025-11-14T01:25:46.396Z"
    },
    {
      "name": "Red Mountain",
      "lat": 49.0917,
      "lng": -117.8233,
      "snowfall_24hr": 0,
      "snowfall_48hr": 0,
      "snowfall_7day": 0,
      "forecast_text": "Data unavailable",
      "last_updated": "2025-11-14T01:25:46.656Z",
      "error": "Point API failed: 404"
    },
    {
      "name": "Whitewater",
      "lat": 49.5394,
      "lng": -117.2717,
      "snowfall_24hr": 0,
      "snowfall_48hr": 0,
      "snowfall_7day": 0,
      "forecast_text": "Data unavailable",
      "last_updated": "2025-11-14T01:25:48.494Z",
      "error": "Point API failed: 404"
    },
    {
      "name": "Panorama",
      "lat": 50.8036,
      "lng": -116.0533,
      "snowfall_24hr": 0,
      "snowfall_48hr": 0,
      "snowfall_7day": 0,
      "forecast_text": "Data unavailable",
      "last_updated": "2025-11-14T01:25:48.754Z",
      "error": "Point API failed: 404"
    },
    {
      "name": "Marmot Basin",
      "lat": 52.8236,
      "lng": -118.0747,
      "snowfall_24hr": 0,
      "snowfall_48hr": 0,
      "snowfall_7day": 0,
      "forecast_text": "Data unavailable",
      "last_updated": "2025-11-14T01:25:49.122Z",
      "error": "Point API failed: 404"
    },
    {
      "name": "Nakiska",
      "lat": 50.98,
      "lng": -115.0733,
      "snowfall_24hr": 0,
      "snowfall_48hr": 0,
      "snowfall_7day": 0,
      "forecast_text": "Data unavailable",
      "last_updated": "2025-11-14T01:25:49.649Z",
      "error": "Point API failed: 404"
    },
    {
      "name": "Castle Mountain",
      "lat": 49.4058,
      "lng": -114.5169,
      "snowfall_24hr": 0,
      "snowfall_48hr": 0,
      "snowfall_7day": 0,
      "forecast_text": "Data unavailable",
      "last_updated": "2025-11-14T01:25:51.310Z",
      "error": "Point API failed: 404"
    },
    {
      "name": "Norquay",
      "lat": 51.1967,
      "lng": -115.5531,
      "snowfall_24hr": 0,
      "snowfall_48hr": 0,
      "snowfall_7day": 0,
      "forecast_text": "Data unavailable",
      "last_updated": "2025-11-14T01:25:56.101Z",
      "error": "Point API failed: 404"
    },
    {
      "name": "Le Massif",
      "lat": 47.3136,
      "lng": -70.6358,
      "snowfall_24hr": 0,
      "snowfall_48hr": 0,
      "snowfall_7day": 0,
      "forecast_text": "Data unavailable",
      "last_updated": "2025-11-14T01:25:56.621Z",
      "error": "Point API failed: 404"
    },
    {
      "name": "Calabogie",
      "lat": 45.2906,
      "lng": -76.7019,
      "snowfall_24hr": 0,
      "snowfall_48hr": 0,
      "snowfall_7day": 0,
      "forecast_text": "Data unavailable",
      "last_updated": "2025-11-14T01:25:57.008Z",
      "error": "Point API failed: 404"
    },
    {
      "name": "Sierra-at-Tahoe",
      "lat": 38.7986,
      "lng": -120.0828,
      "snowfall_24hr": 0,
      "snowfall_48hr": 0,
      "snowfall_7day": 13,
      "forecast_text": "Rain showers. Cloudy, with a high near 45. Southwest wind around 10 mph, with gusts as high as 25 mph. Chance of precipitation is 90%. New rainfall amounts between three quarters and one inch possible.",
      "last_updated": "2025-11-14T01:25:58.365Z"
    },
    {
      "name": "Kirkwood",
      "lat": 38.6867,
      "lng": -120.0656,
      "snowfall_24hr": 0,
      "snowfall_48hr": 0,
      "snowfall_7day": 23.5,
      "forecast_text": "Rain showers. Cloudy. High near 44, with temperatures falling to around 39 in the afternoon. South southwest wind around 10 mph, with gusts as high as 24 mph. Chance of precipitation is 90%. New rainfall amounts between 1 and 2 inches possible.",
      "last_updated": "2025-11-14T01:25:59.955Z"
    },
    {
      "name": "Northstar",
      "lat": 39.2733,
      "lng": -120.1211,
      "snowfall_24hr": 0,
      "snowfall_48hr": 0,
      "snowfall_7day": 2,
      "forecast_text": "Rain. Cloudy, with a high near 52. South wind around 15 mph. Chance of precipitation is 90%. New rainfall amounts between a quarter and half of an inch possible.",
      "last_updated": "2025-11-14T01:26:00.420Z"
    },
    {
      "name": "Homewood",
      "lat": 39.0833,
      "lng": -120.1667,
      "snowfall_24hr": 0,
      "snowfall_48hr": 0,
      "snowfall_7day": 9,
      "forecast_text": "Rain. Cloudy, with a high near 49. South wind around 20 mph, with gusts as high as 30 mph. Chance of precipitation is 100%. New rainfall amounts between a half and three quarters of an inch possible.",
      "last_updated": "2025-11-14T01:26:00.961Z"
    },
    {
      "name": "Mt. Rose",
      "lat": 39.3397,
      "lng": -119.8894,
      "snowfall_24hr": 0,
      "snowfall_48hr": 0,
      "snowfall_7day": 9,
      "forecast_text": "Rain likely. Mostly cloudy, with a high near 45. South wind around 20 mph, with gusts as high as 35 mph. Chance of precipitation is 70%. New rainfall amounts between a quarter and half of an inch possible.",
      "last_updated": "2025-11-14T01:26:02.267Z"
    },
    {
      "name": "Diamond Peak",
      "lat": 39.2525,
      "lng": -119.9169,
      "snowfall_24hr": 0,
      "snowfall_48hr": 0,
      "snowfall_7day": 7,
      "forecast_text": "Rain. Mostly cloudy, with a high near 48. Southwest wind around 10 mph, with gusts as high as 20 mph. Chance of precipitation is 80%.",
      "last_updated": "2025-11-14T01:26:04.941Z"
    },
    {
      "name": "June Mountain",
      "lat": 37.7853,
      "lng": -119.0781,
      "snowfall_24hr": 0,
      "snowfall_48hr": 0,
      "snowfall_7day": 7.5,
      "forecast_text": "Rain. Cloudy, with a high near 52. South wind around 20 mph, with gusts as high as 35 mph. Chance of precipitation is 80%. New rainfall amounts between a half and three quarters of an inch possible.",
      "last_updated": "2025-11-14T01:26:10.435Z"
    },
    {
      "name": "Bear Mountain",
      "lat": 34.235,
      "lng": -116.865,
      "snowfall_24hr": 0,
      "snowfall_48hr": 0,
      "snowfall_7day": 1.5,
      "forecast_text": "Partly sunny, with a high near 60. Southwest wind around 10 mph, with gusts as high as 20 mph.",
      "last_updated": "2025-11-14T01:26:11.084Z"
    },
    {
      "name": "Snow Summit",
      "lat": 34.2306,
      "lng": -116.8886,
      "snowfall_24hr": 0,
      "snowfall_48hr": 0,
      "snowfall_7day": 1.5,
      "forecast_text": "Partly sunny, with a high near 57. Southwest wind around 10 mph.",
      "last_updated": "2025-11-14T01:26:13.758Z"
    },
    {
      "name": "Mountain High",
      "lat": 34.3811,
      "lng": -117.6881,
      "snowfall_24hr": 0,
      "snowfall_48hr": 0,
      "snowfall_7day": 0,
      "forecast_text": "A slight chance of rain showers. Mostly cloudy, with a high near 53. South wind around 20 mph, with gusts as high as 25 mph. Chance of precipitation is 20%.",
      "last_updated": "2025-11-14T01:26:32.392Z"
    },
    {
      "name": "Ski Santa Fe",
      "lat": 35.7869,
      "lng": -105.7961,
      "snowfall_24hr": 0,
      "snowfall_48hr": 0,
      "snowfall_7day": 4.5,
      "forecast_text": "Partly cloudy, with a low around 33. Northwest wind 5 to 10 mph.",
      "last_updated": "2025-11-14T01:26:35.014Z"
    },
    {
      "name": "Angel Fire",
      "lat": 36.3975,
      "lng": -105.2886,
      "snowfall_24hr": 0,
      "snowfall_48hr": 0,
      "snowfall_7day": 0,
      "forecast_text": "Partly cloudy, with a low around 33. South wind around 5 mph.",
      "last_updated": "2025-11-14T01:26:42.156Z"
    },
    {
      "name": "Whiteface Mountain",
      "lat": 44.3659,
      "lng": -73.9024,
      "snowfall_24hr": 0,
      "snowfall_48hr": 0,
      "snowfall_7day": 1.5,
      "forecast_text": "A chance of snow showers. Mostly cloudy, with a low around 20. Northwest wind 21 to 25 mph. Chance of precipitation is 40%. New snow accumulation of less than one inch possible.",
      "last_updated": "2025-11-14T01:26:47.689Z"
    }
  ]
}