{
  "generated_at": "2025-12-19T12:58:48.431Z",
  "total_resorts": 115,
  "data_source": "Open-Meteo",
  "resorts": [
    {
      "name": "Whistler Blackcomb",
      "lat": 50.1163,
      "lng": -122.9574,
      "snowfall_24hr": 1,
      "snowfall_48hr": 5.1,
      "snowfall_7day": 20.1,
      "forecast_text": "1.0\" expected in next 24 hours",
      "last_updated": "2025-12-19T12:58:17.414Z"
    },
    {
      "name": "Vail",
      "lat": 39.6403,
      "lng": -106.3742,
      "snowfall_24hr": 0,
      "snowfall_48hr": 0,
      "snowfall_7day": 0,
      "forecast_text": "No snow expected",
      "last_updated": "2025-12-19T12:58:17.681Z"
    },
    {
      "name": "Park City",
      "lat": 40.6514,
      "lng": -111.5079,
      "snowfall_24hr": 0.3,
      "snowfall_48hr": 0.5,
      "snowfall_7day": 1.3,
      "forecast_text": "0.3\" expected in next 24 hours",
      "last_updated": "2025-12-19T12:58:17.949Z"
    },
    {
      "name": "Breckenridge",
      "lat": 39.4817,
      "lng": -106.0384,
      "snowfall_24hr": 0,
      "snowfall_48hr": 0.5,
      "snowfall_7day": 0.5,
      "forecast_text": "0.5\" expected in next 48 hours",
      "last_updated": "2025-12-19T12:58:18.217Z"
    },
    {
      "name": "Heavenly",
      "lat": 38.935,
      "lng": -119.9403,
      "snowfall_24hr": 0,
      "snowfall_48hr": 0,
      "snowfall_7day": 10.4,
      "forecast_text": "10.4\" expected in next 7 days",
      "last_updated": "2025-12-19T12:58:18.483Z"
    },
    {
      "name": "Aspen Snowmass",
      "lat": 39.1911,
      "lng": -106.8175,
      "snowfall_24hr": 0,
      "snowfall_48hr": 0,
      "snowfall_7day": 0.2,
      "forecast_text": "0.2\" expected in next 7 days",
      "last_updated": "2025-12-19T12:58:18.750Z"
    },
    {
      "name": "Jackson Hole",
      "lat": 43.5875,
      "lng": -110.8278,
      "snowfall_24hr": 2.4,
      "snowfall_48hr": 2.5,
      "snowfall_7day": 17.2,
      "forecast_text": "2.4\" expected in next 24 hours",
      "last_updated": "2025-12-19T12:58:19.016Z"
    },
    {
      "name": "Banff Sunshine",
      "lat": 51.1158,
      "lng": -115.7631,
      "snowfall_24hr": 0.3,
      "snowfall_48hr": 1.8,
      "snowfall_7day": 4.1,
      "forecast_text": "0.3\" expected in next 24 hours",
      "last_updated": "2025-12-19T12:58:19.283Z"
    },
    {
      "name": "Lake Louise",
      "lat": 51.4254,
      "lng": -116.1773,
      "snowfall_24hr": 0.1,
      "snowfall_48hr": 1.4,
      "snowfall_7day": 4.2,
      "forecast_text": "0.1\" expected in next 24 hours",
      "last_updated": "2025-12-19T12:58:19.551Z"
    },
    {
      "name": "Big Sky",
      "lat": 45.2846,
      "lng": -111.4008,
      "snowfall_24hr": 0.9,
      "snowfall_48hr": 0.9,
      "snowfall_7day": 3.2,
      "forecast_text": "0.9\" expected in next 24 hours",
      "last_updated": "2025-12-19T12:58:19.817Z"
    },
    {
      "name": "Steamboat",
      "lat": 40.458,
      "lng": -106.8047,
      "snowfall_24hr": 0,
      "snowfall_48hr": 0,
      "snowfall_7day": 0,
      "forecast_text": "No snow expected",
      "last_updated": "2025-12-19T12:58:20.084Z"
    },
    {
      "name": "Mammoth Mountain",
      "lat": 37.6308,
      "lng": -119.0326,
      "snowfall_24hr": 0,
      "snowfall_48hr": 2.4,
      "snowfall_7day": 40.1,
      "forecast_text": "2.4\" expected in next 48 hours",
      "last_updated": "2025-12-19T12:58:20.350Z"
    },
    {
      "name": "Squaw Valley",
      "lat": 39.197,
      "lng": -120.2356,
      "snowfall_24hr": 1.2,
      "snowfall_48hr": 1.4,
      "snowfall_7day": 27.4,
      "forecast_text": "1.2\" expected in next 24 hours",
      "last_updated": "2025-12-19T12:58:20.616Z"
    },
    {
      "name": "Telluride",
      "lat": 37.9375,
      "lng": -107.8123,
      "snowfall_24hr": 0,
      "snowfall_48hr": 0,
      "snowfall_7day": 0.4,
      "forecast_text": "0.4\" expected in next 7 days",
      "last_updated": "2025-12-19T12:58:20.883Z"
    },
    {
      "name": "Sun Valley",
      "lat": 43.6966,
      "lng": -114.3553,
      "snowfall_24hr": 0.3,
      "snowfall_48hr": 0.5,
      "snowfall_7day": 8.9,
      "forecast_text": "0.3\" expected in next 24 hours",
      "last_updated": "2025-12-19T12:58:21.149Z"
    },
    {
      "name": "Deer Valley",
      "lat": 40.6374,
      "lng": -111.4783,
      "snowfall_24hr": 1.2,
      "snowfall_48hr": 1.7,
      "snowfall_7day": 2.3,
      "forecast_text": "1.2\" expected in next 24 hours",
      "last_updated": "2025-12-19T12:58:21.420Z"
    },
    {
      "name": "Killington",
      "lat": 43.6046,
      "lng": -72.822,
      "snowfall_24hr": 1.6,
      "snowfall_48hr": 1.6,
      "snowfall_7day": 3.5,
      "forecast_text": "1.6\" expected in next 24 hours",
      "last_updated": "2025-12-19T12:58:21.686Z"
    },
    {
      "name": "Stowe",
      "lat": 44.5303,
      "lng": -72.7817,
      "snowfall_24hr": 0.5,
      "snowfall_48hr": 0.5,
      "snowfall_7day": 4.6,
      "forecast_text": "0.5\" expected in next 24 hours",
      "last_updated": "2025-12-19T12:58:21.951Z"
    },
    {
      "name": "Alta",
      "lat": 40.5885,
      "lng": -111.6376,
      "snowfall_24hr": 0.8,
      "snowfall_48hr": 1.6,
      "snowfall_7day": 4.1,
      "forecast_text": "0.8\" expected in next 24 hours",
      "last_updated": "2025-12-19T12:58:22.217Z"
    },
    {
      "name": "Snowbird",
      "lat": 40.5803,
      "lng": -111.6573,
      "snowfall_24hr": 0.2,
      "snowfall_48hr": 0.3,
      "snowfall_7day": 2.8,
      "forecast_text": "0.2\" expected in next 24 hours",
      "last_updated": "2025-12-19T12:58:22.482Z"
    },
    {
      "name": "Taos",
      "lat": 36.5924,
      "lng": -105.4467,
      "snowfall_24hr": 0,
      "snowfall_48hr": 0,
      "snowfall_7day": 0,
      "forecast_text": "No snow expected",
      "last_updated": "2025-12-19T12:58:22.749Z"
    },
    {
      "name": "Copper Mountain",
      "lat": 39.5022,
      "lng": -106.1506,
      "snowfall_24hr": 0,
      "snowfall_48hr": 0.3,
      "snowfall_7day": 0.3,
      "forecast_text": "0.3\" expected in next 48 hours",
      "last_updated": "2025-12-19T12:58:23.015Z"
    },
    {
      "name": "Winter Park",
      "lat": 39.8868,
      "lng": -105.7625,
      "snowfall_24hr": 0,
      "snowfall_48hr": 1.6,
      "snowfall_7day": 1.6,
      "forecast_text": "1.6\" expected in next 48 hours",
      "last_updated": "2025-12-19T12:58:23.281Z"
    },
    {
      "name": "Keystone",
      "lat": 39.605,
      "lng": -105.9347,
      "snowfall_24hr": 0,
      "snowfall_48hr": 1.4,
      "snowfall_7day": 1.4,
      "forecast_text": "1.4\" expected in next 48 hours",
      "last_updated": "2025-12-19T12:58:23.547Z"
    },
    {
      "name": "Arapahoe Basin",
      "lat": 39.6426,
      "lng": -105.8717,
      "snowfall_24hr": 0,
      "snowfall_48hr": 2.1,
      "snowfall_7day": 2.1,
      "forecast_text": "2.1\" expected in next 48 hours",
      "last_updated": "2025-12-19T12:58:23.817Z"
    },
    {
      "name": "Crested Butte",
      "lat": 38.8997,
      "lng": -106.9653,
      "snowfall_24hr": 0,
      "snowfall_48hr": 0,
      "snowfall_7day": 0.9,
      "forecast_text": "0.9\" expected in next 7 days",
      "last_updated": "2025-12-19T12:58:24.083Z"
    },
    {
      "name": "Loveland",
      "lat": 39.6803,
      "lng": -105.8978,
      "snowfall_24hr": 0,
      "snowfall_48hr": 1.7,
      "snowfall_7day": 1.7,
      "forecast_text": "1.7\" expected in next 48 hours",
      "last_updated": "2025-12-19T12:58:24.349Z"
    },
    {
      "name": "Mt. Bachelor",
      "lat": 43.979,
      "lng": -121.688,
      "snowfall_24hr": 3.4,
      "snowfall_48hr": 4.5,
      "snowfall_7day": 9.7,
      "forecast_text": "3.4\" expected in next 24 hours",
      "last_updated": "2025-12-19T12:58:24.616Z"
    },
    {
      "name": "Crystal Mountain",
      "lat": 46.9358,
      "lng": -121.4742,
      "snowfall_24hr": 1.5,
      "snowfall_48hr": 5.7,
      "snowfall_7day": 15.1,
      "forecast_text": "1.5\" expected in next 24 hours",
      "last_updated": "2025-12-19T12:58:24.883Z"
    },
    {
      "name": "Stevens Pass",
      "lat": 47.7453,
      "lng": -121.0892,
      "snowfall_24hr": 3.6,
      "snowfall_48hr": 7.8,
      "snowfall_7day": 16.3,
      "forecast_text": "3.6\" expected in next 24 hours",
      "last_updated": "2025-12-19T12:58:25.149Z"
    },
    {
      "name": "Mt. Baker",
      "lat": 48.8597,
      "lng": -121.6686,
      "snowfall_24hr": 4.4,
      "snowfall_48hr": 9.1,
      "snowfall_7day": 32.2,
      "forecast_text": "4.4\" expected in next 24 hours",
      "last_updated": "2025-12-19T12:58:25.415Z"
    },
    {
      "name": "Schweitzer",
      "lat": 48.3642,
      "lng": -116.6228,
      "snowfall_24hr": 0.1,
      "snowfall_48hr": 1.3,
      "snowfall_7day": 5,
      "forecast_text": "0.1\" expected in next 24 hours",
      "last_updated": "2025-12-19T12:58:25.682Z"
    },
    {
      "name": "Sun Peaks",
      "lat": 50.8817,
      "lng": -119.8847,
      "snowfall_24hr": 0,
      "snowfall_48hr": 0,
      "snowfall_7day": 2,
      "forecast_text": "2.0\" expected in next 7 days",
      "last_updated": "2025-12-19T12:58:25.948Z"
    },
    {
      "name": "Revelstoke",
      "lat": 50.9981,
      "lng": -118.1956,
      "snowfall_24hr": 0.1,
      "snowfall_48hr": 2,
      "snowfall_7day": 6.4,
      "forecast_text": "0.1\" expected in next 24 hours",
      "last_updated": "2025-12-19T12:58:26.214Z"
    },
    {
      "name": "Fernie",
      "lat": 49.4653,
      "lng": -115.0636,
      "snowfall_24hr": 0.1,
      "snowfall_48hr": 0.4,
      "snowfall_7day": 4.9,
      "forecast_text": "0.1\" expected in next 24 hours",
      "last_updated": "2025-12-19T12:58:26.480Z"
    },
    {
      "name": "Big White",
      "lat": 49.7311,
      "lng": -118.935,
      "snowfall_24hr": 0.2,
      "snowfall_48hr": 0.9,
      "snowfall_7day": 2.2,
      "forecast_text": "0.2\" expected in next 24 hours",
      "last_updated": "2025-12-19T12:58:26.746Z"
    },
    {
      "name": "Kicking Horse",
      "lat": 51.2514,
      "lng": -117.0492,
      "snowfall_24hr": 0.2,
      "snowfall_48hr": 2,
      "snowfall_7day": 4.7,
      "forecast_text": "0.2\" expected in next 24 hours",
      "last_updated": "2025-12-19T12:58:27.013Z"
    },
    {
      "name": "Mont Tremblant",
      "lat": 46.2094,
      "lng": -74.5847,
      "snowfall_24hr": 0.6,
      "snowfall_48hr": 1.3,
      "snowfall_7day": 4.4,
      "forecast_text": "0.6\" expected in next 24 hours",
      "last_updated": "2025-12-19T12:58:27.278Z"
    },
    {
      "name": "Blue Mountain",
      "lat": 44.5075,
      "lng": -80.3231,
      "snowfall_24hr": 1.1,
      "snowfall_48hr": 1.8,
      "snowfall_7day": 2.9,
      "forecast_text": "1.1\" expected in next 24 hours",
      "last_updated": "2025-12-19T12:58:27.546Z"
    },
    {
      "name": "Sugarloaf",
      "lat": 45.0314,
      "lng": -70.3139,
      "snowfall_24hr": 0.3,
      "snowfall_48hr": 0.7,
      "snowfall_7day": 1.7,
      "forecast_text": "0.3\" expected in next 24 hours",
      "last_updated": "2025-12-19T12:58:27.817Z"
    },
    {
      "name": "Sunday River",
      "lat": 44.4697,
      "lng": -70.8561,
      "snowfall_24hr": 0.2,
      "snowfall_48hr": 0.2,
      "snowfall_7day": 0.6,
      "forecast_text": "0.2\" expected in next 24 hours",
      "last_updated": "2025-12-19T12:58:28.082Z"
    },
    {
      "name": "Sugarbush",
      "lat": 44.135,
      "lng": -72.9017,
      "snowfall_24hr": 0.1,
      "snowfall_48hr": 0.1,
      "snowfall_7day": 2.4,
      "forecast_text": "0.1\" expected in next 24 hours",
      "last_updated": "2025-12-19T12:58:28.348Z"
    },
    {
      "name": "Stratton",
      "lat": 43.1133,
      "lng": -72.9083,
      "snowfall_24hr": 0.6,
      "snowfall_48hr": 0.7,
      "snowfall_7day": 2.4,
      "forecast_text": "0.6\" expected in next 24 hours",
      "last_updated": "2025-12-19T12:58:28.615Z"
    },
    {
      "name": "Okemo",
      "lat": 43.4017,
      "lng": -72.7167,
      "snowfall_24hr": 0.5,
      "snowfall_48hr": 0.5,
      "snowfall_7day": 2.4,
      "forecast_text": "0.5\" expected in next 24 hours",
      "last_updated": "2025-12-19T12:58:28.881Z"
    },
    {
      "name": "Jay Peak",
      "lat": 44.9378,
      "lng": -72.5036,
      "snowfall_24hr": 2.6,
      "snowfall_48hr": 2.6,
      "snowfall_7day": 6.3,
      "forecast_text": "2.6\" expected in next 24 hours",
      "last_updated": "2025-12-19T12:58:29.149Z"
    },
    {
      "name": "Smugglers' Notch",
      "lat": 44.5458,
      "lng": -72.7872,
      "snowfall_24hr": 1,
      "snowfall_48hr": 1,
      "snowfall_7day": 5.2,
      "forecast_text": "1.0\" expected in next 24 hours",
      "last_updated": "2025-12-19T12:58:29.414Z"
    },
    {
      "name": "Loon Mountain",
      "lat": 44.0369,
      "lng": -71.6206,
      "snowfall_24hr": 0.3,
      "snowfall_48hr": 0.5,
      "snowfall_7day": 2.9,
      "forecast_text": "0.3\" expected in next 24 hours",
      "last_updated": "2025-12-19T12:58:29.680Z"
    },
    {
      "name": "Cannon Mountain",
      "lat": 44.1572,
      "lng": -71.6978,
      "snowfall_24hr": 2.3,
      "snowfall_48hr": 2.5,
      "snowfall_7day": 5.2,
      "forecast_text": "2.3\" expected in next 24 hours",
      "last_updated": "2025-12-19T12:58:29.946Z"
    },
    {
      "name": "Wildcat Mountain",
      "lat": 44.2636,
      "lng": -71.2328,
      "snowfall_24hr": 0.6,
      "snowfall_48hr": 1.3,
      "snowfall_7day": 3.4,
      "forecast_text": "0.6\" expected in next 24 hours",
      "last_updated": "2025-12-19T12:58:30.212Z"
    },
    {
      "name": "Bretton Woods",
      "lat": 44.2633,
      "lng": -71.4439,
      "snowfall_24hr": 0.6,
      "snowfall_48hr": 0.7,
      "snowfall_7day": 3.9,
      "forecast_text": "0.6\" expected in next 24 hours",
      "last_updated": "2025-12-19T12:58:30.479Z"
    },
    {
      "name": "Snowbasin",
      "lat": 41.2156,
      "lng": -111.8567,
      "snowfall_24hr": 0.1,
      "snowfall_48hr": 0.1,
      "snowfall_7day": 0.4,
      "forecast_text": "0.1\" expected in next 24 hours",
      "last_updated": "2025-12-19T12:58:30.745Z"
    },
    {
      "name": "Powder Mountain",
      "lat": 41.3814,
      "lng": -111.7806,
      "snowfall_24hr": 2.4,
      "snowfall_48hr": 3,
      "snowfall_7day": 6.2,
      "forecast_text": "2.4\" expected in next 24 hours",
      "last_updated": "2025-12-19T12:58:31.011Z"
    },
    {
      "name": "Solitude",
      "lat": 40.62,
      "lng": -111.5917,
      "snowfall_24hr": 0.3,
      "snowfall_48hr": 0.7,
      "snowfall_7day": 4.5,
      "forecast_text": "0.3\" expected in next 24 hours",
      "last_updated": "2025-12-19T12:58:31.276Z"
    },
    {
      "name": "Brighton",
      "lat": 40.5981,
      "lng": -111.5831,
      "snowfall_24hr": 0.9,
      "snowfall_48hr": 1.8,
      "snowfall_7day": 5.6,
      "forecast_text": "0.9\" expected in next 24 hours",
      "last_updated": "2025-12-19T12:58:31.541Z"
    },
    {
      "name": "Snowmass",
      "lat": 39.2133,
      "lng": -106.9378,
      "snowfall_24hr": 0,
      "snowfall_48hr": 0,
      "snowfall_7day": 0.2,
      "forecast_text": "0.2\" expected in next 7 days",
      "last_updated": "2025-12-19T12:58:31.807Z"
    },
    {
      "name": "Aspen Highlands",
      "lat": 39.1825,
      "lng": -106.8553,
      "snowfall_24hr": 0,
      "snowfall_48hr": 0,
      "snowfall_7day": 0.2,
      "forecast_text": "0.2\" expected in next 7 days",
      "last_updated": "2025-12-19T12:58:32.073Z"
    },
    {
      "name": "Buttermilk",
      "lat": 39.2078,
      "lng": -106.8608,
      "snowfall_24hr": 0,
      "snowfall_48hr": 0,
      "snowfall_7day": 0.2,
      "forecast_text": "0.2\" expected in next 7 days",
      "last_updated": "2025-12-19T12:58:32.339Z"
    },
    {
      "name": "Beaver Creek",
      "lat": 39.6042,
      "lng": -106.5164,
      "snowfall_24hr": 0,
      "snowfall_48hr": 0,
      "snowfall_7day": 0,
      "forecast_text": "No snow expected",
      "last_updated": "2025-12-19T12:58:32.604Z"
    },
    {
      "name": "Purgatory",
      "lat": 37.6303,
      "lng": -107.8139,
      "snowfall_24hr": 0,
      "snowfall_48hr": 0,
      "snowfall_7day": 1.3,
      "forecast_text": "1.3\" expected in next 7 days",
      "last_updated": "2025-12-19T12:58:32.869Z"
    },
    {
      "name": "Wolf Creek",
      "lat": 37.4722,
      "lng": -106.7931,
      "snowfall_24hr": 0,
      "snowfall_48hr": 0,
      "snowfall_7day": 1.6,
      "forecast_text": "1.6\" expected in next 7 days",
      "last_updated": "2025-12-19T12:58:33.134Z"
    },
    {
      "name": "Monarch Mountain",
      "lat": 38.5117,
      "lng": -106.3317,
      "snowfall_24hr": 0,
      "snowfall_48hr": 0,
      "snowfall_7day": 0,
      "forecast_text": "No snow expected",
      "last_updated": "2025-12-19T12:58:33.404Z"
    },
    {
      "name": "Eldora",
      "lat": 39.9372,
      "lng": -105.5828,
      "snowfall_24hr": 0,
      "snowfall_48hr": 2.8,
      "snowfall_7day": 2.8,
      "forecast_text": "2.8\" expected in next 48 hours",
      "last_updated": "2025-12-19T12:58:33.669Z"
    },
    {
      "name": "Grand Targhee",
      "lat": 43.7886,
      "lng": -110.9586,
      "snowfall_24hr": 3.9,
      "snowfall_48hr": 3.9,
      "snowfall_7day": 11.3,
      "forecast_text": "3.9\" expected in next 24 hours",
      "last_updated": "2025-12-19T12:58:33.936Z"
    },
    {
      "name": "Snow King",
      "lat": 43.4783,
      "lng": -110.7628,
      "snowfall_24hr": 1.5,
      "snowfall_48hr": 1.5,
      "snowfall_7day": 12.2,
      "forecast_text": "1.5\" expected in next 24 hours",
      "last_updated": "2025-12-19T12:58:34.203Z"
    },
    {
      "name": "Bridger Bowl",
      "lat": 45.8167,
      "lng": -110.8969,
      "snowfall_24hr": 1.7,
      "snowfall_48hr": 1.7,
      "snowfall_7day": 3.6,
      "forecast_text": "1.7\" expected in next 24 hours",
      "last_updated": "2025-12-19T12:58:34.468Z"
    },
    {
      "name": "Big Mountain",
      "lat": 48.4928,
      "lng": -114.3483,
      "snowfall_24hr": 0.2,
      "snowfall_48hr": 1.8,
      "snowfall_7day": 3.6,
      "forecast_text": "0.2\" expected in next 24 hours",
      "last_updated": "2025-12-19T12:58:34.738Z"
    },
    {
      "name": "Snowbowl",
      "lat": 46.9417,
      "lng": -113.9492,
      "snowfall_24hr": 0.3,
      "snowfall_48hr": 0.3,
      "snowfall_7day": 0.9,
      "forecast_text": "0.3\" expected in next 24 hours",
      "last_updated": "2025-12-19T12:58:35.004Z"
    },
    {
      "name": "Bogus Basin",
      "lat": 43.7725,
      "lng": -116.0939,
      "snowfall_24hr": 1.1,
      "snowfall_48hr": 1.6,
      "snowfall_7day": 2.1,
      "forecast_text": "1.1\" expected in next 24 hours",
      "last_updated": "2025-12-19T12:58:35.269Z"
    },
    {
      "name": "Tamarack",
      "lat": 44.6922,
      "lng": -116.1344,
      "snowfall_24hr": 1.6,
      "snowfall_48hr": 1.9,
      "snowfall_7day": 9.3,
      "forecast_text": "1.6\" expected in next 24 hours",
      "last_updated": "2025-12-19T12:58:35.536Z"
    },
    {
      "name": "Silver Mountain",
      "lat": 47.6764,
      "lng": -116.0703,
      "snowfall_24hr": 0,
      "snowfall_48hr": 0.6,
      "snowfall_7day": 1.3,
      "forecast_text": "0.0\" expected in next 24 hours",
      "last_updated": "2025-12-19T12:58:35.801Z"
    },
    {
      "name": "Mt. Hood Meadows",
      "lat": 45.3319,
      "lng": -121.6653,
      "snowfall_24hr": 4.6,
      "snowfall_48hr": 8.7,
      "snowfall_7day": 14,
      "forecast_text": "4.6\" expected in next 24 hours",
      "last_updated": "2025-12-19T12:58:36.067Z"
    },
    {
      "name": "Timberline",
      "lat": 45.3306,
      "lng": -121.7108,
      "snowfall_24hr": 5.8,
      "snowfall_48hr": 10.1,
      "snowfall_7day": 15.9,
      "forecast_text": "5.8\" expected in next 24 hours",
      "last_updated": "2025-12-19T12:58:36.333Z"
    },
    {
      "name": "Willamette Pass",
      "lat": 43.6006,
      "lng": -122.0336,
      "snowfall_24hr": 2,
      "snowfall_48hr": 2.6,
      "snowfall_7day": 8.5,
      "forecast_text": "2.0\" expected in next 24 hours",
      "last_updated": "2025-12-19T12:58:36.599Z"
    },
    {
      "name": "Mission Ridge",
      "lat": 47.2917,
      "lng": -120.3997,
      "snowfall_24hr": 1.4,
      "snowfall_48hr": 2.7,
      "snowfall_7day": 5.6,
      "forecast_text": "1.4\" expected in next 24 hours",
      "last_updated": "2025-12-19T12:58:36.865Z"
    },
    {
      "name": "Snoqualmie",
      "lat": 47.4219,
      "lng": -121.4136,
      "snowfall_24hr": 0.7,
      "snowfall_48hr": 3.8,
      "snowfall_7day": 15,
      "forecast_text": "0.7\" expected in next 24 hours",
      "last_updated": "2025-12-19T12:58:37.131Z"
    },
    {
      "name": "Mt. Spokane",
      "lat": 47.9208,
      "lng": -117.0856,
      "snowfall_24hr": 0,
      "snowfall_48hr": 0.3,
      "snowfall_7day": 1.9,
      "forecast_text": "0.3\" expected in next 48 hours",
      "last_updated": "2025-12-19T12:58:37.397Z"
    },
    {
      "name": "White Pass",
      "lat": 46.6394,
      "lng": -121.3908,
      "snowfall_24hr": 3.7,
      "snowfall_48hr": 7.3,
      "snowfall_7day": 13.8,
      "forecast_text": "3.7\" expected in next 24 hours",
      "last_updated": "2025-12-19T12:58:37.663Z"
    },
    {
      "name": "49 Degrees North",
      "lat": 48.7511,
      "lng": -117.6369,
      "snowfall_24hr": 0,
      "snowfall_48hr": 0.1,
      "snowfall_7day": 2.2,
      "forecast_text": "0.1\" expected in next 48 hours",
      "last_updated": "2025-12-19T12:58:37.928Z"
    },
    {
      "name": "Red Mountain",
      "lat": 49.0917,
      "lng": -117.8233,
      "snowfall_24hr": 0.1,
      "snowfall_48hr": 0.3,
      "snowfall_7day": 4.8,
      "forecast_text": "0.1\" expected in next 24 hours",
      "last_updated": "2025-12-19T12:58:38.195Z"
    },
    {
      "name": "Whitewater",
      "lat": 49.5394,
      "lng": -117.2717,
      "snowfall_24hr": 0.1,
      "snowfall_48hr": 0.3,
      "snowfall_7day": 4.8,
      "forecast_text": "0.1\" expected in next 24 hours",
      "last_updated": "2025-12-19T12:58:38.462Z"
    },
    {
      "name": "Panorama",
      "lat": 50.8036,
      "lng": -116.0533,
      "snowfall_24hr": 0,
      "snowfall_48hr": 0.4,
      "snowfall_7day": 1.5,
      "forecast_text": "0.0\" expected in next 24 hours",
      "last_updated": "2025-12-19T12:58:38.727Z"
    },
    {
      "name": "Marmot Basin",
      "lat": 52.8236,
      "lng": -118.0747,
      "snowfall_24hr": 0.6,
      "snowfall_48hr": 1,
      "snowfall_7day": 1.8,
      "forecast_text": "0.6\" expected in next 24 hours",
      "last_updated": "2025-12-19T12:58:38.995Z"
    },
    {
      "name": "Nakiska",
      "lat": 50.98,
      "lng": -115.0733,
      "snowfall_24hr": 0.2,
      "snowfall_48hr": 0.4,
      "snowfall_7day": 0.4,
      "forecast_text": "0.2\" expected in next 24 hours",
      "last_updated": "2025-12-19T12:58:39.261Z"
    },
    {
      "name": "Castle Mountain",
      "lat": 49.4058,
      "lng": -114.5169,
      "snowfall_24hr": 0.7,
      "snowfall_48hr": 2.1,
      "snowfall_7day": 4.1,
      "forecast_text": "0.7\" expected in next 24 hours",
      "last_updated": "2025-12-19T12:58:39.526Z"
    },
    {
      "name": "Norquay",
      "lat": 51.1967,
      "lng": -115.5531,
      "snowfall_24hr": 0.2,
      "snowfall_48hr": 0.4,
      "snowfall_7day": 0.9,
      "forecast_text": "0.2\" expected in next 24 hours",
      "last_updated": "2025-12-19T12:58:39.791Z"
    },
    {
      "name": "Le Massif",
      "lat": 47.3136,
      "lng": -70.6358,
      "snowfall_24hr": 0.5,
      "snowfall_48hr": 1.3,
      "snowfall_7day": 2.9,
      "forecast_text": "0.5\" expected in next 24 hours",
      "last_updated": "2025-12-19T12:58:40.058Z"
    },
    {
      "name": "Calabogie",
      "lat": 45.2906,
      "lng": -76.7019,
      "snowfall_24hr": 0.2,
      "snowfall_48hr": 0.3,
      "snowfall_7day": 1.7,
      "forecast_text": "0.2\" expected in next 24 hours",
      "last_updated": "2025-12-19T12:58:40.324Z"
    },
    {
      "name": "Sierra-at-Tahoe",
      "lat": 38.7986,
      "lng": -120.0828,
      "snowfall_24hr": 0.5,
      "snowfall_48hr": 0.9,
      "snowfall_7day": 26.7,
      "forecast_text": "0.5\" expected in next 24 hours",
      "last_updated": "2025-12-19T12:58:40.589Z"
    },
    {
      "name": "Kirkwood",
      "lat": 38.6867,
      "lng": -120.0656,
      "snowfall_24hr": 1,
      "snowfall_48hr": 3.4,
      "snowfall_7day": 31.8,
      "forecast_text": "1.0\" expected in next 24 hours",
      "last_updated": "2025-12-19T12:58:40.855Z"
    },
    {
      "name": "Northstar",
      "lat": 39.2733,
      "lng": -120.1211,
      "snowfall_24hr": 0.1,
      "snowfall_48hr": 0.1,
      "snowfall_7day": 18.9,
      "forecast_text": "0.1\" expected in next 24 hours",
      "last_updated": "2025-12-19T12:58:41.121Z"
    },
    {
      "name": "Homewood",
      "lat": 39.0833,
      "lng": -120.1667,
      "snowfall_24hr": 2.7,
      "snowfall_48hr": 4.1,
      "snowfall_7day": 22.4,
      "forecast_text": "2.7\" expected in next 24 hours",
      "last_updated": "2025-12-19T12:58:41.386Z"
    },
    {
      "name": "Mt. Rose",
      "lat": 39.3397,
      "lng": -119.8894,
      "snowfall_24hr": 0,
      "snowfall_48hr": 0.3,
      "snowfall_7day": 12.6,
      "forecast_text": "0.3\" expected in next 48 hours",
      "last_updated": "2025-12-19T12:58:41.651Z"
    },
    {
      "name": "Diamond Peak",
      "lat": 39.2525,
      "lng": -119.9169,
      "snowfall_24hr": 0,
      "snowfall_48hr": 1.4,
      "snowfall_7day": 13.7,
      "forecast_text": "1.4\" expected in next 48 hours",
      "last_updated": "2025-12-19T12:58:41.917Z"
    },
    {
      "name": "June Mountain",
      "lat": 37.7853,
      "lng": -119.0781,
      "snowfall_24hr": 0,
      "snowfall_48hr": 0,
      "snowfall_7day": 29.7,
      "forecast_text": "29.7\" expected in next 7 days",
      "last_updated": "2025-12-19T12:58:42.183Z"
    },
    {
      "name": "Bear Mountain",
      "lat": 34.235,
      "lng": -116.865,
      "snowfall_24hr": 0,
      "snowfall_48hr": 0,
      "snowfall_7day": 0.8,
      "forecast_text": "0.8\" expected in next 7 days",
      "last_updated": "2025-12-19T12:58:42.449Z"
    },
    {
      "name": "Snow Summit",
      "lat": 34.2306,
      "lng": -116.8886,
      "snowfall_24hr": 0,
      "snowfall_48hr": 0,
      "snowfall_7day": 0.8,
      "forecast_text": "0.8\" expected in next 7 days",
      "last_updated": "2025-12-19T12:58:42.715Z"
    },
    {
      "name": "Mountain High",
      "lat": 34.3811,
      "lng": -117.6881,
      "snowfall_24hr": 0,
      "snowfall_48hr": 0,
      "snowfall_7day": 0,
      "forecast_text": "No snow expected",
      "last_updated": "2025-12-19T12:58:42.980Z"
    },
    {
      "name": "Ski Santa Fe",
      "lat": 35.7869,
      "lng": -105.7961,
      "snowfall_24hr": 0,
      "snowfall_48hr": 0,
      "snowfall_7day": 0,
      "forecast_text": "No snow expected",
      "last_updated": "2025-12-19T12:58:43.246Z"
    },
    {
      "name": "Angel Fire",
      "lat": 36.3975,
      "lng": -105.2886,
      "snowfall_24hr": 0,
      "snowfall_48hr": 0,
      "snowfall_7day": 0,
      "forecast_text": "No snow expected",
      "last_updated": "2025-12-19T12:58:43.511Z"
    },
    {
      "name": "Whiteface Mountain",
      "lat": 44.3659,
      "lng": -73.9024,
      "snowfall_24hr": 2.1,
      "snowfall_48hr": 2.4,
      "snowfall_7day": 5,
      "forecast_text": "2.1\" expected in next 24 hours",
      "last_updated": "2025-12-19T12:58:43.779Z"
    },
    {
      "name": "Bristol Mountain",
      "lat": 42.7455,
      "lng": -77.4016,
      "snowfall_24hr": 0.4,
      "snowfall_48hr": 0.4,
      "snowfall_7day": 0.7,
      "forecast_text": "0.4\" expected in next 24 hours",
      "last_updated": "2025-12-19T12:58:44.550Z"
    },
    {
      "name": "Revelstoke Mountain Resort",
      "lat": 50.9981,
      "lng": -118.1958,
      "snowfall_24hr": 0.1,
      "snowfall_48hr": 2,
      "snowfall_7day": 6.4,
      "forecast_text": "0.1\" expected in next 24 hours",
      "last_updated": "2025-12-19T12:58:44.820Z"
    },
    {
      "name": "Big White Ski Resort",
      "lat": 49.7308,
      "lng": -118.9357,
      "snowfall_24hr": 0.2,
      "snowfall_48hr": 0.9,
      "snowfall_7day": 2.2,
      "forecast_text": "0.2\" expected in next 24 hours",
      "last_updated": "2025-12-19T12:58:45.089Z"
    },
    {
      "name": "Sun Peaks Resort",
      "lat": 50.8847,
      "lng": -119.8892,
      "snowfall_24hr": 0,
      "snowfall_48hr": 0,
      "snowfall_7day": 2,
      "forecast_text": "2.0\" expected in next 7 days",
      "last_updated": "2025-12-19T12:58:45.359Z"
    },
    {
      "name": "Fernie Alpine Resort",
      "lat": 49.4651,
      "lng": -115.0764,
      "snowfall_24hr": 0.1,
      "snowfall_48hr": 0.4,
      "snowfall_7day": 4.9,
      "forecast_text": "0.1\" expected in next 24 hours",
      "last_updated": "2025-12-19T12:58:45.628Z"
    },
    {
      "name": "Kicking Horse Mountain Resort",
      "lat": 51.2983,
      "lng": -116.955,
      "snowfall_24hr": 0.1,
      "snowfall_48hr": 1,
      "snowfall_7day": 3.8,
      "forecast_text": "0.1\" expected in next 24 hours",
      "last_updated": "2025-12-19T12:58:45.897Z"
    },
    {
      "name": "Panorama Mountain Resort",
      "lat": 50.9806,
      "lng": -116.0972,
      "snowfall_24hr": 0.3,
      "snowfall_48hr": 1.4,
      "snowfall_7day": 5.7,
      "forecast_text": "0.3\" expected in next 24 hours",
      "last_updated": "2025-12-19T12:58:46.167Z"
    },
    {
      "name": "RED Mountain Resort",
      "lat": 49.0878,
      "lng": -117.8197,
      "snowfall_24hr": 0,
      "snowfall_48hr": 0.2,
      "snowfall_7day": 4.7,
      "forecast_text": "0.0\" expected in next 24 hours",
      "last_updated": "2025-12-19T12:58:46.438Z"
    },
    {
      "name": "SilverStar Mountain Resort",
      "lat": 50.4,
      "lng": -119.0833,
      "snowfall_24hr": 0.5,
      "snowfall_48hr": 1.1,
      "snowfall_7day": 3.7,
      "forecast_text": "0.5\" expected in next 24 hours",
      "last_updated": "2025-12-19T12:58:46.707Z"
    },
    {
      "name": "Lake Louise Ski Resort",
      "lat": 51.4254,
      "lng": -116.1773,
      "snowfall_24hr": 0.1,
      "snowfall_48hr": 1.4,
      "snowfall_7day": 4.2,
      "forecast_text": "0.1\" expected in next 24 hours",
      "last_updated": "2025-12-19T12:58:46.976Z"
    },
    {
      "name": "Sunshine Village",
      "lat": 51.1128,
      "lng": -115.7631,
      "snowfall_24hr": 0.3,
      "snowfall_48hr": 1.8,
      "snowfall_7day": 4.1,
      "forecast_text": "0.3\" expected in next 24 hours",
      "last_updated": "2025-12-19T12:58:47.246Z"
    },
    {
      "name": "Mount Norquay",
      "lat": 51.2094,
      "lng": -115.5797,
      "snowfall_24hr": 0.2,
      "snowfall_48hr": 0.5,
      "snowfall_7day": 1,
      "forecast_text": "0.2\" expected in next 24 hours",
      "last_updated": "2025-12-19T12:58:47.515Z"
    },
    {
      "name": "Nakiska Ski Area",
      "lat": 50.9042,
      "lng": -115.0856,
      "snowfall_24hr": 0.3,
      "snowfall_48hr": 0.6,
      "snowfall_7day": 0.7,
      "forecast_text": "0.3\" expected in next 24 hours",
      "last_updated": "2025-12-19T12:58:47.785Z"
    },
    {
      "name": "Le Massif de Charlevoix",
      "lat": 47.3389,
      "lng": -70.6375,
      "snowfall_24hr": 0.5,
      "snowfall_48hr": 1.3,
      "snowfall_7day": 2.3,
      "forecast_text": "0.5\" expected in next 24 hours",
      "last_updated": "2025-12-19T12:58:48.060Z"
    },
    {
      "name": "Blue Mountain Resort",
      "lat": 44.5067,
      "lng": -80.3158,
      "snowfall_24hr": 1.1,
      "snowfall_48hr": 1.8,
      "snowfall_7day": 2.9,
      "forecast_text": "1.1\" expected in next 24 hours",
      "last_updated": "2025-12-19T12:58:48.330Z"
    }
  ]
}