{
  "generated_at": "2025-11-11T01:59:32.065Z",
  "total_resorts": 100,
  "resorts": [
    {
      "name": "Whistler Blackcomb",
      "lat": 50.1163,
      "lng": -122.9574,
      "snowfall_7day": 0,
      "forecast_text": "Data unavailable",
      "last_updated": "2025-11-11T01:54:38.431Z",
      "error": "Point API failed: 404"
    },
    {
      "name": "Vail",
      "lat": 39.6403,
      "lng": -106.3742,
      "snowfall_7day": 0,
      "forecast_text": "Mostly clear, with a low around 29. Northwest wind around 5 mph.",
      "last_updated": "2025-11-11T01:54:39.713Z"
    },
    {
      "name": "Park City",
      "lat": 40.6514,
      "lng": -111.5079,
      "snowfall_7day": 1.5,
      "forecast_text": "Partly cloudy. Low around 37, with temperatures rising to around 39 overnight. North northwest wind around 2 mph.",
      "last_updated": "2025-11-11T01:54:58.599Z"
    },
    {
      "name": "Breckenridge",
      "lat": 39.4817,
      "lng": -106.0384,
      "snowfall_7day": 0,
      "forecast_text": "Mostly clear, with a low around 28. North northwest wind 7 to 10 mph, with gusts as high as 16 mph.",
      "last_updated": "2025-11-11T01:55:00.230Z"
    },
    {
      "name": "Heavenly",
      "lat": 38.935,
      "lng": -119.9403,
      "snowfall_7day": 4.5,
      "forecast_text": "Mostly sunny, with a high near 62. West wind around 0 mph.",
      "last_updated": "2025-11-11T01:55:01.285Z"
    },
    {
      "name": "Aspen Snowmass",
      "lat": 39.1911,
      "lng": -106.8175,
      "snowfall_7day": 0,
      "forecast_text": "Partly cloudy, with a low around 32. South wind around 5 mph.",
      "last_updated": "2025-11-11T01:55:01.983Z"
    },
    {
      "name": "Jackson Hole",
      "lat": 43.5875,
      "lng": -110.8278,
      "snowfall_7day": 0,
      "forecast_text": "Partly cloudy, with a low around 31. Southwest wind 3 to 7 mph.",
      "last_updated": "2025-11-11T01:55:06.571Z"
    },
    {
      "name": "Banff Sunshine",
      "lat": 51.1158,
      "lng": -115.7631,
      "snowfall_7day": 0,
      "forecast_text": "Data unavailable",
      "last_updated": "2025-11-11T01:55:07.017Z",
      "error": "Point API failed: 404"
    },
    {
      "name": "Lake Louise",
      "lat": 51.4254,
      "lng": -116.1773,
      "snowfall_7day": 0,
      "forecast_text": "Data unavailable",
      "last_updated": "2025-11-11T01:55:07.321Z",
      "error": "Point API failed: 404"
    },
    {
      "name": "Big Sky",
      "lat": 45.2846,
      "lng": -111.4008,
      "snowfall_7day": 7,
      "forecast_text": "Mostly cloudy, with a low around 32. West southwest wind 8 to 12 mph, with gusts as high as 26 mph.",
      "last_updated": "2025-11-11T01:55:08.329Z"
    },
    {
      "name": "Steamboat",
      "lat": 40.458,
      "lng": -106.8047,
      "snowfall_7day": 0,
      "forecast_text": "Partly cloudy, with a low around 30. East southeast wind 0 to 5 mph.",
      "last_updated": "2025-11-11T01:55:17.186Z"
    },
    {
      "name": "Mammoth Mountain",
      "lat": 37.6308,
      "lng": -119.0326,
      "snowfall_7day": 27,
      "forecast_text": "Mostly sunny. High near 52, with temperatures falling to around 44 in the afternoon. West southwest wind around 5 mph.",
      "last_updated": "2025-11-11T01:55:18.110Z"
    },
    {
      "name": "Squaw Valley",
      "lat": 39.197,
      "lng": -120.2356,
      "snowfall_7day": 8.5,
      "forecast_text": "Mostly sunny. High near 66, with temperatures falling to around 57 in the afternoon. West wind around 0 mph.",
      "last_updated": "2025-11-11T01:55:21.117Z"
    },
    {
      "name": "Telluride",
      "lat": 37.9375,
      "lng": -107.8123,
      "snowfall_7day": 4.5,
      "forecast_text": "Mostly clear, with a low around 28. Southeast wind 0 to 5 mph.",
      "last_updated": "2025-11-11T01:55:29.945Z"
    },
    {
      "name": "Sun Valley",
      "lat": 43.6966,
      "lng": -114.3553,
      "snowfall_7day": 0,
      "forecast_text": "Partly cloudy, with a low around 32. North northwest wind 2 to 7 mph.",
      "last_updated": "2025-11-11T01:55:30.534Z"
    },
    {
      "name": "Deer Valley",
      "lat": 40.6374,
      "lng": -111.4783,
      "snowfall_7day": 1.5,
      "forecast_text": "Partly cloudy. Low around 35, with temperatures rising to around 37 overnight. East southeast wind around 5 mph.",
      "last_updated": "2025-11-11T01:55:35.197Z"
    },
    {
      "name": "Killington",
      "lat": 43.6046,
      "lng": -72.822,
      "snowfall_7day": 7.5,
      "forecast_text": "A chance of snow before 11pm, then a slight chance of snow showers between 1am and 2am. Mostly cloudy, with a low around 19. West wind 18 to 23 mph. Chance of precipitation is 70%. New snow accumulation of 1 to 2 inches possible.",
      "last_updated": "2025-11-11T01:55:38.445Z"
    },
    {
      "name": "Stowe",
      "lat": 44.5303,
      "lng": -72.7817,
      "snowfall_7day": 18,
      "forecast_text": "Snow before midnight, then a chance of snow showers. Mostly cloudy, with a low around 20. West wind 10 to 16 mph. Chance of precipitation is 100%. New snow accumulation of 2 to 4 inches possible.",
      "last_updated": "2025-11-11T01:55:45.183Z"
    },
    {
      "name": "Alta",
      "lat": 40.5885,
      "lng": -111.6376,
      "snowfall_7day": 18.5,
      "forecast_text": "Partly cloudy, with a low around 35. West wind around 3 mph.",
      "last_updated": "2025-11-11T01:55:46.253Z"
    },
    {
      "name": "Snowbird",
      "lat": 40.5803,
      "lng": -111.6573,
      "snowfall_7day": 16.5,
      "forecast_text": "Partly cloudy, with a low around 35. West southwest wind around 6 mph.",
      "last_updated": "2025-11-11T01:55:47.230Z"
    },
    {
      "name": "Taos",
      "lat": 36.5924,
      "lng": -105.4467,
      "snowfall_7day": 4.5,
      "forecast_text": "Partly cloudy, with a low around 31. West wind 5 to 10 mph.",
      "last_updated": "2025-11-11T01:55:49.079Z"
    },
    {
      "name": "Copper Mountain",
      "lat": 39.5022,
      "lng": -106.1506,
      "snowfall_7day": 0,
      "forecast_text": "Mostly clear, with a low around 25. South southwest wind 6 to 12 mph, with gusts as high as 18 mph.",
      "last_updated": "2025-11-11T01:55:50.105Z"
    },
    {
      "name": "Winter Park",
      "lat": 39.8868,
      "lng": -105.7625,
      "snowfall_7day": 1.5,
      "forecast_text": "Partly cloudy, with a low around 30. Northwest wind 6 to 14 mph, with gusts as high as 22 mph.",
      "last_updated": "2025-11-11T01:55:51.114Z"
    },
    {
      "name": "Keystone",
      "lat": 39.605,
      "lng": -105.9347,
      "snowfall_7day": 0,
      "forecast_text": "Mostly clear, with a low around 28. West southwest wind 7 to 10 mph, with gusts as high as 16 mph.",
      "last_updated": "2025-11-11T01:55:52.437Z"
    },
    {
      "name": "Arapahoe Basin",
      "lat": 39.6426,
      "lng": -105.8717,
      "snowfall_7day": 5,
      "forecast_text": "Mostly clear, with a low around 29. West wind 10 to 22 mph, with gusts as high as 35 mph.",
      "last_updated": "2025-11-11T01:55:53.558Z"
    },
    {
      "name": "Crested Butte",
      "lat": 38.8997,
      "lng": -106.9653,
      "snowfall_7day": 0,
      "forecast_text": "Partly cloudy, with a low around 27. Northwest wind 0 to 5 mph.",
      "last_updated": "2025-11-11T01:55:55.011Z"
    },
    {
      "name": "Loveland",
      "lat": 39.6803,
      "lng": -105.8978,
      "snowfall_7day": 2,
      "forecast_text": "Mostly clear, with a low around 27. West wind 12 to 24 mph, with gusts as high as 37 mph.",
      "last_updated": "2025-11-11T01:56:01.085Z"
    },
    {
      "name": "Mt. Bachelor",
      "lat": 43.979,
      "lng": -121.688,
      "snowfall_7day": 31,
      "forecast_text": "A chance of rain. Mostly sunny. High near 49, with temperatures falling to around 38 in the afternoon. West wind around 6 mph. Chance of precipitation is 30%.",
      "last_updated": "2025-11-11T01:56:03.642Z"
    },
    {
      "name": "Crystal Mountain",
      "lat": 46.9358,
      "lng": -121.4742,
      "snowfall_7day": 23.5,
      "forecast_text": "Mostly sunny. High near 43, with temperatures falling to around 37 in the afternoon. West northwest wind around 8 mph. New rainfall amounts less than a tenth of an inch possible.",
      "last_updated": "2025-11-11T01:56:05.249Z"
    },
    {
      "name": "Stevens Pass",
      "lat": 47.7453,
      "lng": -121.0892,
      "snowfall_7day": 19.5,
      "forecast_text": "A chance of rain. Mostly cloudy. High near 43, with temperatures falling to around 39 in the afternoon. West wind around 6 mph. Chance of precipitation is 50%. New rainfall amounts less than a tenth of an inch possible.",
      "last_updated": "2025-11-11T01:56:08.198Z"
    },
    {
      "name": "Mt. Baker",
      "lat": 48.8597,
      "lng": -121.6686,
      "snowfall_7day": 32,
      "forecast_text": "A chance of rain and snow. Mostly cloudy. High near 43, with temperatures falling to around 37 in the afternoon. West southwest wind around 8 mph. Chance of precipitation is 50%. New rainfall amounts less than a tenth of an inch possible.",
      "last_updated": "2025-11-11T01:56:09.910Z"
    },
    {
      "name": "Schweitzer",
      "lat": 48.3642,
      "lng": -116.6228,
      "snowfall_7day": 11.5,
      "forecast_text": "Partly sunny. High near 39, with temperatures falling to around 37 in the afternoon. West wind around 6 mph. New rainfall amounts less than a tenth of an inch possible.",
      "last_updated": "2025-11-11T01:56:10.913Z"
    },
    {
      "name": "Sun Peaks",
      "lat": 50.8817,
      "lng": -119.8847,
      "snowfall_7day": 0,
      "forecast_text": "Data unavailable",
      "last_updated": "2025-11-11T01:56:11.599Z",
      "error": "Point API failed: 404"
    },
    {
      "name": "Revelstoke",
      "lat": 50.9981,
      "lng": -118.1956,
      "snowfall_7day": 0,
      "forecast_text": "Data unavailable",
      "last_updated": "2025-11-11T01:56:11.895Z",
      "error": "Point API failed: 404"
    },
    {
      "name": "Fernie",
      "lat": 49.4653,
      "lng": -115.0636,
      "snowfall_7day": 0,
      "forecast_text": "Data unavailable",
      "last_updated": "2025-11-11T01:56:12.959Z",
      "error": "Point API failed: 404"
    },
    {
      "name": "Big White",
      "lat": 49.7311,
      "lng": -118.935,
      "snowfall_7day": 0,
      "forecast_text": "Data unavailable",
      "last_updated": "2025-11-11T01:56:13.365Z",
      "error": "Point API failed: 404"
    },
    {
      "name": "Kicking Horse",
      "lat": 51.2514,
      "lng": -117.0492,
      "snowfall_7day": 0,
      "forecast_text": "Data unavailable",
      "last_updated": "2025-11-11T01:56:13.772Z",
      "error": "Point API failed: 404"
    },
    {
      "name": "Mont Tremblant",
      "lat": 46.2094,
      "lng": -74.5847,
      "snowfall_7day": 0,
      "forecast_text": "Data unavailable",
      "last_updated": "2025-11-11T01:56:14.084Z",
      "error": "Point API failed: 404"
    },
    {
      "name": "Blue Mountain",
      "lat": 44.5075,
      "lng": -80.3231,
      "snowfall_7day": 0,
      "forecast_text": "Data unavailable",
      "last_updated": "2025-11-11T01:56:14.377Z",
      "error": "Point API failed: 404"
    },
    {
      "name": "Sugarloaf",
      "lat": 45.0314,
      "lng": -70.3139,
      "snowfall_7day": 0,
      "forecast_text": "Rain and isolated thunderstorms before midnight, then a slight chance of sleet between midnight and 1am. Mostly cloudy, with a low around 27. West wind 10 to 15 mph, with gusts as high as 30 mph. Chance of precipitation is 90%. New rainfall amounts between a quarter and half of an inch possible.",
      "last_updated": "2025-11-11T01:56:15.569Z"
    },
    {
      "name": "Sunday River",
      "lat": 44.4697,
      "lng": -70.8561,
      "snowfall_7day": 0,
      "forecast_text": "Rain and isolated thunderstorms before midnight. Mostly cloudy, with a low around 31. Northwest wind 5 to 10 mph, with gusts as high as 30 mph. Chance of precipitation is 90%. New rainfall amounts between a quarter and half of an inch possible.",
      "last_updated": "2025-11-11T01:56:42.858Z"
    },
    {
      "name": "Sugarbush",
      "lat": 44.135,
      "lng": -72.9017,
      "snowfall_7day": 10,
      "forecast_text": "Snow likely before 11pm, then a slight chance of snow showers between midnight and 5am. Mostly cloudy, with a low around 20. West wind 9 to 15 mph. Chance of precipitation is 90%. New snow accumulation of 1 to 2 inches possible.",
      "last_updated": "2025-11-11T01:56:47.312Z"
    },
    {
      "name": "Stratton",
      "lat": 43.1133,
      "lng": -72.9083,
      "snowfall_7day": 1.5,
      "forecast_text": "A chance of snow showers before 10pm. Mostly cloudy, with a low around 23. West wind around 10 mph, with gusts as high as 24 mph. Chance of precipitation is 30%. New snow accumulation of less than one inch possible.",
      "last_updated": "2025-11-11T01:56:48.203Z"
    },
    {
      "name": "Okemo",
      "lat": 43.4017,
      "lng": -72.7167,
      "snowfall_7day": 0,
      "forecast_text": "A chance of snow before 10pm. Mostly cloudy, with a low around 23. West wind 10 to 17 mph. Chance of precipitation is 70%. New snow accumulation of less than half an inch possible.",
      "last_updated": "2025-11-11T01:56:49.596Z"
    },
    {
      "name": "Jay Peak",
      "lat": 44.9378,
      "lng": -72.5036,
      "snowfall_7day": 22.5,
      "forecast_text": "Snow before midnight, then a chance of snow showers. Cloudy, with a low around 20. West wind 9 to 17 mph. Chance of precipitation is 100%. New snow accumulation of 3 to 7 inches possible.",
      "last_updated": "2025-11-11T01:56:50.835Z"
    },
    {
      "name": "Smugglers' Notch",
      "lat": 44.5458,
      "lng": -72.7872,
      "snowfall_7day": 17.5,
      "forecast_text": "Snow before midnight, then a chance of snow showers. Cloudy, with a low around 20. West wind 10 to 15 mph. Chance of precipitation is 100%. New snow accumulation of 2 to 4 inches possible.",
      "last_updated": "2025-11-11T01:56:52.493Z"
    },
    {
      "name": "Loon Mountain",
      "lat": 44.0369,
      "lng": -71.6206,
      "snowfall_7day": 0,
      "forecast_text": "Rain before 9pm, then sleet likely between 9pm and 10pm, then a chance of snow between 10pm and midnight. Mostly cloudy, with a low around 24. Northwest wind 5 to 15 mph, with gusts as high as 25 mph. Chance of precipitation is 80%. New snow accumulation of less than half an inch possible.",
      "last_updated": "2025-11-11T01:56:53.595Z"
    },
    {
      "name": "Cannon Mountain",
      "lat": 44.1572,
      "lng": -71.6978,
      "snowfall_7day": 7.5,
      "forecast_text": "Sleet before 10pm, then a chance of snow between 10pm and midnight. Cloudy, with a low around 21. Northwest wind 10 to 20 mph, with gusts as high as 35 mph. Chance of precipitation is 80%. New snow accumulation of 1 to 2 inches possible.",
      "last_updated": "2025-11-11T01:56:54.878Z"
    },
    {
      "name": "Wildcat Mountain",
      "lat": 44.2636,
      "lng": -71.2328,
      "snowfall_7day": 5,
      "forecast_text": "Rain and isolated thunderstorms before midnight. Mostly cloudy, with a low around 29. Northwest wind 5 to 10 mph. Chance of precipitation is 90%. New rainfall amounts between a tenth and quarter of an inch possible.",
      "last_updated": "2025-11-11T01:56:57.038Z"
    },
    {
      "name": "Bretton Woods",
      "lat": 44.2633,
      "lng": -71.4439,
      "snowfall_7day": 5,
      "forecast_text": "Rain before 9pm, then sleet and rain between 9pm and 10pm, then a chance of snow between 10pm and 1am. Mostly cloudy, with a low around 26. Northwest wind around 5 mph. Chance of precipitation is 90%. New snow accumulation of less than one inch possible.",
      "last_updated": "2025-11-11T01:57:01.050Z"
    },
    {
      "name": "Snowbasin",
      "lat": 41.2156,
      "lng": -111.8567,
      "snowfall_7day": 1.5,
      "forecast_text": "Partly cloudy. Low around 36, with temperatures rising to around 38 overnight. West southwest wind around 5 mph.",
      "last_updated": "2025-11-11T01:57:03.831Z"
    },
    {
      "name": "Powder Mountain",
      "lat": 41.3814,
      "lng": -111.7806,
      "snowfall_7day": 11.5,
      "forecast_text": "Partly cloudy. Low around 34, with temperatures rising to around 36 overnight. West southwest wind around 5 mph.",
      "last_updated": "2025-11-11T01:57:15.423Z"
    },
    {
      "name": "Solitude",
      "lat": 40.62,
      "lng": -111.5917,
      "snowfall_7day": 11.5,
      "forecast_text": "Partly cloudy. Low around 35, with temperatures rising to around 38 overnight. West wind around 6 mph.",
      "last_updated": "2025-11-11T01:57:17.090Z"
    },
    {
      "name": "Brighton",
      "lat": 40.5981,
      "lng": -111.5831,
      "snowfall_7day": 12,
      "forecast_text": "Partly cloudy. Low around 35, with temperatures rising to around 37 overnight. West wind around 3 mph.",
      "last_updated": "2025-11-11T01:57:19.541Z"
    },
    {
      "name": "Snowmass",
      "lat": 39.2133,
      "lng": -106.9378,
      "snowfall_7day": 0,
      "forecast_text": "Partly cloudy, with a low around 32. Southwest wind around 5 mph.",
      "last_updated": "2025-11-11T01:57:22.241Z"
    },
    {
      "name": "Aspen Highlands",
      "lat": 39.1825,
      "lng": -106.8553,
      "snowfall_7day": 0,
      "forecast_text": "Partly cloudy, with a low around 31. South southwest wind around 5 mph.",
      "last_updated": "2025-11-11T01:57:23.527Z"
    },
    {
      "name": "Buttermilk",
      "lat": 39.2078,
      "lng": -106.8608,
      "snowfall_7day": 0,
      "forecast_text": "Partly cloudy, with a low around 30. South wind around 5 mph.",
      "last_updated": "2025-11-11T01:57:24.663Z"
    },
    {
      "name": "Beaver Creek",
      "lat": 39.6042,
      "lng": -106.5164,
      "snowfall_7day": 0,
      "forecast_text": "Mostly clear, with a low around 29. West wind around 5 mph.",
      "last_updated": "2025-11-11T01:57:25.811Z"
    },
    {
      "name": "Purgatory",
      "lat": 37.6303,
      "lng": -107.8139,
      "snowfall_7day": 6,
      "forecast_text": "Mostly clear, with a low around 30. North northwest wind around 5 mph.",
      "last_updated": "2025-11-11T01:57:26.330Z"
    },
    {
      "name": "Wolf Creek",
      "lat": 37.4722,
      "lng": -106.7931,
      "snowfall_7day": 11.5,
      "forecast_text": "Partly cloudy, with a low around 29. West southwest wind 5 to 10 mph.",
      "last_updated": "2025-11-11T01:57:41.463Z"
    },
    {
      "name": "Monarch Mountain",
      "lat": 38.5117,
      "lng": -106.3317,
      "snowfall_7day": 0,
      "forecast_text": "Partly cloudy, with a low around 27. West wind 15 to 20 mph.",
      "last_updated": "2025-11-11T01:57:44.122Z"
    },
    {
      "name": "Eldora",
      "lat": 39.9372,
      "lng": -105.5828,
      "snowfall_7day": 1.5,
      "forecast_text": "Partly cloudy, with a low around 32. West wind 16 to 26 mph, with gusts as high as 40 mph.",
      "last_updated": "2025-11-11T01:57:47.491Z"
    },
    {
      "name": "Grand Targhee",
      "lat": 43.7886,
      "lng": -110.9586,
      "snowfall_7day": 4,
      "forecast_text": "Partly cloudy, with a low around 24. South southwest wind around 12 mph.",
      "last_updated": "2025-11-11T01:57:48.662Z"
    },
    {
      "name": "Snow King",
      "lat": 43.4783,
      "lng": -110.7628,
      "snowfall_7day": 0,
      "forecast_text": "Partly cloudy, with a low around 30. South wind 5 to 8 mph.",
      "last_updated": "2025-11-11T01:57:52.492Z"
    },
    {
      "name": "Bridger Bowl",
      "lat": 45.8167,
      "lng": -110.8969,
      "snowfall_7day": 0,
      "forecast_text": "Partly cloudy. Low around 37, with temperatures rising to around 40 overnight. West southwest wind 10 to 16 mph, with gusts as high as 25 mph.",
      "last_updated": "2025-11-11T01:58:00.320Z"
    },
    {
      "name": "Big Mountain",
      "lat": 48.4928,
      "lng": -114.3483,
      "snowfall_7day": 5.5,
      "forecast_text": "Mostly cloudy, with a low around 29. Southwest wind around 8 mph.",
      "last_updated": "2025-11-11T01:58:01.777Z"
    },
    {
      "name": "Snowbowl",
      "lat": 46.9417,
      "lng": -113.9492,
      "snowfall_7day": 0,
      "forecast_text": "Rain likely between 7pm and midnight. Cloudy, with a low around 39. West wind around 9 mph, with gusts as high as 20 mph. Chance of precipitation is 60%. New rainfall amounts less than a tenth of an inch possible.",
      "last_updated": "2025-11-11T01:58:02.621Z"
    },
    {
      "name": "Bogus Basin",
      "lat": 43.7725,
      "lng": -116.0939,
      "snowfall_7day": 3,
      "forecast_text": "Partly cloudy, with a low around 36. West northwest wind around 5 mph.",
      "last_updated": "2025-11-11T01:58:10.672Z"
    },
    {
      "name": "Tamarack",
      "lat": 44.6922,
      "lng": -116.1344,
      "snowfall_7day": 8,
      "forecast_text": "Partly cloudy, with a low around 33. West wind around 3 mph.",
      "last_updated": "2025-11-11T01:58:13.926Z"
    },
    {
      "name": "Silver Mountain",
      "lat": 47.6764,
      "lng": -116.0703,
      "snowfall_7day": 0,
      "forecast_text": "Rain likely. Cloudy. High near 51, with temperatures falling to around 44 in the afternoon. Southwest wind around 3 mph. Chance of precipitation is 70%. New rainfall amounts less than a tenth of an inch possible.",
      "last_updated": "2025-11-11T01:58:22.255Z"
    },
    {
      "name": "Mt. Hood Meadows",
      "lat": 45.3319,
      "lng": -121.6653,
      "snowfall_7day": 20.5,
      "forecast_text": "A chance of rain showers. Mostly cloudy. High near 50, with temperatures falling to around 43 in the afternoon. West wind around 3 mph. Chance of precipitation is 40%.",
      "last_updated": "2025-11-11T01:58:23.286Z"
    },
    {
      "name": "Timberline",
      "lat": 45.3306,
      "lng": -121.7108,
      "snowfall_7day": 41.5,
      "forecast_text": "A chance of rain showers. Mostly cloudy. High near 45, with temperatures falling to around 41 in the afternoon. West wind around 6 mph. Chance of precipitation is 50%.",
      "last_updated": "2025-11-11T01:58:26.377Z"
    },
    {
      "name": "Willamette Pass",
      "lat": 43.6006,
      "lng": -122.0336,
      "snowfall_7day": 4.5,
      "forecast_text": "Sunny. High near 55, with temperatures falling to around 46 in the afternoon. West wind around 8 mph.",
      "last_updated": "2025-11-11T01:58:29.772Z"
    },
    {
      "name": "Mission Ridge",
      "lat": 47.2917,
      "lng": -120.3997,
      "snowfall_7day": 0,
      "forecast_text": "Mostly sunny. High near 45, with temperatures falling to around 38 in the afternoon. West wind around 10 mph.",
      "last_updated": "2025-11-11T01:58:31.012Z"
    },
    {
      "name": "Snoqualmie",
      "lat": 47.4219,
      "lng": -121.4136,
      "snowfall_7day": 1.5,
      "forecast_text": "Rain likely. Cloudy. High near 46, with temperatures falling to around 43 in the afternoon. West wind around 3 mph. Chance of precipitation is 60%. New rainfall amounts less than a tenth of an inch possible.",
      "last_updated": "2025-11-11T01:58:31.851Z"
    },
    {
      "name": "Mt. Spokane",
      "lat": 47.9208,
      "lng": -117.0856,
      "snowfall_7day": 3.5,
      "forecast_text": "A slight chance of rain. Mostly sunny. High near 43, with temperatures falling to around 39 in the afternoon. Southwest wind around 6 mph. Chance of precipitation is 20%. New rainfall amounts less than a tenth of an inch possible.",
      "last_updated": "2025-11-11T01:58:33.020Z"
    },
    {
      "name": "White Pass",
      "lat": 46.6394,
      "lng": -121.3908,
      "snowfall_7day": 13.5,
      "forecast_text": "A chance of rain. Mostly cloudy. High near 47, with temperatures falling to around 40 in the afternoon. West wind around 6 mph. Chance of precipitation is 30%. New rainfall amounts less than a tenth of an inch possible.",
      "last_updated": "2025-11-11T01:58:36.019Z"
    },
    {
      "name": "49 Degrees North",
      "lat": 48.7511,
      "lng": -117.6369,
      "snowfall_7day": 0,
      "forecast_text": "Mostly sunny. High near 46, with temperatures falling to around 41 in the afternoon. South wind around 2 mph.",
      "last_updated": "2025-11-11T01:58:37.169Z"
    },
    {
      "name": "Red Mountain",
      "lat": 49.0917,
      "lng": -117.8233,
      "snowfall_7day": 0,
      "forecast_text": "Data unavailable",
      "last_updated": "2025-11-11T01:58:40.600Z",
      "error": "Point API failed: 404"
    },
    {
      "name": "Whitewater",
      "lat": 49.5394,
      "lng": -117.2717,
      "snowfall_7day": 0,
      "forecast_text": "Data unavailable",
      "last_updated": "2025-11-11T01:58:46.748Z",
      "error": "Point API failed: 404"
    },
    {
      "name": "Panorama",
      "lat": 50.8036,
      "lng": -116.0533,
      "snowfall_7day": 0,
      "forecast_text": "Data unavailable",
      "last_updated": "2025-11-11T01:58:47.932Z",
      "error": "Point API failed: 404"
    },
    {
      "name": "Marmot Basin",
      "lat": 52.8236,
      "lng": -118.0747,
      "snowfall_7day": 0,
      "forecast_text": "Data unavailable",
      "last_updated": "2025-11-11T01:58:48.255Z",
      "error": "Point API failed: 404"
    },
    {
      "name": "Nakiska",
      "lat": 50.98,
      "lng": -115.0733,
      "snowfall_7day": 0,
      "forecast_text": "Data unavailable",
      "last_updated": "2025-11-11T01:58:48.694Z",
      "error": "Point API failed: 404"
    },
    {
      "name": "Castle Mountain",
      "lat": 49.4058,
      "lng": -114.5169,
      "snowfall_7day": 0,
      "forecast_text": "Data unavailable",
      "last_updated": "2025-11-11T01:58:48.989Z",
      "error": "Point API failed: 404"
    },
    {
      "name": "Norquay",
      "lat": 51.1967,
      "lng": -115.5531,
      "snowfall_7day": 0,
      "forecast_text": "Data unavailable",
      "last_updated": "2025-11-11T01:58:49.308Z",
      "error": "Point API failed: 404"
    },
    {
      "name": "Le Massif",
      "lat": 47.3136,
      "lng": -70.6358,
      "snowfall_7day": 0,
      "forecast_text": "Data unavailable",
      "last_updated": "2025-11-11T01:58:49.860Z",
      "error": "Point API failed: 404"
    },
    {
      "name": "Calabogie",
      "lat": 45.2906,
      "lng": -76.7019,
      "snowfall_7day": 0,
      "forecast_text": "Data unavailable",
      "last_updated": "2025-11-11T01:58:50.169Z",
      "error": "Point API failed: 404"
    },
    {
      "name": "Sierra-at-Tahoe",
      "lat": 38.7986,
      "lng": -120.0828,
      "snowfall_7day": 21,
      "forecast_text": "Partly sunny, with a high near 60. Southwest wind around 0 mph.",
      "last_updated": "2025-11-11T01:58:52.706Z"
    },
    {
      "name": "Kirkwood",
      "lat": 38.6867,
      "lng": -120.0656,
      "snowfall_7day": 33,
      "forecast_text": "Partly sunny. High near 59, with temperatures falling to around 50 in the afternoon. West southwest wind around 2 mph.",
      "last_updated": "2025-11-11T01:58:53.699Z"
    },
    {
      "name": "Northstar",
      "lat": 39.2733,
      "lng": -120.1211,
      "snowfall_7day": 5,
      "forecast_text": "Mostly sunny. High near 66, with temperatures falling to around 58 in the afternoon. West wind around 0 mph.",
      "last_updated": "2025-11-11T01:58:58.076Z"
    },
    {
      "name": "Homewood",
      "lat": 39.0833,
      "lng": -120.1667,
      "snowfall_7day": 10,
      "forecast_text": "Mostly sunny, with a high near 61. West wind around 0 mph.",
      "last_updated": "2025-11-11T01:58:59.156Z"
    },
    {
      "name": "Mt. Rose",
      "lat": 39.3397,
      "lng": -119.8894,
      "snowfall_7day": 8.5,
      "forecast_text": "Mostly sunny. High near 58, with temperatures falling to around 49 in the afternoon. West wind around 5 mph.",
      "last_updated": "2025-11-11T01:59:00.587Z"
    },
    {
      "name": "Diamond Peak",
      "lat": 39.2525,
      "lng": -119.9169,
      "snowfall_7day": 5,
      "forecast_text": "Mostly sunny, with a high near 61. West wind around 0 mph.",
      "last_updated": "2025-11-11T01:59:01.499Z"
    },
    {
      "name": "June Mountain",
      "lat": 37.7853,
      "lng": -119.0781,
      "snowfall_7day": 7.5,
      "forecast_text": "Mostly sunny. High near 67, with temperatures falling to around 59 in the afternoon. North wind around 0 mph.",
      "last_updated": "2025-11-11T01:59:11.724Z"
    },
    {
      "name": "Bear Mountain",
      "lat": 34.235,
      "lng": -116.865,
      "snowfall_7day": 0,
      "forecast_text": "Mostly sunny, with a high near 69. Southwest wind around 0 mph.",
      "last_updated": "2025-11-11T01:59:13.332Z"
    },
    {
      "name": "Snow Summit",
      "lat": 34.2306,
      "lng": -116.8886,
      "snowfall_7day": 0,
      "forecast_text": "Mostly sunny, with a high near 65. West wind around 0 mph.",
      "last_updated": "2025-11-11T01:59:17.521Z"
    },
    {
      "name": "Mountain High",
      "lat": 34.3811,
      "lng": -117.6881,
      "snowfall_7day": 0,
      "forecast_text": "Sunny, with a high near 65. Wind around 0 mph.",
      "last_updated": "2025-11-11T01:59:22.358Z"
    },
    {
      "name": "Ski Santa Fe",
      "lat": 35.7869,
      "lng": -105.7961,
      "snowfall_7day": 2,
      "forecast_text": "Mostly clear, with a low around 31. North wind 5 to 15 mph.",
      "last_updated": "2025-11-11T01:59:25.748Z"
    },
    {
      "name": "Angel Fire",
      "lat": 36.3975,
      "lng": -105.2886,
      "snowfall_7day": 0,
      "forecast_text": "Partly cloudy, with a low around 32. West wind 5 to 10 mph.",
      "last_updated": "2025-11-11T01:59:27.308Z"
    },
    {
      "name": "Whiteface Mountain",
      "lat": 44.3659,
      "lng": -73.9024,
      "snowfall_7day": 4.5,
      "forecast_text": "A chance of snow before 10pm. Mostly cloudy, with a low around 15. Wind chill values as low as 0. West wind 16 to 23 mph. Chance of precipitation is 60%. New snow accumulation of 1 to 2 inches possible.",
      "last_updated": "2025-11-11T01:59:31.865Z"
    }
  ]
}