{
  "generated_at": "2026-04-01T13:56:55.160Z",
  "total_resorts": 115,
  "data_source": "Open-Meteo",
  "resorts": [
    {
      "name": "Whistler Blackcomb",
      "lat": 50.1163,
      "lng": -122.9574,
      "snowfall_24hr": 1.5,
      "snowfall_48hr": 2.4,
      "snowfall_7day": 3.6,
      "forecast_text": "1.5\" expected in next 24 hours",
      "last_updated": "2026-04-01T13:56:32.036Z"
    },
    {
      "name": "Vail",
      "lat": 39.6403,
      "lng": -106.3742,
      "snowfall_24hr": 3.4,
      "snowfall_48hr": 5,
      "snowfall_7day": 8.4,
      "forecast_text": "3.4\" expected in next 24 hours",
      "last_updated": "2026-04-01T13:56:32.238Z"
    },
    {
      "name": "Park City",
      "lat": 40.6514,
      "lng": -111.5079,
      "snowfall_24hr": 0.8,
      "snowfall_48hr": 3.2,
      "snowfall_7day": 3.9,
      "forecast_text": "0.8\" expected in next 24 hours",
      "last_updated": "2026-04-01T13:56:32.438Z"
    },
    {
      "name": "Breckenridge",
      "lat": 39.4817,
      "lng": -106.0384,
      "snowfall_24hr": 1.4,
      "snowfall_48hr": 1.9,
      "snowfall_7day": 2.3,
      "forecast_text": "1.4\" expected in next 24 hours",
      "last_updated": "2026-04-01T13:56:32.638Z"
    },
    {
      "name": "Heavenly",
      "lat": 38.935,
      "lng": -119.9403,
      "snowfall_24hr": 0.7,
      "snowfall_48hr": 2.1,
      "snowfall_7day": 2.3,
      "forecast_text": "0.7\" expected in next 24 hours",
      "last_updated": "2026-04-01T13:56:32.838Z"
    },
    {
      "name": "Aspen Snowmass",
      "lat": 39.1911,
      "lng": -106.8175,
      "snowfall_24hr": 1.3,
      "snowfall_48hr": 2.8,
      "snowfall_7day": 4.8,
      "forecast_text": "1.3\" expected in next 24 hours",
      "last_updated": "2026-04-01T13:56:33.038Z"
    },
    {
      "name": "Jackson Hole",
      "lat": 43.5875,
      "lng": -110.8278,
      "snowfall_24hr": 0.1,
      "snowfall_48hr": 6.5,
      "snowfall_7day": 9.9,
      "forecast_text": "0.1\" expected in next 24 hours",
      "last_updated": "2026-04-01T13:56:33.240Z"
    },
    {
      "name": "Banff Sunshine",
      "lat": 51.1158,
      "lng": -115.7631,
      "snowfall_24hr": 0.8,
      "snowfall_48hr": 3,
      "snowfall_7day": 3.4,
      "forecast_text": "0.8\" expected in next 24 hours",
      "last_updated": "2026-04-01T13:56:33.439Z"
    },
    {
      "name": "Lake Louise",
      "lat": 51.4254,
      "lng": -116.1773,
      "snowfall_24hr": 0,
      "snowfall_48hr": 0.9,
      "snowfall_7day": 1.2,
      "forecast_text": "0.9\" expected in next 48 hours",
      "last_updated": "2026-04-01T13:56:33.639Z"
    },
    {
      "name": "Big Sky",
      "lat": 45.2846,
      "lng": -111.4008,
      "snowfall_24hr": 0.5,
      "snowfall_48hr": 4.4,
      "snowfall_7day": 7.7,
      "forecast_text": "0.5\" expected in next 24 hours",
      "last_updated": "2026-04-01T13:56:33.839Z"
    },
    {
      "name": "Steamboat",
      "lat": 40.458,
      "lng": -106.8047,
      "snowfall_24hr": 0.1,
      "snowfall_48hr": 4,
      "snowfall_7day": 5,
      "forecast_text": "0.1\" expected in next 24 hours",
      "last_updated": "2026-04-01T13:56:34.038Z"
    },
    {
      "name": "Mammoth Mountain",
      "lat": 37.6308,
      "lng": -119.0326,
      "snowfall_24hr": 0.6,
      "snowfall_48hr": 3.7,
      "snowfall_7day": 3.8,
      "forecast_text": "0.6\" expected in next 24 hours",
      "last_updated": "2026-04-01T13:56:34.245Z"
    },
    {
      "name": "Squaw Valley",
      "lat": 39.197,
      "lng": -120.2356,
      "snowfall_24hr": 7.2,
      "snowfall_48hr": 10.6,
      "snowfall_7day": 11,
      "forecast_text": "7.2\" expected in next 24 hours",
      "last_updated": "2026-04-01T13:56:34.443Z"
    },
    {
      "name": "Telluride",
      "lat": 37.9375,
      "lng": -107.8123,
      "snowfall_24hr": 3.9,
      "snowfall_48hr": 4.4,
      "snowfall_7day": 6.3,
      "forecast_text": "3.9\" expected in next 24 hours",
      "last_updated": "2026-04-01T13:56:34.647Z"
    },
    {
      "name": "Sun Valley",
      "lat": 43.6966,
      "lng": -114.3553,
      "snowfall_24hr": 0.6,
      "snowfall_48hr": 0.9,
      "snowfall_7day": 0.9,
      "forecast_text": "0.6\" expected in next 24 hours",
      "last_updated": "2026-04-01T13:56:34.847Z"
    },
    {
      "name": "Deer Valley",
      "lat": 40.6374,
      "lng": -111.4783,
      "snowfall_24hr": 3,
      "snowfall_48hr": 6.3,
      "snowfall_7day": 6.4,
      "forecast_text": "3.0\" expected in next 24 hours",
      "last_updated": "2026-04-01T13:56:35.045Z"
    },
    {
      "name": "Killington",
      "lat": 43.6046,
      "lng": -72.822,
      "snowfall_24hr": 0,
      "snowfall_48hr": 0,
      "snowfall_7day": 0.1,
      "forecast_text": "0.1\" expected in next 7 days",
      "last_updated": "2026-04-01T13:56:35.245Z"
    },
    {
      "name": "Stowe",
      "lat": 44.5303,
      "lng": -72.7817,
      "snowfall_24hr": 0,
      "snowfall_48hr": 0.8,
      "snowfall_7day": 1,
      "forecast_text": "0.8\" expected in next 48 hours",
      "last_updated": "2026-04-01T13:56:35.444Z"
    },
    {
      "name": "Alta",
      "lat": 40.5885,
      "lng": -111.6376,
      "snowfall_24hr": 6.5,
      "snowfall_48hr": 12.3,
      "snowfall_7day": 12.6,
      "forecast_text": "6.5\" expected in next 24 hours",
      "last_updated": "2026-04-01T13:56:35.643Z"
    },
    {
      "name": "Snowbird",
      "lat": 40.5803,
      "lng": -111.6573,
      "snowfall_24hr": 6.5,
      "snowfall_48hr": 12.1,
      "snowfall_7day": 12.4,
      "forecast_text": "6.5\" expected in next 24 hours",
      "last_updated": "2026-04-01T13:56:35.841Z"
    },
    {
      "name": "Taos",
      "lat": 36.5924,
      "lng": -105.4467,
      "snowfall_24hr": 7.4,
      "snowfall_48hr": 7.4,
      "snowfall_7day": 7.4,
      "forecast_text": "7.4\" expected in next 24 hours",
      "last_updated": "2026-04-01T13:56:36.039Z"
    },
    {
      "name": "Copper Mountain",
      "lat": 39.5022,
      "lng": -106.1506,
      "snowfall_24hr": 2.7,
      "snowfall_48hr": 3.8,
      "snowfall_7day": 5,
      "forecast_text": "2.7\" expected in next 24 hours",
      "last_updated": "2026-04-01T13:56:36.238Z"
    },
    {
      "name": "Winter Park",
      "lat": 39.8868,
      "lng": -105.7625,
      "snowfall_24hr": 0.8,
      "snowfall_48hr": 1.5,
      "snowfall_7day": 2.7,
      "forecast_text": "0.8\" expected in next 24 hours",
      "last_updated": "2026-04-01T13:56:36.436Z"
    },
    {
      "name": "Keystone",
      "lat": 39.605,
      "lng": -105.9347,
      "snowfall_24hr": 1.7,
      "snowfall_48hr": 2.3,
      "snowfall_7day": 2.9,
      "forecast_text": "1.7\" expected in next 24 hours",
      "last_updated": "2026-04-01T13:56:36.634Z"
    },
    {
      "name": "Arapahoe Basin",
      "lat": 39.6426,
      "lng": -105.8717,
      "snowfall_24hr": 2.9,
      "snowfall_48hr": 4.1,
      "snowfall_7day": 4.6,
      "forecast_text": "2.9\" expected in next 24 hours",
      "last_updated": "2026-04-01T13:56:36.833Z"
    },
    {
      "name": "Crested Butte",
      "lat": 38.8997,
      "lng": -106.9653,
      "snowfall_24hr": 7.4,
      "snowfall_48hr": 8.4,
      "snowfall_7day": 9.4,
      "forecast_text": "7.4\" expected in next 24 hours",
      "last_updated": "2026-04-01T13:56:37.031Z"
    },
    {
      "name": "Loveland",
      "lat": 39.6803,
      "lng": -105.8978,
      "snowfall_24hr": 3.6,
      "snowfall_48hr": 4.6,
      "snowfall_7day": 5.2,
      "forecast_text": "3.6\" expected in next 24 hours",
      "last_updated": "2026-04-01T13:56:37.229Z"
    },
    {
      "name": "Mt. Bachelor",
      "lat": 43.979,
      "lng": -121.688,
      "snowfall_24hr": 9.8,
      "snowfall_48hr": 16.3,
      "snowfall_7day": 16.4,
      "forecast_text": "9.8\" expected in next 24 hours",
      "last_updated": "2026-04-01T13:56:37.433Z"
    },
    {
      "name": "Crystal Mountain",
      "lat": 46.9358,
      "lng": -121.4742,
      "snowfall_24hr": 2.2,
      "snowfall_48hr": 2.9,
      "snowfall_7day": 2.9,
      "forecast_text": "2.2\" expected in next 24 hours",
      "last_updated": "2026-04-01T13:56:37.632Z"
    },
    {
      "name": "Stevens Pass",
      "lat": 47.7453,
      "lng": -121.0892,
      "snowfall_24hr": 1.4,
      "snowfall_48hr": 3.3,
      "snowfall_7day": 3.3,
      "forecast_text": "1.4\" expected in next 24 hours",
      "last_updated": "2026-04-01T13:56:37.831Z"
    },
    {
      "name": "Mt. Baker",
      "lat": 48.8597,
      "lng": -121.6686,
      "snowfall_24hr": 4.8,
      "snowfall_48hr": 5.6,
      "snowfall_7day": 5.7,
      "forecast_text": "4.8\" expected in next 24 hours",
      "last_updated": "2026-04-01T13:56:38.029Z"
    },
    {
      "name": "Schweitzer",
      "lat": 48.3642,
      "lng": -116.6228,
      "snowfall_24hr": 1.3,
      "snowfall_48hr": 4.2,
      "snowfall_7day": 4.2,
      "forecast_text": "1.3\" expected in next 24 hours",
      "last_updated": "2026-04-01T13:56:38.228Z"
    },
    {
      "name": "Sun Peaks",
      "lat": 50.8817,
      "lng": -119.8847,
      "snowfall_24hr": 0,
      "snowfall_48hr": 0,
      "snowfall_7day": 0,
      "forecast_text": "No snow expected",
      "last_updated": "2026-04-01T13:56:38.429Z"
    },
    {
      "name": "Revelstoke",
      "lat": 50.9981,
      "lng": -118.1956,
      "snowfall_24hr": 0,
      "snowfall_48hr": 0.3,
      "snowfall_7day": 0.3,
      "forecast_text": "0.3\" expected in next 48 hours",
      "last_updated": "2026-04-01T13:56:38.627Z"
    },
    {
      "name": "Fernie",
      "lat": 49.4653,
      "lng": -115.0636,
      "snowfall_24hr": 0,
      "snowfall_48hr": 0.3,
      "snowfall_7day": 1.4,
      "forecast_text": "0.0\" expected in next 24 hours",
      "last_updated": "2026-04-01T13:56:38.825Z"
    },
    {
      "name": "Big White",
      "lat": 49.7311,
      "lng": -118.935,
      "snowfall_24hr": 0.9,
      "snowfall_48hr": 6,
      "snowfall_7day": 6,
      "forecast_text": "0.9\" expected in next 24 hours",
      "last_updated": "2026-04-01T13:56:39.023Z"
    },
    {
      "name": "Kicking Horse",
      "lat": 51.2514,
      "lng": -117.0492,
      "snowfall_24hr": 0.3,
      "snowfall_48hr": 0.9,
      "snowfall_7day": 1.4,
      "forecast_text": "0.3\" expected in next 24 hours",
      "last_updated": "2026-04-01T13:56:39.222Z"
    },
    {
      "name": "Mont Tremblant",
      "lat": 46.2094,
      "lng": -74.5847,
      "snowfall_24hr": 0,
      "snowfall_48hr": 1,
      "snowfall_7day": 3,
      "forecast_text": "1.0\" expected in next 48 hours",
      "last_updated": "2026-04-01T13:56:39.421Z"
    },
    {
      "name": "Blue Mountain",
      "lat": 44.5075,
      "lng": -80.3231,
      "snowfall_24hr": 0,
      "snowfall_48hr": 0,
      "snowfall_7day": 0.7,
      "forecast_text": "0.7\" expected in next 7 days",
      "last_updated": "2026-04-01T13:56:39.620Z"
    },
    {
      "name": "Sugarloaf",
      "lat": 45.0314,
      "lng": -70.3139,
      "snowfall_24hr": 0,
      "snowfall_48hr": 0.2,
      "snowfall_7day": 2.8,
      "forecast_text": "0.2\" expected in next 48 hours",
      "last_updated": "2026-04-01T13:56:39.820Z"
    },
    {
      "name": "Sunday River",
      "lat": 44.4697,
      "lng": -70.8561,
      "snowfall_24hr": 0,
      "snowfall_48hr": 0.4,
      "snowfall_7day": 1.5,
      "forecast_text": "0.4\" expected in next 48 hours",
      "last_updated": "2026-04-01T13:56:40.020Z"
    },
    {
      "name": "Sugarbush",
      "lat": 44.135,
      "lng": -72.9017,
      "snowfall_24hr": 0,
      "snowfall_48hr": 0,
      "snowfall_7day": 0.3,
      "forecast_text": "0.0\" expected in next 48 hours",
      "last_updated": "2026-04-01T13:56:40.219Z"
    },
    {
      "name": "Stratton",
      "lat": 43.1133,
      "lng": -72.9083,
      "snowfall_24hr": 0,
      "snowfall_48hr": 0,
      "snowfall_7day": 0.2,
      "forecast_text": "0.0\" expected in next 48 hours",
      "last_updated": "2026-04-01T13:56:40.419Z"
    },
    {
      "name": "Okemo",
      "lat": 43.4017,
      "lng": -72.7167,
      "snowfall_24hr": 0,
      "snowfall_48hr": 0,
      "snowfall_7day": 0.1,
      "forecast_text": "0.1\" expected in next 7 days",
      "last_updated": "2026-04-01T13:56:40.620Z"
    },
    {
      "name": "Jay Peak",
      "lat": 44.9378,
      "lng": -72.5036,
      "snowfall_24hr": 0,
      "snowfall_48hr": 0.9,
      "snowfall_7day": 1.9,
      "forecast_text": "0.9\" expected in next 48 hours",
      "last_updated": "2026-04-01T13:56:40.819Z"
    },
    {
      "name": "Smugglers' Notch",
      "lat": 44.5458,
      "lng": -72.7872,
      "snowfall_24hr": 0,
      "snowfall_48hr": 1.2,
      "snowfall_7day": 1.5,
      "forecast_text": "1.2\" expected in next 48 hours",
      "last_updated": "2026-04-01T13:56:41.018Z"
    },
    {
      "name": "Loon Mountain",
      "lat": 44.0369,
      "lng": -71.6206,
      "snowfall_24hr": 0,
      "snowfall_48hr": 0,
      "snowfall_7day": 0.4,
      "forecast_text": "0.4\" expected in next 7 days",
      "last_updated": "2026-04-01T13:56:41.216Z"
    },
    {
      "name": "Cannon Mountain",
      "lat": 44.1572,
      "lng": -71.6978,
      "snowfall_24hr": 0,
      "snowfall_48hr": 0.1,
      "snowfall_7day": 0.7,
      "forecast_text": "0.1\" expected in next 48 hours",
      "last_updated": "2026-04-01T13:56:41.415Z"
    },
    {
      "name": "Wildcat Mountain",
      "lat": 44.2636,
      "lng": -71.2328,
      "snowfall_24hr": 0,
      "snowfall_48hr": 0.5,
      "snowfall_7day": 1.4,
      "forecast_text": "0.5\" expected in next 48 hours",
      "last_updated": "2026-04-01T13:56:41.613Z"
    },
    {
      "name": "Bretton Woods",
      "lat": 44.2633,
      "lng": -71.4439,
      "snowfall_24hr": 0,
      "snowfall_48hr": 0,
      "snowfall_7day": 0.7,
      "forecast_text": "0.7\" expected in next 7 days",
      "last_updated": "2026-04-01T13:56:41.813Z"
    },
    {
      "name": "Snowbasin",
      "lat": 41.2156,
      "lng": -111.8567,
      "snowfall_24hr": 0,
      "snowfall_48hr": 5,
      "snowfall_7day": 5.2,
      "forecast_text": "0.0\" expected in next 24 hours",
      "last_updated": "2026-04-01T13:56:42.012Z"
    },
    {
      "name": "Powder Mountain",
      "lat": 41.3814,
      "lng": -111.7806,
      "snowfall_24hr": 3.8,
      "snowfall_48hr": 12,
      "snowfall_7day": 12.4,
      "forecast_text": "3.8\" expected in next 24 hours",
      "last_updated": "2026-04-01T13:56:42.211Z"
    },
    {
      "name": "Solitude",
      "lat": 40.62,
      "lng": -111.5917,
      "snowfall_24hr": 4.9,
      "snowfall_48hr": 10.1,
      "snowfall_7day": 10.3,
      "forecast_text": "4.9\" expected in next 24 hours",
      "last_updated": "2026-04-01T13:56:42.410Z"
    },
    {
      "name": "Brighton",
      "lat": 40.5981,
      "lng": -111.5831,
      "snowfall_24hr": 5.7,
      "snowfall_48hr": 11.1,
      "snowfall_7day": 11.3,
      "forecast_text": "5.7\" expected in next 24 hours",
      "last_updated": "2026-04-01T13:56:42.608Z"
    },
    {
      "name": "Snowmass",
      "lat": 39.2133,
      "lng": -106.9378,
      "snowfall_24hr": 1.9,
      "snowfall_48hr": 3.3,
      "snowfall_7day": 5.2,
      "forecast_text": "1.9\" expected in next 24 hours",
      "last_updated": "2026-04-01T13:56:42.806Z"
    },
    {
      "name": "Aspen Highlands",
      "lat": 39.1825,
      "lng": -106.8553,
      "snowfall_24hr": 1.7,
      "snowfall_48hr": 3.2,
      "snowfall_7day": 5.2,
      "forecast_text": "1.7\" expected in next 24 hours",
      "last_updated": "2026-04-01T13:56:43.005Z"
    },
    {
      "name": "Buttermilk",
      "lat": 39.2078,
      "lng": -106.8608,
      "snowfall_24hr": 1.3,
      "snowfall_48hr": 2.8,
      "snowfall_7day": 4.8,
      "forecast_text": "1.3\" expected in next 24 hours",
      "last_updated": "2026-04-01T13:56:43.203Z"
    },
    {
      "name": "Beaver Creek",
      "lat": 39.6042,
      "lng": -106.5164,
      "snowfall_24hr": 0.9,
      "snowfall_48hr": 2.1,
      "snowfall_7day": 4.9,
      "forecast_text": "0.9\" expected in next 24 hours",
      "last_updated": "2026-04-01T13:56:43.401Z"
    },
    {
      "name": "Purgatory",
      "lat": 37.6303,
      "lng": -107.8139,
      "snowfall_24hr": 6.3,
      "snowfall_48hr": 6.3,
      "snowfall_7day": 6.3,
      "forecast_text": "6.3\" expected in next 24 hours",
      "last_updated": "2026-04-01T13:56:43.600Z"
    },
    {
      "name": "Wolf Creek",
      "lat": 37.4722,
      "lng": -106.7931,
      "snowfall_24hr": 15.5,
      "snowfall_48hr": 15.5,
      "snowfall_7day": 15.8,
      "forecast_text": "15.5\" expected in next 24 hours",
      "last_updated": "2026-04-01T13:56:43.799Z"
    },
    {
      "name": "Monarch Mountain",
      "lat": 38.5117,
      "lng": -106.3317,
      "snowfall_24hr": 8.6,
      "snowfall_48hr": 8.6,
      "snowfall_7day": 9.2,
      "forecast_text": "8.6\" expected in next 24 hours",
      "last_updated": "2026-04-01T13:56:43.997Z"
    },
    {
      "name": "Eldora",
      "lat": 39.9372,
      "lng": -105.5828,
      "snowfall_24hr": 0.8,
      "snowfall_48hr": 1,
      "snowfall_7day": 1.2,
      "forecast_text": "0.8\" expected in next 24 hours",
      "last_updated": "2026-04-01T13:56:44.196Z"
    },
    {
      "name": "Grand Targhee",
      "lat": 43.7886,
      "lng": -110.9586,
      "snowfall_24hr": 1.9,
      "snowfall_48hr": 7.2,
      "snowfall_7day": 12.3,
      "forecast_text": "1.9\" expected in next 24 hours",
      "last_updated": "2026-04-01T13:56:44.394Z"
    },
    {
      "name": "Snow King",
      "lat": 43.4783,
      "lng": -110.7628,
      "snowfall_24hr": 0,
      "snowfall_48hr": 1.9,
      "snowfall_7day": 2.7,
      "forecast_text": "1.9\" expected in next 48 hours",
      "last_updated": "2026-04-01T13:56:44.593Z"
    },
    {
      "name": "Bridger Bowl",
      "lat": 45.8167,
      "lng": -110.8969,
      "snowfall_24hr": 0.3,
      "snowfall_48hr": 5.9,
      "snowfall_7day": 8.6,
      "forecast_text": "0.3\" expected in next 24 hours",
      "last_updated": "2026-04-01T13:56:44.792Z"
    },
    {
      "name": "Big Mountain",
      "lat": 48.4928,
      "lng": -114.3483,
      "snowfall_24hr": 0.8,
      "snowfall_48hr": 7.3,
      "snowfall_7day": 8.6,
      "forecast_text": "0.8\" expected in next 24 hours",
      "last_updated": "2026-04-01T13:56:44.990Z"
    },
    {
      "name": "Snowbowl",
      "lat": 46.9417,
      "lng": -113.9492,
      "snowfall_24hr": 0,
      "snowfall_48hr": 0.5,
      "snowfall_7day": 0.6,
      "forecast_text": "0.5\" expected in next 48 hours",
      "last_updated": "2026-04-01T13:56:45.189Z"
    },
    {
      "name": "Bogus Basin",
      "lat": 43.7725,
      "lng": -116.0939,
      "snowfall_24hr": 2.8,
      "snowfall_48hr": 5.4,
      "snowfall_7day": 5.4,
      "forecast_text": "2.8\" expected in next 24 hours",
      "last_updated": "2026-04-01T13:56:45.387Z"
    },
    {
      "name": "Tamarack",
      "lat": 44.6922,
      "lng": -116.1344,
      "snowfall_24hr": 1.6,
      "snowfall_48hr": 8.4,
      "snowfall_7day": 8.4,
      "forecast_text": "1.6\" expected in next 24 hours",
      "last_updated": "2026-04-01T13:56:45.588Z"
    },
    {
      "name": "Silver Mountain",
      "lat": 47.6764,
      "lng": -116.0703,
      "snowfall_24hr": 0,
      "snowfall_48hr": 0.7,
      "snowfall_7day": 1,
      "forecast_text": "0.7\" expected in next 48 hours",
      "last_updated": "2026-04-01T13:56:45.787Z"
    },
    {
      "name": "Mt. Hood Meadows",
      "lat": 45.3319,
      "lng": -121.6653,
      "snowfall_24hr": 6.9,
      "snowfall_48hr": 11.8,
      "snowfall_7day": 11.8,
      "forecast_text": "6.9\" expected in next 24 hours",
      "last_updated": "2026-04-01T13:56:45.986Z"
    },
    {
      "name": "Timberline",
      "lat": 45.3306,
      "lng": -121.7108,
      "snowfall_24hr": 8.8,
      "snowfall_48hr": 19.2,
      "snowfall_7day": 19.2,
      "forecast_text": "8.8\" expected in next 24 hours",
      "last_updated": "2026-04-01T13:56:46.184Z"
    },
    {
      "name": "Willamette Pass",
      "lat": 43.6006,
      "lng": -122.0336,
      "snowfall_24hr": 6.8,
      "snowfall_48hr": 10.2,
      "snowfall_7day": 10.2,
      "forecast_text": "6.8\" expected in next 24 hours",
      "last_updated": "2026-04-01T13:56:46.383Z"
    },
    {
      "name": "Mission Ridge",
      "lat": 47.2917,
      "lng": -120.3997,
      "snowfall_24hr": 2,
      "snowfall_48hr": 2,
      "snowfall_7day": 2,
      "forecast_text": "2.0\" expected in next 24 hours",
      "last_updated": "2026-04-01T13:56:46.581Z"
    },
    {
      "name": "Snoqualmie",
      "lat": 47.4219,
      "lng": -121.4136,
      "snowfall_24hr": 1.3,
      "snowfall_48hr": 5,
      "snowfall_7day": 5.1,
      "forecast_text": "1.3\" expected in next 24 hours",
      "last_updated": "2026-04-01T13:56:46.781Z"
    },
    {
      "name": "Mt. Spokane",
      "lat": 47.9208,
      "lng": -117.0856,
      "snowfall_24hr": 0.7,
      "snowfall_48hr": 1.7,
      "snowfall_7day": 1.7,
      "forecast_text": "0.7\" expected in next 24 hours",
      "last_updated": "2026-04-01T13:56:46.979Z"
    },
    {
      "name": "White Pass",
      "lat": 46.6394,
      "lng": -121.3908,
      "snowfall_24hr": 1.8,
      "snowfall_48hr": 6.5,
      "snowfall_7day": 6.5,
      "forecast_text": "1.8\" expected in next 24 hours",
      "last_updated": "2026-04-01T13:56:47.177Z"
    },
    {
      "name": "49 Degrees North",
      "lat": 48.7511,
      "lng": -117.6369,
      "snowfall_24hr": 0,
      "snowfall_48hr": 0.1,
      "snowfall_7day": 0.1,
      "forecast_text": "0.1\" expected in next 48 hours",
      "last_updated": "2026-04-01T13:56:47.377Z"
    },
    {
      "name": "Red Mountain",
      "lat": 49.0917,
      "lng": -117.8233,
      "snowfall_24hr": 1.7,
      "snowfall_48hr": 6.7,
      "snowfall_7day": 6.7,
      "forecast_text": "1.7\" expected in next 24 hours",
      "last_updated": "2026-04-01T13:56:47.576Z"
    },
    {
      "name": "Whitewater",
      "lat": 49.5394,
      "lng": -117.2717,
      "snowfall_24hr": 0,
      "snowfall_48hr": 0.2,
      "snowfall_7day": 0.6,
      "forecast_text": "0.0\" expected in next 24 hours",
      "last_updated": "2026-04-01T13:56:47.775Z"
    },
    {
      "name": "Panorama",
      "lat": 50.8036,
      "lng": -116.0533,
      "snowfall_24hr": 0.2,
      "snowfall_48hr": 3.4,
      "snowfall_7day": 3.5,
      "forecast_text": "0.2\" expected in next 24 hours",
      "last_updated": "2026-04-01T13:56:47.974Z"
    },
    {
      "name": "Marmot Basin",
      "lat": 52.8236,
      "lng": -118.0747,
      "snowfall_24hr": 0,
      "snowfall_48hr": 0,
      "snowfall_7day": 1.1,
      "forecast_text": "1.1\" expected in next 7 days",
      "last_updated": "2026-04-01T13:56:48.173Z"
    },
    {
      "name": "Nakiska",
      "lat": 50.98,
      "lng": -115.0733,
      "snowfall_24hr": 0.4,
      "snowfall_48hr": 3,
      "snowfall_7day": 4.9,
      "forecast_text": "0.4\" expected in next 24 hours",
      "last_updated": "2026-04-01T13:56:48.372Z"
    },
    {
      "name": "Castle Mountain",
      "lat": 49.4058,
      "lng": -114.5169,
      "snowfall_24hr": 0.3,
      "snowfall_48hr": 3.3,
      "snowfall_7day": 3.6,
      "forecast_text": "0.3\" expected in next 24 hours",
      "last_updated": "2026-04-01T13:56:48.571Z"
    },
    {
      "name": "Norquay",
      "lat": 51.1967,
      "lng": -115.5531,
      "snowfall_24hr": 0.3,
      "snowfall_48hr": 1.5,
      "snowfall_7day": 2.2,
      "forecast_text": "0.3\" expected in next 24 hours",
      "last_updated": "2026-04-01T13:56:48.769Z"
    },
    {
      "name": "Le Massif",
      "lat": 47.3136,
      "lng": -70.6358,
      "snowfall_24hr": 0.9,
      "snowfall_48hr": 0.9,
      "snowfall_7day": 20.3,
      "forecast_text": "0.9\" expected in next 24 hours",
      "last_updated": "2026-04-01T13:56:48.968Z"
    },
    {
      "name": "Calabogie",
      "lat": 45.2906,
      "lng": -76.7019,
      "snowfall_24hr": 0,
      "snowfall_48hr": 0.1,
      "snowfall_7day": 0.4,
      "forecast_text": "0.1\" expected in next 48 hours",
      "last_updated": "2026-04-01T13:56:49.167Z"
    },
    {
      "name": "Sierra-at-Tahoe",
      "lat": 38.7986,
      "lng": -120.0828,
      "snowfall_24hr": 2.5,
      "snowfall_48hr": 7.8,
      "snowfall_7day": 9.3,
      "forecast_text": "2.5\" expected in next 24 hours",
      "last_updated": "2026-04-01T13:56:49.365Z"
    },
    {
      "name": "Kirkwood",
      "lat": 38.6867,
      "lng": -120.0656,
      "snowfall_24hr": 2.9,
      "snowfall_48hr": 6.1,
      "snowfall_7day": 7.7,
      "forecast_text": "2.9\" expected in next 24 hours",
      "last_updated": "2026-04-01T13:56:49.565Z"
    },
    {
      "name": "Northstar",
      "lat": 39.2733,
      "lng": -120.1211,
      "snowfall_24hr": 1.8,
      "snowfall_48hr": 3.9,
      "snowfall_7day": 4.1,
      "forecast_text": "1.8\" expected in next 24 hours",
      "last_updated": "2026-04-01T13:56:49.763Z"
    },
    {
      "name": "Homewood",
      "lat": 39.0833,
      "lng": -120.1667,
      "snowfall_24hr": 7.3,
      "snowfall_48hr": 12.5,
      "snowfall_7day": 12.9,
      "forecast_text": "7.3\" expected in next 24 hours",
      "last_updated": "2026-04-01T13:56:49.962Z"
    },
    {
      "name": "Mt. Rose",
      "lat": 39.3397,
      "lng": -119.8894,
      "snowfall_24hr": 2.5,
      "snowfall_48hr": 3.8,
      "snowfall_7day": 4.1,
      "forecast_text": "2.5\" expected in next 24 hours",
      "last_updated": "2026-04-01T13:56:50.161Z"
    },
    {
      "name": "Diamond Peak",
      "lat": 39.2525,
      "lng": -119.9169,
      "snowfall_24hr": 1,
      "snowfall_48hr": 1.8,
      "snowfall_7day": 2,
      "forecast_text": "1.0\" expected in next 24 hours",
      "last_updated": "2026-04-01T13:56:50.359Z"
    },
    {
      "name": "June Mountain",
      "lat": 37.7853,
      "lng": -119.0781,
      "snowfall_24hr": 0.1,
      "snowfall_48hr": 0.1,
      "snowfall_7day": 0.1,
      "forecast_text": "0.1\" expected in next 24 hours",
      "last_updated": "2026-04-01T13:56:50.558Z"
    },
    {
      "name": "Bear Mountain",
      "lat": 34.235,
      "lng": -116.865,
      "snowfall_24hr": 0.2,
      "snowfall_48hr": 0.2,
      "snowfall_7day": 0.2,
      "forecast_text": "0.2\" expected in next 24 hours",
      "last_updated": "2026-04-01T13:56:50.756Z"
    },
    {
      "name": "Snow Summit",
      "lat": 34.2306,
      "lng": -116.8886,
      "snowfall_24hr": 0.4,
      "snowfall_48hr": 0.4,
      "snowfall_7day": 0.4,
      "forecast_text": "0.4\" expected in next 24 hours",
      "last_updated": "2026-04-01T13:56:50.955Z"
    },
    {
      "name": "Mountain High",
      "lat": 34.3811,
      "lng": -117.6881,
      "snowfall_24hr": 0.4,
      "snowfall_48hr": 0.4,
      "snowfall_7day": 0.4,
      "forecast_text": "0.4\" expected in next 24 hours",
      "last_updated": "2026-04-01T13:56:51.153Z"
    },
    {
      "name": "Ski Santa Fe",
      "lat": 35.7869,
      "lng": -105.7961,
      "snowfall_24hr": 5.6,
      "snowfall_48hr": 5.6,
      "snowfall_7day": 5.8,
      "forecast_text": "5.6\" expected in next 24 hours",
      "last_updated": "2026-04-01T13:56:51.352Z"
    },
    {
      "name": "Angel Fire",
      "lat": 36.3975,
      "lng": -105.2886,
      "snowfall_24hr": 0.5,
      "snowfall_48hr": 0.5,
      "snowfall_7day": 0.6,
      "forecast_text": "0.5\" expected in next 24 hours",
      "last_updated": "2026-04-01T13:56:51.550Z"
    },
    {
      "name": "Whiteface Mountain",
      "lat": 44.3659,
      "lng": -73.9024,
      "snowfall_24hr": 0,
      "snowfall_48hr": 0,
      "snowfall_7day": 0.4,
      "forecast_text": "0.0\" expected in next 48 hours",
      "last_updated": "2026-04-01T13:56:51.752Z"
    },
    {
      "name": "Bristol Mountain",
      "lat": 42.7455,
      "lng": -77.4016,
      "snowfall_24hr": 0,
      "snowfall_48hr": 0,
      "snowfall_7day": 0.4,
      "forecast_text": "0.4\" expected in next 7 days",
      "last_updated": "2026-04-01T13:56:52.249Z"
    },
    {
      "name": "Revelstoke Mountain Resort",
      "lat": 50.9981,
      "lng": -118.1958,
      "snowfall_24hr": 0,
      "snowfall_48hr": 0.3,
      "snowfall_7day": 0.3,
      "forecast_text": "0.3\" expected in next 48 hours",
      "last_updated": "2026-04-01T13:56:52.449Z"
    },
    {
      "name": "Big White Ski Resort",
      "lat": 49.7308,
      "lng": -118.9357,
      "snowfall_24hr": 0.9,
      "snowfall_48hr": 6,
      "snowfall_7day": 6,
      "forecast_text": "0.9\" expected in next 24 hours",
      "last_updated": "2026-04-01T13:56:52.650Z"
    },
    {
      "name": "Sun Peaks Resort",
      "lat": 50.8847,
      "lng": -119.8892,
      "snowfall_24hr": 0,
      "snowfall_48hr": 0,
      "snowfall_7day": 0,
      "forecast_text": "No snow expected",
      "last_updated": "2026-04-01T13:56:52.851Z"
    },
    {
      "name": "Fernie Alpine Resort",
      "lat": 49.4651,
      "lng": -115.0764,
      "snowfall_24hr": 0,
      "snowfall_48hr": 0.3,
      "snowfall_7day": 1.4,
      "forecast_text": "0.0\" expected in next 24 hours",
      "last_updated": "2026-04-01T13:56:53.051Z"
    },
    {
      "name": "Kicking Horse Mountain Resort",
      "lat": 51.2983,
      "lng": -116.955,
      "snowfall_24hr": 0.1,
      "snowfall_48hr": 0.6,
      "snowfall_7day": 0.9,
      "forecast_text": "0.1\" expected in next 24 hours",
      "last_updated": "2026-04-01T13:56:53.253Z"
    },
    {
      "name": "Panorama Mountain Resort",
      "lat": 50.9806,
      "lng": -116.0972,
      "snowfall_24hr": 0.7,
      "snowfall_48hr": 3,
      "snowfall_7day": 4.1,
      "forecast_text": "0.7\" expected in next 24 hours",
      "last_updated": "2026-04-01T13:56:53.454Z"
    },
    {
      "name": "RED Mountain Resort",
      "lat": 49.0878,
      "lng": -117.8197,
      "snowfall_24hr": 1,
      "snowfall_48hr": 4.3,
      "snowfall_7day": 4.3,
      "forecast_text": "1.0\" expected in next 24 hours",
      "last_updated": "2026-04-01T13:56:53.654Z"
    },
    {
      "name": "SilverStar Mountain Resort",
      "lat": 50.4,
      "lng": -119.0833,
      "snowfall_24hr": 0.6,
      "snowfall_48hr": 2.5,
      "snowfall_7day": 2.5,
      "forecast_text": "0.6\" expected in next 24 hours",
      "last_updated": "2026-04-01T13:56:53.856Z"
    },
    {
      "name": "Lake Louise Ski Resort",
      "lat": 51.4254,
      "lng": -116.1773,
      "snowfall_24hr": 0,
      "snowfall_48hr": 0.9,
      "snowfall_7day": 1.2,
      "forecast_text": "0.9\" expected in next 48 hours",
      "last_updated": "2026-04-01T13:56:54.057Z"
    },
    {
      "name": "Sunshine Village",
      "lat": 51.1128,
      "lng": -115.7631,
      "snowfall_24hr": 0.8,
      "snowfall_48hr": 3,
      "snowfall_7day": 3.4,
      "forecast_text": "0.8\" expected in next 24 hours",
      "last_updated": "2026-04-01T13:56:54.257Z"
    },
    {
      "name": "Mount Norquay",
      "lat": 51.2094,
      "lng": -115.5797,
      "snowfall_24hr": 0.5,
      "snowfall_48hr": 2.6,
      "snowfall_7day": 3.2,
      "forecast_text": "0.5\" expected in next 24 hours",
      "last_updated": "2026-04-01T13:56:54.457Z"
    },
    {
      "name": "Nakiska Ski Area",
      "lat": 50.9042,
      "lng": -115.0856,
      "snowfall_24hr": 1.3,
      "snowfall_48hr": 3.3,
      "snowfall_7day": 4.9,
      "forecast_text": "1.3\" expected in next 24 hours",
      "last_updated": "2026-04-01T13:56:54.658Z"
    },
    {
      "name": "Le Massif de Charlevoix",
      "lat": 47.3389,
      "lng": -70.6375,
      "snowfall_24hr": 0.9,
      "snowfall_48hr": 0.9,
      "snowfall_7day": 19.7,
      "forecast_text": "0.9\" expected in next 24 hours",
      "last_updated": "2026-04-01T13:56:54.859Z"
    },
    {
      "name": "Blue Mountain Resort",
      "lat": 44.5067,
      "lng": -80.3158,
      "snowfall_24hr": 0,
      "snowfall_48hr": 0,
      "snowfall_7day": 0.7,
      "forecast_text": "0.7\" expected in next 7 days",
      "last_updated": "2026-04-01T13:56:55.060Z"
    }
  ]
}