{
  "generated_at": "2025-12-09T06:44:15.334Z",
  "total_resorts": 115,
  "data_source": "Open-Meteo",
  "resorts": [
    {
      "name": "Whistler Blackcomb",
      "lat": 50.1163,
      "lng": -122.9574,
      "snowfall_24hr": 2.2,
      "snowfall_48hr": 3.5,
      "snowfall_7day": 11.5,
      "forecast_text": "2.2\" expected in next 24 hours",
      "last_updated": "2025-12-09T06:43:47.030Z"
    },
    {
      "name": "Vail",
      "lat": 39.6403,
      "lng": -106.3742,
      "snowfall_24hr": 0,
      "snowfall_48hr": 0,
      "snowfall_7day": 0,
      "forecast_text": "No snow expected",
      "last_updated": "2025-12-09T06:43:47.277Z"
    },
    {
      "name": "Park City",
      "lat": 40.6514,
      "lng": -111.5079,
      "snowfall_24hr": 0,
      "snowfall_48hr": 0,
      "snowfall_7day": 0,
      "forecast_text": "No snow expected",
      "last_updated": "2025-12-09T06:43:47.523Z"
    },
    {
      "name": "Breckenridge",
      "lat": 39.4817,
      "lng": -106.0384,
      "snowfall_24hr": 0,
      "snowfall_48hr": 0,
      "snowfall_7day": 0,
      "forecast_text": "No snow expected",
      "last_updated": "2025-12-09T06:43:47.770Z"
    },
    {
      "name": "Heavenly",
      "lat": 38.935,
      "lng": -119.9403,
      "snowfall_24hr": 0,
      "snowfall_48hr": 0,
      "snowfall_7day": 0,
      "forecast_text": "No snow expected",
      "last_updated": "2025-12-09T06:43:48.016Z"
    },
    {
      "name": "Aspen Snowmass",
      "lat": 39.1911,
      "lng": -106.8175,
      "snowfall_24hr": 0,
      "snowfall_48hr": 0,
      "snowfall_7day": 0,
      "forecast_text": "No snow expected",
      "last_updated": "2025-12-09T06:43:48.263Z"
    },
    {
      "name": "Jackson Hole",
      "lat": 43.5875,
      "lng": -110.8278,
      "snowfall_24hr": 0,
      "snowfall_48hr": 0.5,
      "snowfall_7day": 0.5,
      "forecast_text": "0.5\" expected in next 48 hours",
      "last_updated": "2025-12-09T06:43:48.509Z"
    },
    {
      "name": "Banff Sunshine",
      "lat": 51.1158,
      "lng": -115.7631,
      "snowfall_24hr": 1.1,
      "snowfall_48hr": 1.5,
      "snowfall_7day": 4.6,
      "forecast_text": "1.1\" expected in next 24 hours",
      "last_updated": "2025-12-09T06:43:48.755Z"
    },
    {
      "name": "Lake Louise",
      "lat": 51.4254,
      "lng": -116.1773,
      "snowfall_24hr": 0,
      "snowfall_48hr": 0,
      "snowfall_7day": 1.6,
      "forecast_text": "1.6\" expected in next 7 days",
      "last_updated": "2025-12-09T06:43:49.000Z"
    },
    {
      "name": "Big Sky",
      "lat": 45.2846,
      "lng": -111.4008,
      "snowfall_24hr": 0,
      "snowfall_48hr": 0.4,
      "snowfall_7day": 1.1,
      "forecast_text": "0.4\" expected in next 48 hours",
      "last_updated": "2025-12-09T06:43:49.246Z"
    },
    {
      "name": "Steamboat",
      "lat": 40.458,
      "lng": -106.8047,
      "snowfall_24hr": 0,
      "snowfall_48hr": 0,
      "snowfall_7day": 0,
      "forecast_text": "0.0\" expected in next 24 hours",
      "last_updated": "2025-12-09T06:43:49.491Z"
    },
    {
      "name": "Mammoth Mountain",
      "lat": 37.6308,
      "lng": -119.0326,
      "snowfall_24hr": 0,
      "snowfall_48hr": 0,
      "snowfall_7day": 0,
      "forecast_text": "No snow expected",
      "last_updated": "2025-12-09T06:43:49.737Z"
    },
    {
      "name": "Squaw Valley",
      "lat": 39.197,
      "lng": -120.2356,
      "snowfall_24hr": 0,
      "snowfall_48hr": 0,
      "snowfall_7day": 0,
      "forecast_text": "No snow expected",
      "last_updated": "2025-12-09T06:43:49.982Z"
    },
    {
      "name": "Telluride",
      "lat": 37.9375,
      "lng": -107.8123,
      "snowfall_24hr": 0,
      "snowfall_48hr": 0,
      "snowfall_7day": 0,
      "forecast_text": "No snow expected",
      "last_updated": "2025-12-09T06:43:50.224Z"
    },
    {
      "name": "Sun Valley",
      "lat": 43.6966,
      "lng": -114.3553,
      "snowfall_24hr": 0,
      "snowfall_48hr": 0,
      "snowfall_7day": 0,
      "forecast_text": "No snow expected",
      "last_updated": "2025-12-09T06:43:50.470Z"
    },
    {
      "name": "Deer Valley",
      "lat": 40.6374,
      "lng": -111.4783,
      "snowfall_24hr": 0,
      "snowfall_48hr": 0,
      "snowfall_7day": 0,
      "forecast_text": "No snow expected",
      "last_updated": "2025-12-09T06:43:50.714Z"
    },
    {
      "name": "Killington",
      "lat": 43.6046,
      "lng": -72.822,
      "snowfall_24hr": 0,
      "snowfall_48hr": 4.3,
      "snowfall_7day": 5.1,
      "forecast_text": "4.3\" expected in next 48 hours",
      "last_updated": "2025-12-09T06:43:50.960Z"
    },
    {
      "name": "Stowe",
      "lat": 44.5303,
      "lng": -72.7817,
      "snowfall_24hr": 0,
      "snowfall_48hr": 2.3,
      "snowfall_7day": 3.7,
      "forecast_text": "2.3\" expected in next 48 hours",
      "last_updated": "2025-12-09T06:43:51.203Z"
    },
    {
      "name": "Alta",
      "lat": 40.5885,
      "lng": -111.6376,
      "snowfall_24hr": 0,
      "snowfall_48hr": 0,
      "snowfall_7day": 0,
      "forecast_text": "0.0\" expected in next 24 hours",
      "last_updated": "2025-12-09T06:43:51.446Z"
    },
    {
      "name": "Snowbird",
      "lat": 40.5803,
      "lng": -111.6573,
      "snowfall_24hr": 0,
      "snowfall_48hr": 0,
      "snowfall_7day": 0,
      "forecast_text": "No snow expected",
      "last_updated": "2025-12-09T06:43:51.689Z"
    },
    {
      "name": "Taos",
      "lat": 36.5924,
      "lng": -105.4467,
      "snowfall_24hr": 0,
      "snowfall_48hr": 0,
      "snowfall_7day": 0,
      "forecast_text": "No snow expected",
      "last_updated": "2025-12-09T06:43:51.933Z"
    },
    {
      "name": "Copper Mountain",
      "lat": 39.5022,
      "lng": -106.1506,
      "snowfall_24hr": 0.1,
      "snowfall_48hr": 0.1,
      "snowfall_7day": 0.1,
      "forecast_text": "0.1\" expected in next 24 hours",
      "last_updated": "2025-12-09T06:43:52.175Z"
    },
    {
      "name": "Winter Park",
      "lat": 39.8868,
      "lng": -105.7625,
      "snowfall_24hr": 0,
      "snowfall_48hr": 0.2,
      "snowfall_7day": 0.3,
      "forecast_text": "0.2\" expected in next 48 hours",
      "last_updated": "2025-12-09T06:43:52.418Z"
    },
    {
      "name": "Keystone",
      "lat": 39.605,
      "lng": -105.9347,
      "snowfall_24hr": 0,
      "snowfall_48hr": 0,
      "snowfall_7day": 0,
      "forecast_text": "No snow expected",
      "last_updated": "2025-12-09T06:43:52.660Z"
    },
    {
      "name": "Arapahoe Basin",
      "lat": 39.6426,
      "lng": -105.8717,
      "snowfall_24hr": 0.1,
      "snowfall_48hr": 0.1,
      "snowfall_7day": 0.2,
      "forecast_text": "0.1\" expected in next 24 hours",
      "last_updated": "2025-12-09T06:43:52.903Z"
    },
    {
      "name": "Crested Butte",
      "lat": 38.8997,
      "lng": -106.9653,
      "snowfall_24hr": 0,
      "snowfall_48hr": 0,
      "snowfall_7day": 0,
      "forecast_text": "No snow expected",
      "last_updated": "2025-12-09T06:43:53.146Z"
    },
    {
      "name": "Loveland",
      "lat": 39.6803,
      "lng": -105.8978,
      "snowfall_24hr": 0.2,
      "snowfall_48hr": 0.6,
      "snowfall_7day": 0.9,
      "forecast_text": "0.2\" expected in next 24 hours",
      "last_updated": "2025-12-09T06:43:53.390Z"
    },
    {
      "name": "Mt. Bachelor",
      "lat": 43.979,
      "lng": -121.688,
      "snowfall_24hr": 0,
      "snowfall_48hr": 0,
      "snowfall_7day": 0,
      "forecast_text": "No snow expected",
      "last_updated": "2025-12-09T06:43:53.634Z"
    },
    {
      "name": "Crystal Mountain",
      "lat": 46.9358,
      "lng": -121.4742,
      "snowfall_24hr": 0.3,
      "snowfall_48hr": 1.1,
      "snowfall_7day": 1.1,
      "forecast_text": "0.3\" expected in next 24 hours",
      "last_updated": "2025-12-09T06:43:53.875Z"
    },
    {
      "name": "Stevens Pass",
      "lat": 47.7453,
      "lng": -121.0892,
      "snowfall_24hr": 2.6,
      "snowfall_48hr": 8.1,
      "snowfall_7day": 8.9,
      "forecast_text": "2.6\" expected in next 24 hours",
      "last_updated": "2025-12-09T06:43:54.116Z"
    },
    {
      "name": "Mt. Baker",
      "lat": 48.8597,
      "lng": -121.6686,
      "snowfall_24hr": 2.5,
      "snowfall_48hr": 3.7,
      "snowfall_7day": 18.3,
      "forecast_text": "2.5\" expected in next 24 hours",
      "last_updated": "2025-12-09T06:43:54.360Z"
    },
    {
      "name": "Schweitzer",
      "lat": 48.3642,
      "lng": -116.6228,
      "snowfall_24hr": 2.7,
      "snowfall_48hr": 3.4,
      "snowfall_7day": 4.5,
      "forecast_text": "2.7\" expected in next 24 hours",
      "last_updated": "2025-12-09T06:43:54.604Z"
    },
    {
      "name": "Sun Peaks",
      "lat": 50.8817,
      "lng": -119.8847,
      "snowfall_24hr": 0,
      "snowfall_48hr": 0.2,
      "snowfall_7day": 2,
      "forecast_text": "0.2\" expected in next 48 hours",
      "last_updated": "2025-12-09T06:43:54.848Z"
    },
    {
      "name": "Revelstoke",
      "lat": 50.9981,
      "lng": -118.1956,
      "snowfall_24hr": 3,
      "snowfall_48hr": 3.1,
      "snowfall_7day": 10.5,
      "forecast_text": "3.0\" expected in next 24 hours",
      "last_updated": "2025-12-09T06:43:55.094Z"
    },
    {
      "name": "Fernie",
      "lat": 49.4653,
      "lng": -115.0636,
      "snowfall_24hr": 0.1,
      "snowfall_48hr": 0.1,
      "snowfall_7day": 0.7,
      "forecast_text": "0.1\" expected in next 24 hours",
      "last_updated": "2025-12-09T06:43:55.337Z"
    },
    {
      "name": "Big White",
      "lat": 49.7311,
      "lng": -118.935,
      "snowfall_24hr": 2.2,
      "snowfall_48hr": 4.1,
      "snowfall_7day": 11.5,
      "forecast_text": "2.2\" expected in next 24 hours",
      "last_updated": "2025-12-09T06:43:55.582Z"
    },
    {
      "name": "Kicking Horse",
      "lat": 51.2514,
      "lng": -117.0492,
      "snowfall_24hr": 0.9,
      "snowfall_48hr": 0.9,
      "snowfall_7day": 2.5,
      "forecast_text": "0.9\" expected in next 24 hours",
      "last_updated": "2025-12-09T06:43:55.824Z"
    },
    {
      "name": "Mont Tremblant",
      "lat": 46.2094,
      "lng": -74.5847,
      "snowfall_24hr": 0.1,
      "snowfall_48hr": 1.9,
      "snowfall_7day": 3.8,
      "forecast_text": "0.1\" expected in next 24 hours",
      "last_updated": "2025-12-09T06:43:56.068Z"
    },
    {
      "name": "Blue Mountain",
      "lat": 44.5075,
      "lng": -80.3231,
      "snowfall_24hr": 0.3,
      "snowfall_48hr": 1.9,
      "snowfall_7day": 2.6,
      "forecast_text": "0.3\" expected in next 24 hours",
      "last_updated": "2025-12-09T06:43:56.313Z"
    },
    {
      "name": "Sugarloaf",
      "lat": 45.0314,
      "lng": -70.3139,
      "snowfall_24hr": 0,
      "snowfall_48hr": 1.9,
      "snowfall_7day": 2.1,
      "forecast_text": "1.9\" expected in next 48 hours",
      "last_updated": "2025-12-09T06:43:56.557Z"
    },
    {
      "name": "Sunday River",
      "lat": 44.4697,
      "lng": -70.8561,
      "snowfall_24hr": 0,
      "snowfall_48hr": 1.3,
      "snowfall_7day": 1.3,
      "forecast_text": "1.3\" expected in next 48 hours",
      "last_updated": "2025-12-09T06:43:56.800Z"
    },
    {
      "name": "Sugarbush",
      "lat": 44.135,
      "lng": -72.9017,
      "snowfall_24hr": 0,
      "snowfall_48hr": 2,
      "snowfall_7day": 2.4,
      "forecast_text": "2.0\" expected in next 48 hours",
      "last_updated": "2025-12-09T06:43:57.045Z"
    },
    {
      "name": "Stratton",
      "lat": 43.1133,
      "lng": -72.9083,
      "snowfall_24hr": 0.2,
      "snowfall_48hr": 2.6,
      "snowfall_7day": 3.1,
      "forecast_text": "0.2\" expected in next 24 hours",
      "last_updated": "2025-12-09T06:43:57.289Z"
    },
    {
      "name": "Okemo",
      "lat": 43.4017,
      "lng": -72.7167,
      "snowfall_24hr": 0,
      "snowfall_48hr": 1.7,
      "snowfall_7day": 1.9,
      "forecast_text": "1.7\" expected in next 48 hours",
      "last_updated": "2025-12-09T06:43:57.532Z"
    },
    {
      "name": "Jay Peak",
      "lat": 44.9378,
      "lng": -72.5036,
      "snowfall_24hr": 0.2,
      "snowfall_48hr": 2.2,
      "snowfall_7day": 6.6,
      "forecast_text": "0.2\" expected in next 24 hours",
      "last_updated": "2025-12-09T06:43:57.776Z"
    },
    {
      "name": "Smugglers' Notch",
      "lat": 44.5458,
      "lng": -72.7872,
      "snowfall_24hr": 0.2,
      "snowfall_48hr": 2.2,
      "snowfall_7day": 3.4,
      "forecast_text": "0.2\" expected in next 24 hours",
      "last_updated": "2025-12-09T06:43:58.018Z"
    },
    {
      "name": "Loon Mountain",
      "lat": 44.0369,
      "lng": -71.6206,
      "snowfall_24hr": 0.1,
      "snowfall_48hr": 2.9,
      "snowfall_7day": 4.4,
      "forecast_text": "0.1\" expected in next 24 hours",
      "last_updated": "2025-12-09T06:43:58.263Z"
    },
    {
      "name": "Cannon Mountain",
      "lat": 44.1572,
      "lng": -71.6978,
      "snowfall_24hr": 0.3,
      "snowfall_48hr": 3.9,
      "snowfall_7day": 5.6,
      "forecast_text": "0.3\" expected in next 24 hours",
      "last_updated": "2025-12-09T06:43:58.506Z"
    },
    {
      "name": "Wildcat Mountain",
      "lat": 44.2636,
      "lng": -71.2328,
      "snowfall_24hr": 0.1,
      "snowfall_48hr": 2.2,
      "snowfall_7day": 2.8,
      "forecast_text": "0.1\" expected in next 24 hours",
      "last_updated": "2025-12-09T06:43:58.747Z"
    },
    {
      "name": "Bretton Woods",
      "lat": 44.2633,
      "lng": -71.4439,
      "snowfall_24hr": 0.1,
      "snowfall_48hr": 1.8,
      "snowfall_7day": 3.1,
      "forecast_text": "0.1\" expected in next 24 hours",
      "last_updated": "2025-12-09T06:43:58.990Z"
    },
    {
      "name": "Snowbasin",
      "lat": 41.2156,
      "lng": -111.8567,
      "snowfall_24hr": 0,
      "snowfall_48hr": 0,
      "snowfall_7day": 0,
      "forecast_text": "No snow expected",
      "last_updated": "2025-12-09T06:43:59.232Z"
    },
    {
      "name": "Powder Mountain",
      "lat": 41.3814,
      "lng": -111.7806,
      "snowfall_24hr": 0,
      "snowfall_48hr": 0,
      "snowfall_7day": 0,
      "forecast_text": "No snow expected",
      "last_updated": "2025-12-09T06:43:59.475Z"
    },
    {
      "name": "Solitude",
      "lat": 40.62,
      "lng": -111.5917,
      "snowfall_24hr": 0,
      "snowfall_48hr": 0,
      "snowfall_7day": 0,
      "forecast_text": "0.0\" expected in next 24 hours",
      "last_updated": "2025-12-09T06:43:59.717Z"
    },
    {
      "name": "Brighton",
      "lat": 40.5981,
      "lng": -111.5831,
      "snowfall_24hr": 0,
      "snowfall_48hr": 0,
      "snowfall_7day": 0,
      "forecast_text": "0.0\" expected in next 24 hours",
      "last_updated": "2025-12-09T06:43:59.961Z"
    },
    {
      "name": "Snowmass",
      "lat": 39.2133,
      "lng": -106.9378,
      "snowfall_24hr": 0,
      "snowfall_48hr": 0,
      "snowfall_7day": 0,
      "forecast_text": "No snow expected",
      "last_updated": "2025-12-09T06:44:00.204Z"
    },
    {
      "name": "Aspen Highlands",
      "lat": 39.1825,
      "lng": -106.8553,
      "snowfall_24hr": 0,
      "snowfall_48hr": 0,
      "snowfall_7day": 0,
      "forecast_text": "No snow expected",
      "last_updated": "2025-12-09T06:44:00.450Z"
    },
    {
      "name": "Buttermilk",
      "lat": 39.2078,
      "lng": -106.8608,
      "snowfall_24hr": 0,
      "snowfall_48hr": 0,
      "snowfall_7day": 0,
      "forecast_text": "No snow expected",
      "last_updated": "2025-12-09T06:44:00.692Z"
    },
    {
      "name": "Beaver Creek",
      "lat": 39.6042,
      "lng": -106.5164,
      "snowfall_24hr": 0,
      "snowfall_48hr": 0,
      "snowfall_7day": 0,
      "forecast_text": "No snow expected",
      "last_updated": "2025-12-09T06:44:00.934Z"
    },
    {
      "name": "Purgatory",
      "lat": 37.6303,
      "lng": -107.8139,
      "snowfall_24hr": 0,
      "snowfall_48hr": 0,
      "snowfall_7day": 0,
      "forecast_text": "No snow expected",
      "last_updated": "2025-12-09T06:44:01.177Z"
    },
    {
      "name": "Wolf Creek",
      "lat": 37.4722,
      "lng": -106.7931,
      "snowfall_24hr": 0,
      "snowfall_48hr": 0,
      "snowfall_7day": 0,
      "forecast_text": "No snow expected",
      "last_updated": "2025-12-09T06:44:01.421Z"
    },
    {
      "name": "Monarch Mountain",
      "lat": 38.5117,
      "lng": -106.3317,
      "snowfall_24hr": 0,
      "snowfall_48hr": 0,
      "snowfall_7day": 0,
      "forecast_text": "No snow expected",
      "last_updated": "2025-12-09T06:44:01.661Z"
    },
    {
      "name": "Eldora",
      "lat": 39.9372,
      "lng": -105.5828,
      "snowfall_24hr": 0.2,
      "snowfall_48hr": 0.9,
      "snowfall_7day": 1.6,
      "forecast_text": "0.2\" expected in next 24 hours",
      "last_updated": "2025-12-09T06:44:01.904Z"
    },
    {
      "name": "Grand Targhee",
      "lat": 43.7886,
      "lng": -110.9586,
      "snowfall_24hr": 0.1,
      "snowfall_48hr": 0.8,
      "snowfall_7day": 1.1,
      "forecast_text": "0.1\" expected in next 24 hours",
      "last_updated": "2025-12-09T06:44:02.147Z"
    },
    {
      "name": "Snow King",
      "lat": 43.4783,
      "lng": -110.7628,
      "snowfall_24hr": 0,
      "snowfall_48hr": 0.1,
      "snowfall_7day": 0.1,
      "forecast_text": "0.1\" expected in next 48 hours",
      "last_updated": "2025-12-09T06:44:02.390Z"
    },
    {
      "name": "Bridger Bowl",
      "lat": 45.8167,
      "lng": -110.8969,
      "snowfall_24hr": 0,
      "snowfall_48hr": 0.2,
      "snowfall_7day": 2.7,
      "forecast_text": "0.2\" expected in next 48 hours",
      "last_updated": "2025-12-09T06:44:02.634Z"
    },
    {
      "name": "Big Mountain",
      "lat": 48.4928,
      "lng": -114.3483,
      "snowfall_24hr": 0.5,
      "snowfall_48hr": 0.7,
      "snowfall_7day": 9,
      "forecast_text": "0.5\" expected in next 24 hours",
      "last_updated": "2025-12-09T06:44:02.878Z"
    },
    {
      "name": "Snowbowl",
      "lat": 46.9417,
      "lng": -113.9492,
      "snowfall_24hr": 0,
      "snowfall_48hr": 0,
      "snowfall_7day": 1,
      "forecast_text": "1.0\" expected in next 7 days",
      "last_updated": "2025-12-09T06:44:03.122Z"
    },
    {
      "name": "Bogus Basin",
      "lat": 43.7725,
      "lng": -116.0939,
      "snowfall_24hr": 0,
      "snowfall_48hr": 0.2,
      "snowfall_7day": 0.2,
      "forecast_text": "0.2\" expected in next 48 hours",
      "last_updated": "2025-12-09T06:44:03.365Z"
    },
    {
      "name": "Tamarack",
      "lat": 44.6922,
      "lng": -116.1344,
      "snowfall_24hr": 0.8,
      "snowfall_48hr": 1.6,
      "snowfall_7day": 1.6,
      "forecast_text": "0.8\" expected in next 24 hours",
      "last_updated": "2025-12-09T06:44:03.609Z"
    },
    {
      "name": "Silver Mountain",
      "lat": 47.6764,
      "lng": -116.0703,
      "snowfall_24hr": 0,
      "snowfall_48hr": 0,
      "snowfall_7day": 0,
      "forecast_text": "No snow expected",
      "last_updated": "2025-12-09T06:44:03.853Z"
    },
    {
      "name": "Mt. Hood Meadows",
      "lat": 45.3319,
      "lng": -121.6653,
      "snowfall_24hr": 3.2,
      "snowfall_48hr": 3.9,
      "snowfall_7day": 3.9,
      "forecast_text": "3.2\" expected in next 24 hours",
      "last_updated": "2025-12-09T06:44:04.095Z"
    },
    {
      "name": "Timberline",
      "lat": 45.3306,
      "lng": -121.7108,
      "snowfall_24hr": 1.5,
      "snowfall_48hr": 2.9,
      "snowfall_7day": 2.9,
      "forecast_text": "1.5\" expected in next 24 hours",
      "last_updated": "2025-12-09T06:44:04.337Z"
    },
    {
      "name": "Willamette Pass",
      "lat": 43.6006,
      "lng": -122.0336,
      "snowfall_24hr": 0,
      "snowfall_48hr": 0,
      "snowfall_7day": 0,
      "forecast_text": "No snow expected",
      "last_updated": "2025-12-09T06:44:04.579Z"
    },
    {
      "name": "Mission Ridge",
      "lat": 47.2917,
      "lng": -120.3997,
      "snowfall_24hr": 0.3,
      "snowfall_48hr": 4.9,
      "snowfall_7day": 4.9,
      "forecast_text": "0.3\" expected in next 24 hours",
      "last_updated": "2025-12-09T06:44:04.822Z"
    },
    {
      "name": "Snoqualmie",
      "lat": 47.4219,
      "lng": -121.4136,
      "snowfall_24hr": 0.1,
      "snowfall_48hr": 0.2,
      "snowfall_7day": 0.2,
      "forecast_text": "0.1\" expected in next 24 hours",
      "last_updated": "2025-12-09T06:44:05.066Z"
    },
    {
      "name": "Mt. Spokane",
      "lat": 47.9208,
      "lng": -117.0856,
      "snowfall_24hr": 0.6,
      "snowfall_48hr": 1,
      "snowfall_7day": 1.2,
      "forecast_text": "0.6\" expected in next 24 hours",
      "last_updated": "2025-12-09T06:44:05.309Z"
    },
    {
      "name": "White Pass",
      "lat": 46.6394,
      "lng": -121.3908,
      "snowfall_24hr": 0.6,
      "snowfall_48hr": 2.4,
      "snowfall_7day": 2.4,
      "forecast_text": "0.6\" expected in next 24 hours",
      "last_updated": "2025-12-09T06:44:05.553Z"
    },
    {
      "name": "49 Degrees North",
      "lat": 48.7511,
      "lng": -117.6369,
      "snowfall_24hr": 0,
      "snowfall_48hr": 0,
      "snowfall_7day": 0.4,
      "forecast_text": "0.4\" expected in next 7 days",
      "last_updated": "2025-12-09T06:44:05.796Z"
    },
    {
      "name": "Red Mountain",
      "lat": 49.0917,
      "lng": -117.8233,
      "snowfall_24hr": 1.2,
      "snowfall_48hr": 2.1,
      "snowfall_7day": 5.8,
      "forecast_text": "1.2\" expected in next 24 hours",
      "last_updated": "2025-12-09T06:44:06.038Z"
    },
    {
      "name": "Whitewater",
      "lat": 49.5394,
      "lng": -117.2717,
      "snowfall_24hr": 0,
      "snowfall_48hr": 0.4,
      "snowfall_7day": 3.9,
      "forecast_text": "0.4\" expected in next 48 hours",
      "last_updated": "2025-12-09T06:44:06.281Z"
    },
    {
      "name": "Panorama",
      "lat": 50.8036,
      "lng": -116.0533,
      "snowfall_24hr": 1.2,
      "snowfall_48hr": 2.6,
      "snowfall_7day": 9.6,
      "forecast_text": "1.2\" expected in next 24 hours",
      "last_updated": "2025-12-09T06:44:06.524Z"
    },
    {
      "name": "Marmot Basin",
      "lat": 52.8236,
      "lng": -118.0747,
      "snowfall_24hr": 0.7,
      "snowfall_48hr": 0.7,
      "snowfall_7day": 5.3,
      "forecast_text": "0.7\" expected in next 24 hours",
      "last_updated": "2025-12-09T06:44:06.768Z"
    },
    {
      "name": "Nakiska",
      "lat": 50.98,
      "lng": -115.0733,
      "snowfall_24hr": 0.1,
      "snowfall_48hr": 0.2,
      "snowfall_7day": 0.9,
      "forecast_text": "0.1\" expected in next 24 hours",
      "last_updated": "2025-12-09T06:44:07.011Z"
    },
    {
      "name": "Castle Mountain",
      "lat": 49.4058,
      "lng": -114.5169,
      "snowfall_24hr": 0.4,
      "snowfall_48hr": 1,
      "snowfall_7day": 5.5,
      "forecast_text": "0.4\" expected in next 24 hours",
      "last_updated": "2025-12-09T06:44:07.254Z"
    },
    {
      "name": "Norquay",
      "lat": 51.1967,
      "lng": -115.5531,
      "snowfall_24hr": 0.6,
      "snowfall_48hr": 0.7,
      "snowfall_7day": 1.7,
      "forecast_text": "0.6\" expected in next 24 hours",
      "last_updated": "2025-12-09T06:44:07.499Z"
    },
    {
      "name": "Le Massif",
      "lat": 47.3136,
      "lng": -70.6358,
      "snowfall_24hr": 0,
      "snowfall_48hr": 2.2,
      "snowfall_7day": 3.1,
      "forecast_text": "2.2\" expected in next 48 hours",
      "last_updated": "2025-12-09T06:44:07.742Z"
    },
    {
      "name": "Calabogie",
      "lat": 45.2906,
      "lng": -76.7019,
      "snowfall_24hr": 0.2,
      "snowfall_48hr": 1.5,
      "snowfall_7day": 1.5,
      "forecast_text": "0.2\" expected in next 24 hours",
      "last_updated": "2025-12-09T06:44:07.984Z"
    },
    {
      "name": "Sierra-at-Tahoe",
      "lat": 38.7986,
      "lng": -120.0828,
      "snowfall_24hr": 0,
      "snowfall_48hr": 0,
      "snowfall_7day": 0,
      "forecast_text": "No snow expected",
      "last_updated": "2025-12-09T06:44:08.226Z"
    },
    {
      "name": "Kirkwood",
      "lat": 38.6867,
      "lng": -120.0656,
      "snowfall_24hr": 0,
      "snowfall_48hr": 0,
      "snowfall_7day": 0,
      "forecast_text": "No snow expected",
      "last_updated": "2025-12-09T06:44:08.470Z"
    },
    {
      "name": "Northstar",
      "lat": 39.2733,
      "lng": -120.1211,
      "snowfall_24hr": 0,
      "snowfall_48hr": 0,
      "snowfall_7day": 0,
      "forecast_text": "No snow expected",
      "last_updated": "2025-12-09T06:44:08.712Z"
    },
    {
      "name": "Homewood",
      "lat": 39.0833,
      "lng": -120.1667,
      "snowfall_24hr": 0,
      "snowfall_48hr": 0,
      "snowfall_7day": 0,
      "forecast_text": "No snow expected",
      "last_updated": "2025-12-09T06:44:08.957Z"
    },
    {
      "name": "Mt. Rose",
      "lat": 39.3397,
      "lng": -119.8894,
      "snowfall_24hr": 0,
      "snowfall_48hr": 0,
      "snowfall_7day": 0,
      "forecast_text": "No snow expected",
      "last_updated": "2025-12-09T06:44:09.202Z"
    },
    {
      "name": "Diamond Peak",
      "lat": 39.2525,
      "lng": -119.9169,
      "snowfall_24hr": 0,
      "snowfall_48hr": 0,
      "snowfall_7day": 0,
      "forecast_text": "No snow expected",
      "last_updated": "2025-12-09T06:44:09.444Z"
    },
    {
      "name": "June Mountain",
      "lat": 37.7853,
      "lng": -119.0781,
      "snowfall_24hr": 0,
      "snowfall_48hr": 0,
      "snowfall_7day": 0,
      "forecast_text": "No snow expected",
      "last_updated": "2025-12-09T06:44:09.688Z"
    },
    {
      "name": "Bear Mountain",
      "lat": 34.235,
      "lng": -116.865,
      "snowfall_24hr": 0,
      "snowfall_48hr": 0,
      "snowfall_7day": 0,
      "forecast_text": "No snow expected",
      "last_updated": "2025-12-09T06:44:09.931Z"
    },
    {
      "name": "Snow Summit",
      "lat": 34.2306,
      "lng": -116.8886,
      "snowfall_24hr": 0,
      "snowfall_48hr": 0,
      "snowfall_7day": 0,
      "forecast_text": "No snow expected",
      "last_updated": "2025-12-09T06:44:10.174Z"
    },
    {
      "name": "Mountain High",
      "lat": 34.3811,
      "lng": -117.6881,
      "snowfall_24hr": 0,
      "snowfall_48hr": 0,
      "snowfall_7day": 0,
      "forecast_text": "No snow expected",
      "last_updated": "2025-12-09T06:44:10.420Z"
    },
    {
      "name": "Ski Santa Fe",
      "lat": 35.7869,
      "lng": -105.7961,
      "snowfall_24hr": 0,
      "snowfall_48hr": 0,
      "snowfall_7day": 0,
      "forecast_text": "No snow expected",
      "last_updated": "2025-12-09T06:44:10.664Z"
    },
    {
      "name": "Angel Fire",
      "lat": 36.3975,
      "lng": -105.2886,
      "snowfall_24hr": 0,
      "snowfall_48hr": 0,
      "snowfall_7day": 0,
      "forecast_text": "No snow expected",
      "last_updated": "2025-12-09T06:44:10.903Z"
    },
    {
      "name": "Whiteface Mountain",
      "lat": 44.3659,
      "lng": -73.9024,
      "snowfall_24hr": 0.2,
      "snowfall_48hr": 1.6,
      "snowfall_7day": 2.6,
      "forecast_text": "0.2\" expected in next 24 hours",
      "last_updated": "2025-12-09T06:44:11.150Z"
    },
    {
      "name": "Bristol Mountain",
      "lat": 42.7455,
      "lng": -77.4016,
      "snowfall_24hr": 0.1,
      "snowfall_48hr": 0.8,
      "snowfall_7day": 1.9,
      "forecast_text": "0.1\" expected in next 24 hours",
      "last_updated": "2025-12-09T06:44:11.811Z"
    },
    {
      "name": "Revelstoke Mountain Resort",
      "lat": 50.9981,
      "lng": -118.1958,
      "snowfall_24hr": 3,
      "snowfall_48hr": 3.1,
      "snowfall_7day": 10.5,
      "forecast_text": "3.0\" expected in next 24 hours",
      "last_updated": "2025-12-09T06:44:12.056Z"
    },
    {
      "name": "Big White Ski Resort",
      "lat": 49.7308,
      "lng": -118.9357,
      "snowfall_24hr": 2.2,
      "snowfall_48hr": 4.1,
      "snowfall_7day": 11.5,
      "forecast_text": "2.2\" expected in next 24 hours",
      "last_updated": "2025-12-09T06:44:12.300Z"
    },
    {
      "name": "Sun Peaks Resort",
      "lat": 50.8847,
      "lng": -119.8892,
      "snowfall_24hr": 0,
      "snowfall_48hr": 0.2,
      "snowfall_7day": 2,
      "forecast_text": "0.2\" expected in next 48 hours",
      "last_updated": "2025-12-09T06:44:12.545Z"
    },
    {
      "name": "Fernie Alpine Resort",
      "lat": 49.4651,
      "lng": -115.0764,
      "snowfall_24hr": 0.1,
      "snowfall_48hr": 0.1,
      "snowfall_7day": 0.7,
      "forecast_text": "0.1\" expected in next 24 hours",
      "last_updated": "2025-12-09T06:44:12.789Z"
    },
    {
      "name": "Kicking Horse Mountain Resort",
      "lat": 51.2983,
      "lng": -116.955,
      "snowfall_24hr": 0.7,
      "snowfall_48hr": 0.7,
      "snowfall_7day": 2.3,
      "forecast_text": "0.7\" expected in next 24 hours",
      "last_updated": "2025-12-09T06:44:13.027Z"
    },
    {
      "name": "Panorama Mountain Resort",
      "lat": 50.9806,
      "lng": -116.0972,
      "snowfall_24hr": 0.7,
      "snowfall_48hr": 0.7,
      "snowfall_7day": 5.2,
      "forecast_text": "0.7\" expected in next 24 hours",
      "last_updated": "2025-12-09T06:44:13.268Z"
    },
    {
      "name": "RED Mountain Resort",
      "lat": 49.0878,
      "lng": -117.8197,
      "snowfall_24hr": 1.2,
      "snowfall_48hr": 2.1,
      "snowfall_7day": 5.8,
      "forecast_text": "1.2\" expected in next 24 hours",
      "last_updated": "2025-12-09T06:44:13.508Z"
    },
    {
      "name": "SilverStar Mountain Resort",
      "lat": 50.4,
      "lng": -119.0833,
      "snowfall_24hr": 0.1,
      "snowfall_48hr": 1.3,
      "snowfall_7day": 3.1,
      "forecast_text": "0.1\" expected in next 24 hours",
      "last_updated": "2025-12-09T06:44:13.754Z"
    },
    {
      "name": "Lake Louise Ski Resort",
      "lat": 51.4254,
      "lng": -116.1773,
      "snowfall_24hr": 0,
      "snowfall_48hr": 0,
      "snowfall_7day": 1.6,
      "forecast_text": "1.6\" expected in next 7 days",
      "last_updated": "2025-12-09T06:44:14.000Z"
    },
    {
      "name": "Sunshine Village",
      "lat": 51.1128,
      "lng": -115.7631,
      "snowfall_24hr": 1.1,
      "snowfall_48hr": 1.5,
      "snowfall_7day": 4.6,
      "forecast_text": "1.1\" expected in next 24 hours",
      "last_updated": "2025-12-09T06:44:14.244Z"
    },
    {
      "name": "Mount Norquay",
      "lat": 51.2094,
      "lng": -115.5797,
      "snowfall_24hr": 0.6,
      "snowfall_48hr": 0.7,
      "snowfall_7day": 1.7,
      "forecast_text": "0.6\" expected in next 24 hours",
      "last_updated": "2025-12-09T06:44:14.499Z"
    },
    {
      "name": "Nakiska Ski Area",
      "lat": 50.9042,
      "lng": -115.0856,
      "snowfall_24hr": 0.5,
      "snowfall_48hr": 1.7,
      "snowfall_7day": 3.8,
      "forecast_text": "0.5\" expected in next 24 hours",
      "last_updated": "2025-12-09T06:44:14.744Z"
    },
    {
      "name": "Le Massif de Charlevoix",
      "lat": 47.3389,
      "lng": -70.6375,
      "snowfall_24hr": 0,
      "snowfall_48hr": 2,
      "snowfall_7day": 2.4,
      "forecast_text": "2.0\" expected in next 48 hours",
      "last_updated": "2025-12-09T06:44:14.989Z"
    },
    {
      "name": "Blue Mountain Resort",
      "lat": 44.5067,
      "lng": -80.3158,
      "snowfall_24hr": 0.3,
      "snowfall_48hr": 1.9,
      "snowfall_7day": 2.6,
      "forecast_text": "0.3\" expected in next 24 hours",
      "last_updated": "2025-12-09T06:44:15.234Z"
    }
  ]
}