{
  "generated_at": "2025-11-11T18:35:25.272Z",
  "total_resorts": 100,
  "resorts": [
    {
      "name": "Whistler Blackcomb",
      "lat": 50.1163,
      "lng": -122.9574,
      "snowfall_7day": 0,
      "forecast_text": "Data unavailable",
      "last_updated": "2025-11-11T18:29:24.549Z",
      "error": "Point API failed: 404"
    },
    {
      "name": "Vail",
      "lat": 39.6403,
      "lng": -106.3742,
      "snowfall_7day": 0,
      "forecast_text": "Sunny, with a high near 55. West wind 5 to 10 mph.",
      "last_updated": "2025-11-11T18:29:36.094Z"
    },
    {
      "name": "Park City",
      "lat": 40.6514,
      "lng": -111.5079,
      "snowfall_7day": 1.5,
      "forecast_text": "Mostly sunny. High near 60, with temperatures falling to around 53 in the afternoon. West wind around 2 mph.",
      "last_updated": "2025-11-11T18:29:36.900Z"
    },
    {
      "name": "Breckenridge",
      "lat": 39.4817,
      "lng": -106.0384,
      "snowfall_7day": 0,
      "forecast_text": "Sunny. High near 52, with temperatures falling to around 45 in the afternoon. West northwest wind 7 to 15 mph, with gusts as high as 24 mph.",
      "last_updated": "2025-11-11T18:29:39.888Z"
    },
    {
      "name": "Heavenly",
      "lat": 38.935,
      "lng": -119.9403,
      "snowfall_7day": 4.5,
      "forecast_text": "Mostly cloudy, with a high near 59. Southwest wind 0 to 5 mph.",
      "last_updated": "2025-11-11T18:29:43.550Z"
    },
    {
      "name": "Aspen Snowmass",
      "lat": 39.1911,
      "lng": -106.8175,
      "snowfall_7day": 0,
      "forecast_text": "Sunny, with a high near 60. West northwest wind around 5 mph.",
      "last_updated": "2025-11-11T18:29:44.007Z"
    },
    {
      "name": "Jackson Hole",
      "lat": 43.5875,
      "lng": -110.8278,
      "snowfall_7day": 0,
      "forecast_text": "Mostly sunny. High near 48, with temperatures falling to around 42 in the afternoon. Southwest wind around 7 mph.",
      "last_updated": "2025-11-11T18:29:44.770Z"
    },
    {
      "name": "Banff Sunshine",
      "lat": 51.1158,
      "lng": -115.7631,
      "snowfall_7day": 0,
      "forecast_text": "Data unavailable",
      "last_updated": "2025-11-11T18:29:45.024Z",
      "error": "Point API failed: 404"
    },
    {
      "name": "Lake Louise",
      "lat": 51.4254,
      "lng": -116.1773,
      "snowfall_7day": 0,
      "forecast_text": "Data unavailable",
      "last_updated": "2025-11-11T18:29:45.310Z",
      "error": "Point API failed: 404"
    },
    {
      "name": "Big Sky",
      "lat": 45.2846,
      "lng": -111.4008,
      "snowfall_7day": 4,
      "forecast_text": "Mostly sunny, with a high near 42. West wind around 8 mph, with gusts as high as 20 mph.",
      "last_updated": "2025-11-11T18:29:46.656Z"
    },
    {
      "name": "Steamboat",
      "lat": 40.458,
      "lng": -106.8047,
      "snowfall_7day": 0,
      "forecast_text": "Sunny, with a high near 56. West northwest wind 0 to 10 mph.",
      "last_updated": "2025-11-11T18:29:57.876Z"
    },
    {
      "name": "Mammoth Mountain",
      "lat": 37.6308,
      "lng": -119.0326,
      "snowfall_7day": 31,
      "forecast_text": "Mostly cloudy. High near 47, with temperatures falling to around 42 in the afternoon. Southwest wind 10 to 15 mph, with gusts as high as 25 mph.",
      "last_updated": "2025-11-11T18:30:00.760Z"
    },
    {
      "name": "Squaw Valley",
      "lat": 39.197,
      "lng": -120.2356,
      "snowfall_7day": 10,
      "forecast_text": "Mostly cloudy, with a high near 62. Southwest wind 0 to 5 mph.",
      "last_updated": "2025-11-11T18:30:31.375Z"
    },
    {
      "name": "Telluride",
      "lat": 37.9375,
      "lng": -107.8123,
      "snowfall_7day": 2,
      "forecast_text": "Mostly sunny, with a high near 54. West wind 0 to 5 mph.",
      "last_updated": "2025-11-11T18:30:31.916Z"
    },
    {
      "name": "Sun Valley",
      "lat": 43.6966,
      "lng": -114.3553,
      "snowfall_7day": 0,
      "forecast_text": "Sunny. High near 57, with temperatures falling to around 51 in the afternoon. South southwest wind 2 to 6 mph.",
      "last_updated": "2025-11-11T18:30:32.966Z"
    },
    {
      "name": "Deer Valley",
      "lat": 40.6374,
      "lng": -111.4783,
      "snowfall_7day": 3.5,
      "forecast_text": "Mostly sunny. High near 56, with temperatures falling to around 50 in the afternoon. West southwest wind around 3 mph.",
      "last_updated": "2025-11-11T18:30:34.221Z"
    },
    {
      "name": "Killington",
      "lat": 43.6046,
      "lng": -72.822,
      "snowfall_7day": 7,
      "forecast_text": "Snow showers likely and areas of blowing snow before 4pm, then areas of blowing snow and a chance of snow showers between 4pm and 5pm, then snow showers likely and areas of blowing snow. Cloudy, with a high near 20. Wind chill values as low as -7. West wind 23 to 31 mph, with gusts as high as 45 mph. Chance of precipitation is 70%. New snow accumulation of 1 to 2 inches possible.",
      "last_updated": "2025-11-11T18:30:35.460Z"
    },
    {
      "name": "Stowe",
      "lat": 44.5303,
      "lng": -72.7817,
      "snowfall_7day": 20.5,
      "forecast_text": "Snow showers and areas of blowing snow. Cloudy. High near 26, with temperatures falling to around 20 in the afternoon. West wind 13 to 17 mph, with gusts as high as 35 mph. Chance of precipitation is 100%. New snow accumulation of 2 to 4 inches possible.",
      "last_updated": "2025-11-11T18:30:36.393Z"
    },
    {
      "name": "Alta",
      "lat": 40.5885,
      "lng": -111.6376,
      "snowfall_7day": 15,
      "forecast_text": "Mostly sunny. High near 51, with temperatures falling to around 45 in the afternoon. West wind around 2 mph.",
      "last_updated": "2025-11-11T18:30:37.758Z"
    },
    {
      "name": "Snowbird",
      "lat": 40.5803,
      "lng": -111.6573,
      "snowfall_7day": 13.5,
      "forecast_text": "Mostly sunny. High near 56, with temperatures falling to around 49 in the afternoon. West wind around 2 mph.",
      "last_updated": "2025-11-11T18:30:39.114Z"
    },
    {
      "name": "Taos",
      "lat": 36.5924,
      "lng": -105.4467,
      "snowfall_7day": 5,
      "forecast_text": "Mostly sunny. High near 47, with temperatures falling to around 38 in the afternoon. Northwest wind 5 to 10 mph.",
      "last_updated": "2025-11-11T18:30:45.209Z"
    },
    {
      "name": "Copper Mountain",
      "lat": 39.5022,
      "lng": -106.1506,
      "snowfall_7day": 3.5,
      "forecast_text": "Sunny. High near 49, with temperatures falling to around 37 in the afternoon. West wind 7 to 16 mph, with gusts as high as 26 mph.",
      "last_updated": "2025-11-11T18:30:45.950Z"
    },
    {
      "name": "Winter Park",
      "lat": 39.8868,
      "lng": -105.7625,
      "snowfall_7day": 2,
      "forecast_text": "Mostly sunny. High near 48, with temperatures falling to around 42 in the afternoon. Northwest wind 10 to 16 mph, with gusts as high as 28 mph.",
      "last_updated": "2025-11-11T18:30:54.318Z"
    },
    {
      "name": "Keystone",
      "lat": 39.605,
      "lng": -105.9347,
      "snowfall_7day": 0,
      "forecast_text": "Sunny. High near 52, with temperatures falling to around 45 in the afternoon. West northwest wind 7 to 15 mph, with gusts as high as 24 mph.",
      "last_updated": "2025-11-11T18:30:55.325Z"
    },
    {
      "name": "Arapahoe Basin",
      "lat": 39.6426,
      "lng": -105.8717,
      "snowfall_7day": 7.5,
      "forecast_text": "Sunny. High near 46, with temperatures falling to around 41 in the afternoon. West northwest wind 12 to 18 mph, with gusts as high as 31 mph.",
      "last_updated": "2025-11-11T18:30:56.348Z"
    },
    {
      "name": "Crested Butte",
      "lat": 38.8997,
      "lng": -106.9653,
      "snowfall_7day": 0,
      "forecast_text": "Sunny, with a high near 51. West northwest wind 5 to 10 mph.",
      "last_updated": "2025-11-11T18:31:04.424Z"
    },
    {
      "name": "Loveland",
      "lat": 39.6803,
      "lng": -105.8978,
      "snowfall_7day": 5,
      "forecast_text": "Sunny. High near 38, with temperatures falling to around 34 in the afternoon. West northwest wind 10 to 18 mph, with gusts as high as 31 mph.",
      "last_updated": "2025-11-11T18:31:15.918Z"
    },
    {
      "name": "Mt. Bachelor",
      "lat": 43.979,
      "lng": -121.688,
      "snowfall_7day": 11.5,
      "forecast_text": "Partly sunny. High near 47, with temperatures falling to around 43 in the afternoon. Southwest wind around 5 mph.",
      "last_updated": "2025-11-11T18:31:19.628Z"
    },
    {
      "name": "Crystal Mountain",
      "lat": 46.9358,
      "lng": -121.4742,
      "snowfall_7day": 11.5,
      "forecast_text": "Partly sunny. High near 44, with temperatures falling to around 38 in the afternoon. South southwest wind around 5 mph.",
      "last_updated": "2025-11-11T18:31:27.112Z"
    },
    {
      "name": "Stevens Pass",
      "lat": 47.7453,
      "lng": -121.0892,
      "snowfall_7day": 6.5,
      "forecast_text": "Mostly sunny. High near 44, with temperatures falling to around 39 in the afternoon. North wind around 2 mph.",
      "last_updated": "2025-11-11T18:31:28.224Z"
    },
    {
      "name": "Mt. Baker",
      "lat": 48.8597,
      "lng": -121.6686,
      "snowfall_7day": 18.5,
      "forecast_text": "Partly sunny. High near 40, with temperatures falling to around 36 in the afternoon. West wind around 2 mph.",
      "last_updated": "2025-11-11T18:31:29.856Z"
    },
    {
      "name": "Schweitzer",
      "lat": 48.3642,
      "lng": -116.6228,
      "snowfall_7day": 8,
      "forecast_text": "Partly sunny. High near 37, with temperatures falling to around 35 in the afternoon. Southwest wind around 5 mph.",
      "last_updated": "2025-11-11T18:31:31.783Z"
    },
    {
      "name": "Sun Peaks",
      "lat": 50.8817,
      "lng": -119.8847,
      "snowfall_7day": 0,
      "forecast_text": "Data unavailable",
      "last_updated": "2025-11-11T18:31:34.053Z",
      "error": "Point API failed: 404"
    },
    {
      "name": "Revelstoke",
      "lat": 50.9981,
      "lng": -118.1956,
      "snowfall_7day": 0,
      "forecast_text": "Data unavailable",
      "last_updated": "2025-11-11T18:31:34.306Z",
      "error": "Point API failed: 404"
    },
    {
      "name": "Fernie",
      "lat": 49.4653,
      "lng": -115.0636,
      "snowfall_7day": 0,
      "forecast_text": "Data unavailable",
      "last_updated": "2025-11-11T18:31:34.563Z",
      "error": "Point API failed: 404"
    },
    {
      "name": "Big White",
      "lat": 49.7311,
      "lng": -118.935,
      "snowfall_7day": 0,
      "forecast_text": "Data unavailable",
      "last_updated": "2025-11-11T18:31:37.818Z",
      "error": "Point API failed: 404"
    },
    {
      "name": "Kicking Horse",
      "lat": 51.2514,
      "lng": -117.0492,
      "snowfall_7day": 0,
      "forecast_text": "Data unavailable",
      "last_updated": "2025-11-11T18:31:40.004Z",
      "error": "Point API failed: 404"
    },
    {
      "name": "Mont Tremblant",
      "lat": 46.2094,
      "lng": -74.5847,
      "snowfall_7day": 0,
      "forecast_text": "Data unavailable",
      "last_updated": "2025-11-11T18:31:40.349Z",
      "error": "Point API failed: 404"
    },
    {
      "name": "Blue Mountain",
      "lat": 44.5075,
      "lng": -80.3231,
      "snowfall_7day": 0,
      "forecast_text": "Data unavailable",
      "last_updated": "2025-11-11T18:31:40.601Z",
      "error": "Point API failed: 404"
    },
    {
      "name": "Sugarloaf",
      "lat": 45.0314,
      "lng": -70.3139,
      "snowfall_7day": 0,
      "forecast_text": "A chance of snow showers. Mostly cloudy. High near 28, with temperatures falling to around 21 in the afternoon. West wind 15 to 20 mph, with gusts as high as 40 mph. Chance of precipitation is 60%. New snow accumulation of less than one inch possible.",
      "last_updated": "2025-11-11T18:31:54.136Z"
    },
    {
      "name": "Sunday River",
      "lat": 44.4697,
      "lng": -70.8561,
      "snowfall_7day": 0,
      "forecast_text": "Scattered snow showers. Mostly cloudy. High near 33, with temperatures falling to around 27 in the afternoon. West wind 10 to 15 mph, with gusts as high as 35 mph. Chance of precipitation is 50%. New snow accumulation of less than half an inch possible.",
      "last_updated": "2025-11-11T18:32:03.193Z"
    },
    {
      "name": "Sugarbush",
      "lat": 44.135,
      "lng": -72.9017,
      "snowfall_7day": 7.5,
      "forecast_text": "Snow showers and areas of blowing snow. Cloudy, with a high near 20. Wind chill values as low as -3. West wind 13 to 21 mph, with gusts as high as 39 mph. Chance of precipitation is 100%. New snow accumulation of 1 to 3 inches possible.",
      "last_updated": "2025-11-11T18:32:09.828Z"
    },
    {
      "name": "Stratton",
      "lat": 43.1133,
      "lng": -72.9083,
      "snowfall_7day": 0,
      "forecast_text": "Snow showers likely. Mostly cloudy, with a high near 29. West wind around 9 mph, with gusts as high as 29 mph. Chance of precipitation is 60%. New snow accumulation of less than one inch possible.",
      "last_updated": "2025-11-11T18:32:14.030Z"
    },
    {
      "name": "Okemo",
      "lat": 43.4017,
      "lng": -72.7167,
      "snowfall_7day": 0,
      "forecast_text": "A chance of snow showers. Mostly cloudy, with a high near 30. West wind 14 to 21 mph, with gusts as high as 36 mph. Chance of precipitation is 30%. New snow accumulation of less than one inch possible.",
      "last_updated": "2025-11-11T18:32:14.692Z"
    },
    {
      "name": "Jay Peak",
      "lat": 44.9378,
      "lng": -72.5036,
      "snowfall_7day": 24,
      "forecast_text": "Snow showers and areas of blowing snow. Cloudy, with a high near 22. West wind 17 to 21 mph, with gusts as high as 41 mph. Chance of precipitation is 100%. New snow accumulation of 3 to 5 inches possible.",
      "last_updated": "2025-11-11T18:32:15.872Z"
    },
    {
      "name": "Smugglers' Notch",
      "lat": 44.5458,
      "lng": -72.7872,
      "snowfall_7day": 22,
      "forecast_text": "Snow showers and areas of blowing snow. Cloudy, with a high near 25. West wind 16 to 21 mph, with gusts as high as 36 mph. Chance of precipitation is 100%. New snow accumulation of 2 to 4 inches possible.",
      "last_updated": "2025-11-11T18:32:21.895Z"
    },
    {
      "name": "Loon Mountain",
      "lat": 44.0369,
      "lng": -71.6206,
      "snowfall_7day": 3,
      "forecast_text": "A chance of snow showers. Mostly cloudy, with a high near 26. West wind around 15 mph, with gusts as high as 30 mph. Chance of precipitation is 60%. New snow accumulation of 1 to 2 inches possible.",
      "last_updated": "2025-11-11T18:32:24.136Z"
    },
    {
      "name": "Cannon Mountain",
      "lat": 44.1572,
      "lng": -71.6978,
      "snowfall_7day": 8.5,
      "forecast_text": "A chance of snow showers. Cloudy, with a high near 20. Wind chill values as low as -3. West wind 20 to 30 mph, with gusts as high as 50 mph. Chance of precipitation is 60%. New snow accumulation of 1 to 3 inches possible.",
      "last_updated": "2025-11-11T18:32:25.840Z"
    },
    {
      "name": "Wildcat Mountain",
      "lat": 44.2636,
      "lng": -71.2328,
      "snowfall_7day": 6.5,
      "forecast_text": "A chance of snow showers. Mostly cloudy, with a high near 28. West wind 10 to 15 mph, with gusts as high as 45 mph. Chance of precipitation is 60%. New snow accumulation of 1 to 2 inches possible.",
      "last_updated": "2025-11-11T18:32:27.484Z"
    },
    {
      "name": "Bretton Woods",
      "lat": 44.2633,
      "lng": -71.4439,
      "snowfall_7day": 7,
      "forecast_text": "A chance of snow showers. Mostly cloudy, with a high near 27. West wind 10 to 15 mph, with gusts as high as 35 mph. Chance of precipitation is 60%. New snow accumulation of 1 to 3 inches possible.",
      "last_updated": "2025-11-11T18:32:29.164Z"
    },
    {
      "name": "Snowbasin",
      "lat": 41.2156,
      "lng": -111.8567,
      "snowfall_7day": 1.5,
      "forecast_text": "Sunny. High near 54, with temperatures falling to around 49 in the afternoon. West southwest wind around 2 mph.",
      "last_updated": "2025-11-11T18:32:31.524Z"
    },
    {
      "name": "Powder Mountain",
      "lat": 41.3814,
      "lng": -111.7806,
      "snowfall_7day": 8.5,
      "forecast_text": "Sunny. High near 47, with temperatures falling to around 41 in the afternoon. West southwest wind around 3 mph.",
      "last_updated": "2025-11-11T18:32:32.256Z"
    },
    {
      "name": "Solitude",
      "lat": 40.62,
      "lng": -111.5917,
      "snowfall_7day": 7,
      "forecast_text": "Mostly sunny. High near 56, with temperatures falling to around 50 in the afternoon. West wind around 2 mph.",
      "last_updated": "2025-11-11T18:32:37.142Z"
    },
    {
      "name": "Brighton",
      "lat": 40.5981,
      "lng": -111.5831,
      "snowfall_7day": 9,
      "forecast_text": "Mostly sunny. High near 55, with temperatures falling to around 49 in the afternoon. West wind around 2 mph.",
      "last_updated": "2025-11-11T18:32:44.177Z"
    },
    {
      "name": "Snowmass",
      "lat": 39.2133,
      "lng": -106.9378,
      "snowfall_7day": 0,
      "forecast_text": "Sunny, with a high near 55. Northwest wind around 5 mph.",
      "last_updated": "2025-11-11T18:32:52.270Z"
    },
    {
      "name": "Aspen Highlands",
      "lat": 39.1825,
      "lng": -106.8553,
      "snowfall_7day": 0,
      "forecast_text": "Sunny, with a high near 59. West northwest wind around 5 mph.",
      "last_updated": "2025-11-11T18:32:55.669Z"
    },
    {
      "name": "Buttermilk",
      "lat": 39.2078,
      "lng": -106.8608,
      "snowfall_7day": 0,
      "forecast_text": "Sunny, with a high near 60. Northwest wind 5 to 10 mph.",
      "last_updated": "2025-11-11T18:32:57.789Z"
    },
    {
      "name": "Beaver Creek",
      "lat": 39.6042,
      "lng": -106.5164,
      "snowfall_7day": 0,
      "forecast_text": "Sunny, with a high near 55. West northwest wind 5 to 10 mph.",
      "last_updated": "2025-11-11T18:33:09.079Z"
    },
    {
      "name": "Purgatory",
      "lat": 37.6303,
      "lng": -107.8139,
      "snowfall_7day": 1.5,
      "forecast_text": "Mostly sunny, with a high near 60. West wind around 5 mph.",
      "last_updated": "2025-11-11T18:33:15.961Z"
    },
    {
      "name": "Wolf Creek",
      "lat": 37.4722,
      "lng": -106.7931,
      "snowfall_7day": 9,
      "forecast_text": "Mostly sunny, with a high near 46. West southwest wind 5 to 10 mph.",
      "last_updated": "2025-11-11T18:33:28.346Z"
    },
    {
      "name": "Monarch Mountain",
      "lat": 38.5117,
      "lng": -106.3317,
      "snowfall_7day": 4.5,
      "forecast_text": "Mostly sunny, with a high near 41. West wind around 15 mph.",
      "last_updated": "2025-11-11T18:33:42.619Z"
    },
    {
      "name": "Eldora",
      "lat": 39.9372,
      "lng": -105.5828,
      "snowfall_7day": 2,
      "forecast_text": "Mostly sunny. High near 48, with temperatures falling to around 42 in the afternoon. West wind 9 to 23 mph, with gusts as high as 38 mph.",
      "last_updated": "2025-11-11T18:33:46.049Z"
    },
    {
      "name": "Grand Targhee",
      "lat": 43.7886,
      "lng": -110.9586,
      "snowfall_7day": 4,
      "forecast_text": "Sunny. High near 34, with temperatures falling to around 30 in the afternoon. Southwest wind around 8 mph.",
      "last_updated": "2025-11-11T18:33:49.892Z"
    },
    {
      "name": "Snow King",
      "lat": 43.4783,
      "lng": -110.7628,
      "snowfall_7day": 0,
      "forecast_text": "Sunny. High near 54, with temperatures falling to around 47 in the afternoon. South southwest wind around 8 mph.",
      "last_updated": "2025-11-11T18:33:50.900Z"
    },
    {
      "name": "Bridger Bowl",
      "lat": 45.8167,
      "lng": -110.8969,
      "snowfall_7day": 6,
      "forecast_text": "Mostly sunny. High near 50, with temperatures falling to around 45 in the afternoon. West southwest wind 6 to 10 mph, with gusts as high as 24 mph.",
      "last_updated": "2025-11-11T18:33:52.123Z"
    },
    {
      "name": "Big Mountain",
      "lat": 48.4928,
      "lng": -114.3483,
      "snowfall_7day": 4,
      "forecast_text": "Partly sunny, with a high near 35. West southwest wind 2 to 6 mph.",
      "last_updated": "2025-11-11T18:33:53.330Z"
    },
    {
      "name": "Snowbowl",
      "lat": 46.9417,
      "lng": -113.9492,
      "snowfall_7day": 0,
      "forecast_text": "Mostly sunny. High near 51, with temperatures falling to around 46 in the afternoon. West northwest wind 2 to 6 mph.",
      "last_updated": "2025-11-11T18:33:55.275Z"
    },
    {
      "name": "Bogus Basin",
      "lat": 43.7725,
      "lng": -116.0939,
      "snowfall_7day": 0,
      "forecast_text": "Sunny. High near 50, with temperatures falling to around 46 in the afternoon. Southwest wind around 2 mph.",
      "last_updated": "2025-11-11T18:33:57.444Z"
    },
    {
      "name": "Tamarack",
      "lat": 44.6922,
      "lng": -116.1344,
      "snowfall_7day": 3.5,
      "forecast_text": "Sunny. High near 46, with temperatures falling to around 41 in the afternoon. Southwest wind around 6 mph.",
      "last_updated": "2025-11-11T18:33:59.604Z"
    },
    {
      "name": "Silver Mountain",
      "lat": 47.6764,
      "lng": -116.0703,
      "snowfall_7day": 0,
      "forecast_text": "Areas of fog before 11am. Mostly sunny. High near 48, with temperatures falling to around 44 in the afternoon. Southwest wind around 3 mph.",
      "last_updated": "2025-11-11T18:34:00.733Z"
    },
    {
      "name": "Mt. Hood Meadows",
      "lat": 45.3319,
      "lng": -121.6653,
      "snowfall_7day": 7.5,
      "forecast_text": "A slight chance of rain after 3pm. Partly sunny. High near 49, with temperatures falling to around 46 in the afternoon. West southwest wind around 1 mph. Chance of precipitation is 20%.",
      "last_updated": "2025-11-11T18:34:05.787Z"
    },
    {
      "name": "Timberline",
      "lat": 45.3306,
      "lng": -121.7108,
      "snowfall_7day": 26,
      "forecast_text": "A slight chance of rain after 3pm. Partly sunny. High near 45, with temperatures falling to around 43 in the afternoon. West southwest wind around 2 mph. Chance of precipitation is 20%.",
      "last_updated": "2025-11-11T18:34:08.124Z"
    },
    {
      "name": "Willamette Pass",
      "lat": 43.6006,
      "lng": -122.0336,
      "snowfall_7day": 6.5,
      "forecast_text": "Mostly cloudy. High near 55, with temperatures falling to around 50 in the afternoon. South southwest wind around 7 mph.",
      "last_updated": "2025-11-11T18:34:14.466Z"
    },
    {
      "name": "Mission Ridge",
      "lat": 47.2917,
      "lng": -120.3997,
      "snowfall_7day": 0,
      "forecast_text": "Mostly sunny. High near 42, with temperatures falling to around 38 in the afternoon. Southwest wind around 3 mph. New rainfall amounts less than a tenth of an inch possible.",
      "last_updated": "2025-11-11T18:34:35.113Z"
    },
    {
      "name": "Snoqualmie",
      "lat": 47.4219,
      "lng": -121.4136,
      "snowfall_7day": 0,
      "forecast_text": "Mostly sunny. High near 48, with temperatures falling to around 42 in the afternoon. South wind around 1 mph.",
      "last_updated": "2025-11-11T18:34:44.251Z"
    },
    {
      "name": "Mt. Spokane",
      "lat": 47.9208,
      "lng": -117.0856,
      "snowfall_7day": 0,
      "forecast_text": "Partly sunny. High near 42, with temperatures falling to around 38 in the afternoon. South wind around 5 mph.",
      "last_updated": "2025-11-11T18:34:45.313Z"
    },
    {
      "name": "White Pass",
      "lat": 46.6394,
      "lng": -121.3908,
      "snowfall_7day": 4.5,
      "forecast_text": "Mostly sunny. High near 47, with temperatures falling to around 41 in the afternoon. South wind around 2 mph.",
      "last_updated": "2025-11-11T18:34:46.195Z"
    },
    {
      "name": "49 Degrees North",
      "lat": 48.7511,
      "lng": -117.6369,
      "snowfall_7day": 0,
      "forecast_text": "Areas of fog before 11am. Partly sunny. High near 42, with temperatures falling to around 40 in the afternoon. Southeast wind around 1 mph.",
      "last_updated": "2025-11-11T18:34:49.048Z"
    },
    {
      "name": "Red Mountain",
      "lat": 49.0917,
      "lng": -117.8233,
      "snowfall_7day": 0,
      "forecast_text": "Data unavailable",
      "last_updated": "2025-11-11T18:34:49.342Z",
      "error": "Point API failed: 404"
    },
    {
      "name": "Whitewater",
      "lat": 49.5394,
      "lng": -117.2717,
      "snowfall_7day": 0,
      "forecast_text": "Data unavailable",
      "last_updated": "2025-11-11T18:34:49.879Z",
      "error": "Point API failed: 404"
    },
    {
      "name": "Panorama",
      "lat": 50.8036,
      "lng": -116.0533,
      "snowfall_7day": 0,
      "forecast_text": "Data unavailable",
      "last_updated": "2025-11-11T18:34:52.077Z",
      "error": "Point API failed: 404"
    },
    {
      "name": "Marmot Basin",
      "lat": 52.8236,
      "lng": -118.0747,
      "snowfall_7day": 0,
      "forecast_text": "Data unavailable",
      "last_updated": "2025-11-11T18:34:52.502Z",
      "error": "Point API failed: 404"
    },
    {
      "name": "Nakiska",
      "lat": 50.98,
      "lng": -115.0733,
      "snowfall_7day": 0,
      "forecast_text": "Data unavailable",
      "last_updated": "2025-11-11T18:34:52.822Z",
      "error": "Point API failed: 404"
    },
    {
      "name": "Castle Mountain",
      "lat": 49.4058,
      "lng": -114.5169,
      "snowfall_7day": 0,
      "forecast_text": "Data unavailable",
      "last_updated": "2025-11-11T18:34:54.666Z",
      "error": "Point API failed: 404"
    },
    {
      "name": "Norquay",
      "lat": 51.1967,
      "lng": -115.5531,
      "snowfall_7day": 0,
      "forecast_text": "Data unavailable",
      "last_updated": "2025-11-11T18:34:54.924Z",
      "error": "Point API failed: 404"
    },
    {
      "name": "Le Massif",
      "lat": 47.3136,
      "lng": -70.6358,
      "snowfall_7day": 0,
      "forecast_text": "Data unavailable",
      "last_updated": "2025-11-11T18:34:55.174Z",
      "error": "Point API failed: 404"
    },
    {
      "name": "Calabogie",
      "lat": 45.2906,
      "lng": -76.7019,
      "snowfall_7day": 0,
      "forecast_text": "Data unavailable",
      "last_updated": "2025-11-11T18:34:55.741Z",
      "error": "Point API failed: 404"
    },
    {
      "name": "Sierra-at-Tahoe",
      "lat": 38.7986,
      "lng": -120.0828,
      "snowfall_7day": 18,
      "forecast_text": "Mostly cloudy, with a high near 57. Southwest wind 0 to 5 mph.",
      "last_updated": "2025-11-11T18:34:56.986Z"
    },
    {
      "name": "Kirkwood",
      "lat": 38.6867,
      "lng": -120.0656,
      "snowfall_7day": 31,
      "forecast_text": "Mostly cloudy. High near 57, with temperatures falling to around 48 in the afternoon. South southwest wind around 5 mph.",
      "last_updated": "2025-11-11T18:35:03.744Z"
    },
    {
      "name": "Northstar",
      "lat": 39.2733,
      "lng": -120.1211,
      "snowfall_7day": 3,
      "forecast_text": "Mostly cloudy, with a high near 62. Southwest wind around 0 mph.",
      "last_updated": "2025-11-11T18:35:06.953Z"
    },
    {
      "name": "Homewood",
      "lat": 39.0833,
      "lng": -120.1667,
      "snowfall_7day": 8.5,
      "forecast_text": "Mostly cloudy, with a high near 57. Southwest wind 0 to 5 mph.",
      "last_updated": "2025-11-11T18:35:07.448Z"
    },
    {
      "name": "Mt. Rose",
      "lat": 39.3397,
      "lng": -119.8894,
      "snowfall_7day": 12,
      "forecast_text": "Mostly cloudy. High near 55, with temperatures falling to around 47 in the afternoon. Southwest wind around 5 mph.",
      "last_updated": "2025-11-11T18:35:09.403Z"
    },
    {
      "name": "Diamond Peak",
      "lat": 39.2525,
      "lng": -119.9169,
      "snowfall_7day": 8.5,
      "forecast_text": "Mostly cloudy, with a high near 57. Southwest wind around 5 mph.",
      "last_updated": "2025-11-11T18:35:16.524Z"
    },
    {
      "name": "June Mountain",
      "lat": 37.7853,
      "lng": -119.0781,
      "snowfall_7day": 7,
      "forecast_text": "Mostly cloudy, with a high near 64. Southwest wind around 5 mph.",
      "last_updated": "2025-11-11T18:35:17.289Z"
    },
    {
      "name": "Bear Mountain",
      "lat": 34.235,
      "lng": -116.865,
      "snowfall_7day": 0,
      "forecast_text": "Partly sunny, with a high near 68. Southwest wind 5 to 10 mph.",
      "last_updated": "2025-11-11T18:35:17.912Z"
    },
    {
      "name": "Snow Summit",
      "lat": 34.2306,
      "lng": -116.8886,
      "snowfall_7day": 3.5,
      "forecast_text": "Partly sunny, with a high near 65. Southwest wind 5 to 10 mph.",
      "last_updated": "2025-11-11T18:35:18.892Z"
    },
    {
      "name": "Mountain High",
      "lat": 34.3811,
      "lng": -117.6881,
      "snowfall_7day": 4.5,
      "forecast_text": "Partly sunny, with a high near 68. West southwest wind around 0 mph.",
      "last_updated": "2025-11-11T18:35:21.202Z"
    },
    {
      "name": "Ski Santa Fe",
      "lat": 35.7869,
      "lng": -105.7961,
      "snowfall_7day": 3,
      "forecast_text": "Mostly sunny. High near 46, with temperatures falling to around 41 in the afternoon. Northwest wind 5 to 15 mph.",
      "last_updated": "2025-11-11T18:35:22.170Z"
    },
    {
      "name": "Angel Fire",
      "lat": 36.3975,
      "lng": -105.2886,
      "snowfall_7day": 0,
      "forecast_text": "Mostly sunny. High near 59, with temperatures falling to around 50 in the afternoon. West wind 5 to 10 mph.",
      "last_updated": "2025-11-11T18:35:24.128Z"
    },
    {
      "name": "Whiteface Mountain",
      "lat": 44.3659,
      "lng": -73.9024,
      "snowfall_7day": 7,
      "forecast_text": "Snow showers. Cloudy, with a high near 16. Wind chill values as low as -11. West wind 23 to 29 mph, with gusts as high as 53 mph. Chance of precipitation is 80%. New snow accumulation of less than one inch possible.",
      "last_updated": "2025-11-11T18:35:25.072Z"
    }
  ]
}