{
  "generated_at": "2025-11-10T12:50:18.893Z",
  "total_resorts": 99,
  "resorts": [
    {
      "name": "Whistler Blackcomb",
      "lat": 50.1163,
      "lng": -122.9574,
      "snowfall_7day": 0,
      "forecast_text": "Data unavailable",
      "last_updated": "2025-11-10T12:42:36.779Z",
      "error": "Point API failed: 404"
    },
    {
      "name": "Vail",
      "lat": 39.6403,
      "lng": -106.3742,
      "snowfall_7day": 0,
      "forecast_text": "Mostly clear, with a low around 24. Southwest wind around 5 mph.",
      "last_updated": "2025-11-10T12:42:42.212Z"
    },
    {
      "name": "Park City",
      "lat": 40.6514,
      "lng": -111.5079,
      "snowfall_7day": 0,
      "forecast_text": "Partly cloudy, with a low around 36. South wind around 2 mph.",
      "last_updated": "2025-11-10T12:43:09.915Z"
    },
    {
      "name": "Breckenridge",
      "lat": 39.4817,
      "lng": -106.0384,
      "snowfall_7day": 0,
      "forecast_text": "Clear, with a low around 24. West wind around 8 mph.",
      "last_updated": "2025-11-10T12:43:14.350Z"
    },
    {
      "name": "Heavenly",
      "lat": 38.935,
      "lng": -119.9403,
      "snowfall_7day": 0,
      "forecast_text": "Partly cloudy, with a low around 44. South wind around 0 mph.",
      "last_updated": "2025-11-10T12:43:16.141Z"
    },
    {
      "name": "Aspen Snowmass",
      "lat": 39.1911,
      "lng": -106.8175,
      "snowfall_7day": 0,
      "forecast_text": "Mostly clear, with a low around 28. South wind around 5 mph.",
      "last_updated": "2025-11-10T12:43:16.731Z"
    },
    {
      "name": "Jackson Hole",
      "lat": 43.5875,
      "lng": -110.8278,
      "snowfall_7day": 0,
      "forecast_text": "Partly cloudy. Low around 25, with temperatures rising to around 29 overnight. West wind around 3 mph.",
      "last_updated": "2025-11-10T12:43:30.446Z"
    },
    {
      "name": "Banff Sunshine",
      "lat": 51.1158,
      "lng": -115.7631,
      "snowfall_7day": 0,
      "forecast_text": "Data unavailable",
      "last_updated": "2025-11-10T12:43:30.697Z",
      "error": "Point API failed: 404"
    },
    {
      "name": "Lake Louise",
      "lat": 51.4254,
      "lng": -116.1773,
      "snowfall_7day": 0,
      "forecast_text": "Data unavailable",
      "last_updated": "2025-11-10T12:43:34.058Z",
      "error": "Point API failed: 404"
    },
    {
      "name": "Big Sky",
      "lat": 45.2846,
      "lng": -111.4008,
      "snowfall_7day": 0,
      "forecast_text": "Mostly cloudy. Low around 34, with temperatures rising to around 37 overnight. South southwest wind around 8 mph.",
      "last_updated": "2025-11-10T12:43:36.890Z"
    },
    {
      "name": "Steamboat",
      "lat": 40.458,
      "lng": -106.8047,
      "snowfall_7day": 0,
      "forecast_text": "Mostly clear, with a low around 23. East wind around 5 mph.",
      "last_updated": "2025-11-10T12:43:38.732Z"
    },
    {
      "name": "Mammoth Mountain",
      "lat": 37.6308,
      "lng": -119.0326,
      "snowfall_7day": 0,
      "forecast_text": "Partly cloudy. Low around 38, with temperatures rising to around 41 overnight. West southwest wind around 5 mph.",
      "last_updated": "2025-11-10T12:43:39.722Z"
    },
    {
      "name": "Squaw Valley",
      "lat": 39.197,
      "lng": -120.2356,
      "snowfall_7day": 0,
      "forecast_text": "Partly cloudy, with a low around 39. Southwest wind around 0 mph.",
      "last_updated": "2025-11-10T12:43:40.382Z"
    },
    {
      "name": "Telluride",
      "lat": 37.9375,
      "lng": -107.8123,
      "snowfall_7day": 0,
      "forecast_text": "Mostly clear, with a low around 23. East wind around 5 mph.",
      "last_updated": "2025-11-10T12:43:41.272Z"
    },
    {
      "name": "Sun Valley",
      "lat": 43.6966,
      "lng": -114.3553,
      "snowfall_7day": 0,
      "forecast_text": "Mostly cloudy, with a low around 33. North northwest wind around 5 mph.",
      "last_updated": "2025-11-10T12:43:42.512Z"
    },
    {
      "name": "Deer Valley",
      "lat": 40.6374,
      "lng": -111.4783,
      "snowfall_7day": 0,
      "forecast_text": "Partly cloudy, with a low around 34. South wind around 5 mph.",
      "last_updated": "2025-11-10T12:43:44.286Z"
    },
    {
      "name": "Killington",
      "lat": 43.6046,
      "lng": -72.822,
      "snowfall_7day": 0,
      "forecast_text": "Rain and patchy fog before 5pm, then snow. Cloudy, with a high near 40. Southwest wind 5 to 15 mph. Chance of precipitation is 90%. New snow accumulation of less than half an inch possible.",
      "last_updated": "2025-11-10T12:43:51.192Z"
    },
    {
      "name": "Stowe",
      "lat": 44.5303,
      "lng": -72.7817,
      "snowfall_7day": 0,
      "forecast_text": "Rain before 1pm, then sleet likely and rain and snow. Cloudy. High near 38, with temperatures falling to around 31 in the afternoon. Northwest wind 3 to 8 mph. Chance of precipitation is 90%. New snow accumulation of less than one inch possible. Little or no ice accumulation expected.",
      "last_updated": "2025-11-10T12:43:52.530Z"
    },
    {
      "name": "Alta",
      "lat": 40.5885,
      "lng": -111.6376,
      "snowfall_7day": 0,
      "forecast_text": "Partly cloudy. Low around 33, with temperatures rising to around 35 overnight. South southwest wind around 6 mph.",
      "last_updated": "2025-11-10T12:43:53.425Z"
    },
    {
      "name": "Snowbird",
      "lat": 40.5803,
      "lng": -111.6573,
      "snowfall_7day": 0,
      "forecast_text": "Partly cloudy, with a low around 34. South wind around 5 mph.",
      "last_updated": "2025-11-10T12:43:59.449Z"
    },
    {
      "name": "Taos",
      "lat": 36.5924,
      "lng": -105.4467,
      "snowfall_7day": 0,
      "forecast_text": "Clear, with a low around 26. Northwest wind around 10 mph.",
      "last_updated": "2025-11-10T12:44:00.546Z"
    },
    {
      "name": "Copper Mountain",
      "lat": 39.5022,
      "lng": -106.1506,
      "snowfall_7day": 0,
      "forecast_text": "Clear, with a low around 20. West southwest wind around 8 mph.",
      "last_updated": "2025-11-10T12:44:01.735Z"
    },
    {
      "name": "Winter Park",
      "lat": 39.8868,
      "lng": -105.7625,
      "snowfall_7day": 0,
      "forecast_text": "Mostly clear, with a low around 24. West wind around 9 mph.",
      "last_updated": "2025-11-10T12:44:03.071Z"
    },
    {
      "name": "Keystone",
      "lat": 39.605,
      "lng": -105.9347,
      "snowfall_7day": 0,
      "forecast_text": "Clear, with a low around 24. West southwest wind around 8 mph.",
      "last_updated": "2025-11-10T12:44:04.053Z"
    },
    {
      "name": "Arapahoe Basin",
      "lat": 39.6426,
      "lng": -105.8717,
      "snowfall_7day": 0,
      "forecast_text": "Clear, with a low around 24. West northwest wind around 15 mph, with gusts as high as 24 mph.",
      "last_updated": "2025-11-10T12:44:23.194Z"
    },
    {
      "name": "Crested Butte",
      "lat": 38.8997,
      "lng": -106.9653,
      "snowfall_7day": 0,
      "forecast_text": "Mostly clear, with a low around 21. North northwest wind around 5 mph.",
      "last_updated": "2025-11-10T12:44:28.059Z"
    },
    {
      "name": "Loveland",
      "lat": 39.6803,
      "lng": -105.8978,
      "snowfall_7day": 0,
      "forecast_text": "Clear, with a low around 22. West northwest wind around 15 mph, with gusts as high as 25 mph.",
      "last_updated": "2025-11-10T12:44:29.819Z"
    },
    {
      "name": "Mt. Bachelor",
      "lat": 43.979,
      "lng": -121.688,
      "snowfall_7day": 0,
      "forecast_text": "Mostly cloudy, with a low around 39. West wind around 10 mph.",
      "last_updated": "2025-11-10T12:44:31.401Z"
    },
    {
      "name": "Crystal Mountain",
      "lat": 46.9358,
      "lng": -121.4742,
      "snowfall_7day": 0,
      "forecast_text": "A chance of rain. Mostly cloudy. Low around 39, with temperatures rising to around 41 overnight. South southwest wind around 10 mph. Chance of precipitation is 50%. New rainfall amounts less than a tenth of an inch possible.",
      "last_updated": "2025-11-10T12:44:34.965Z"
    },
    {
      "name": "Stevens Pass",
      "lat": 47.7453,
      "lng": -121.0892,
      "snowfall_7day": 0,
      "forecast_text": "Rain. Cloudy. Low around 37, with temperatures rising to around 39 overnight. West southwest wind around 5 mph. Chance of precipitation is 90%. New rainfall amounts between a quarter and half of an inch possible.",
      "last_updated": "2025-11-10T12:44:36.291Z"
    },
    {
      "name": "Mt. Baker",
      "lat": 48.8597,
      "lng": -121.6686,
      "snowfall_7day": 0,
      "forecast_text": "Rain. Cloudy. Low around 40, with temperatures rising to around 42 overnight. South wind around 7 mph. Chance of precipitation is 100%. New rainfall amounts between a quarter and half of an inch possible.",
      "last_updated": "2025-11-10T12:44:45.646Z"
    },
    {
      "name": "Schweitzer",
      "lat": 48.3642,
      "lng": -116.6228,
      "snowfall_7day": 0,
      "forecast_text": "Mostly cloudy, with a low around 34. Southwest wind around 7 mph. New rainfall amounts less than a tenth of an inch possible.",
      "last_updated": "2025-11-10T12:44:51.453Z"
    },
    {
      "name": "Sun Peaks",
      "lat": 50.8817,
      "lng": -119.8847,
      "snowfall_7day": 0,
      "forecast_text": "Data unavailable",
      "last_updated": "2025-11-10T12:44:51.964Z",
      "error": "Point API failed: 404"
    },
    {
      "name": "Revelstoke",
      "lat": 50.9981,
      "lng": -118.1956,
      "snowfall_7day": 0,
      "forecast_text": "Data unavailable",
      "last_updated": "2025-11-10T12:44:52.354Z",
      "error": "Point API failed: 404"
    },
    {
      "name": "Fernie",
      "lat": 49.4653,
      "lng": -115.0636,
      "snowfall_7day": 0,
      "forecast_text": "Data unavailable",
      "last_updated": "2025-11-10T12:44:53.641Z",
      "error": "Point API failed: 404"
    },
    {
      "name": "Big White",
      "lat": 49.7311,
      "lng": -118.935,
      "snowfall_7day": 0,
      "forecast_text": "Data unavailable",
      "last_updated": "2025-11-10T12:44:53.894Z",
      "error": "Point API failed: 404"
    },
    {
      "name": "Kicking Horse",
      "lat": 51.2514,
      "lng": -117.0492,
      "snowfall_7day": 0,
      "forecast_text": "Data unavailable",
      "last_updated": "2025-11-10T12:44:54.635Z",
      "error": "Point API failed: 404"
    },
    {
      "name": "Mont Tremblant",
      "lat": 46.2094,
      "lng": -74.5847,
      "snowfall_7day": 0,
      "forecast_text": "Data unavailable",
      "last_updated": "2025-11-10T12:44:55.143Z",
      "error": "Point API failed: 404"
    },
    {
      "name": "Blue Mountain",
      "lat": 44.5075,
      "lng": -80.3231,
      "snowfall_7day": 0,
      "forecast_text": "Data unavailable",
      "last_updated": "2025-11-10T12:44:56.397Z",
      "error": "Point API failed: 404"
    },
    {
      "name": "Sugarloaf",
      "lat": 45.0314,
      "lng": -70.3139,
      "snowfall_7day": 0,
      "forecast_text": "Rain. Cloudy, with a high near 45. South wind 5 to 10 mph. Chance of precipitation is 90%. New rainfall amounts between a quarter and half of an inch possible.",
      "last_updated": "2025-11-10T12:45:04.801Z"
    },
    {
      "name": "Sunday River",
      "lat": 44.4697,
      "lng": -70.8561,
      "snowfall_7day": 0,
      "forecast_text": "Rain and patchy fog. Cloudy, with a high near 49. North wind around 5 mph. Chance of precipitation is 80%. New rainfall amounts between a quarter and half of an inch possible.",
      "last_updated": "2025-11-10T12:45:14.147Z"
    },
    {
      "name": "Sugarbush",
      "lat": 44.135,
      "lng": -72.9017,
      "snowfall_7day": 0,
      "forecast_text": "Rain and patchy fog before 3pm, then rain and snow. Cloudy, with a high near 39. West wind 3 to 12 mph. Chance of precipitation is 90%. New snow accumulation of less than half an inch possible.",
      "last_updated": "2025-11-10T12:45:15.998Z"
    },
    {
      "name": "Stratton",
      "lat": 43.1133,
      "lng": -72.9083,
      "snowfall_7day": 0,
      "forecast_text": "Rain likely and patchy fog before 10am, then rain showers likely between 10am and 4pm, then rain and snow showers. Cloudy. High near 47, with temperatures falling to around 36 in the afternoon. Southwest wind around 5 mph. Chance of precipitation is 80%. New snow accumulation of less than half an inch possible.",
      "last_updated": "2025-11-10T12:45:36.744Z"
    },
    {
      "name": "Okemo",
      "lat": 43.4017,
      "lng": -72.7167,
      "snowfall_7day": 0,
      "forecast_text": "Rain and patchy fog before 5pm, then rain and snow. Cloudy. High near 49, with temperatures falling to around 38 in the afternoon. Southwest wind 2 to 6 mph. Chance of precipitation is 90%. New rainfall amounts between a quarter and half of an inch possible.",
      "last_updated": "2025-11-10T12:45:38.650Z"
    },
    {
      "name": "Jay Peak",
      "lat": 44.9378,
      "lng": -72.5036,
      "snowfall_7day": 0,
      "forecast_text": "Rain before 1pm, then snow and sleet. Cloudy. High near 37, with temperatures falling to around 31 in the afternoon. Southwest wind 3 to 17 mph. Chance of precipitation is 90%. New snow accumulation of less than one inch possible. Little or no ice accumulation expected.",
      "last_updated": "2025-11-10T12:45:53.440Z"
    },
    {
      "name": "Smugglers' Notch",
      "lat": 44.5458,
      "lng": -72.7872,
      "snowfall_7day": 0,
      "forecast_text": "Rain before 11am, then sleet and rain and snow. Cloudy. High near 37, with temperatures falling to around 28 in the afternoon. Northwest wind 3 to 9 mph. Chance of precipitation is 90%. New snow accumulation of less than one inch possible. Little or no ice accumulation expected.",
      "last_updated": "2025-11-10T12:45:55.469Z"
    },
    {
      "name": "Loon Mountain",
      "lat": 44.0369,
      "lng": -71.6206,
      "snowfall_7day": 0,
      "forecast_text": "Rain. Cloudy, with a high near 46. Southeast wind around 5 mph. Chance of precipitation is 80%. New rainfall amounts between a quarter and half of an inch possible.",
      "last_updated": "2025-11-10T12:45:58.952Z"
    },
    {
      "name": "Cannon Mountain",
      "lat": 44.1572,
      "lng": -71.6978,
      "snowfall_7day": 0,
      "forecast_text": "Rain. Cloudy. High near 44, with temperatures falling to around 38 in the afternoon. South wind 10 to 15 mph, with gusts as high as 25 mph. Chance of precipitation is 90%. New rainfall amounts between a quarter and half of an inch possible.",
      "last_updated": "2025-11-10T12:46:07.312Z"
    },
    {
      "name": "Wildcat Mountain",
      "lat": 44.2636,
      "lng": -71.2328,
      "snowfall_7day": 0,
      "forecast_text": "Rain. Cloudy. High near 49, with temperatures falling to around 41 in the afternoon. Southeast wind around 5 mph. Chance of precipitation is 80%. New rainfall amounts between a quarter and half of an inch possible.",
      "last_updated": "2025-11-10T12:46:09.626Z"
    },
    {
      "name": "Bretton Woods",
      "lat": 44.2633,
      "lng": -71.4439,
      "snowfall_7day": 0,
      "forecast_text": "Rain. Cloudy. High near 50, with temperatures falling to around 42 in the afternoon. East wind around 5 mph. Chance of precipitation is 80%. New rainfall amounts between a quarter and half of an inch possible.",
      "last_updated": "2025-11-10T12:46:11.758Z"
    },
    {
      "name": "Snowbasin",
      "lat": 41.2156,
      "lng": -111.8567,
      "snowfall_7day": 0,
      "forecast_text": "Mostly cloudy. Low around 34, with temperatures rising to around 36 overnight. Southeast wind around 3 mph.",
      "last_updated": "2025-11-10T12:46:13.507Z"
    },
    {
      "name": "Powder Mountain",
      "lat": 41.3814,
      "lng": -111.7806,
      "snowfall_7day": 0,
      "forecast_text": "Mostly cloudy. Low around 34, with temperatures rising to around 37 overnight. West southwest wind around 6 mph.",
      "last_updated": "2025-11-10T12:46:14.608Z"
    },
    {
      "name": "Solitude",
      "lat": 40.62,
      "lng": -111.5917,
      "snowfall_7day": 0,
      "forecast_text": "Partly cloudy. Low around 34, with temperatures rising to around 37 overnight. South southwest wind around 3 mph.",
      "last_updated": "2025-11-10T12:46:26.079Z"
    },
    {
      "name": "Brighton",
      "lat": 40.5981,
      "lng": -111.5831,
      "snowfall_7day": 0,
      "forecast_text": "Partly cloudy. Low around 33, with temperatures rising to around 37 overnight. Southwest wind around 5 mph.",
      "last_updated": "2025-11-10T12:46:33.472Z"
    },
    {
      "name": "Snowmass",
      "lat": 39.2133,
      "lng": -106.9378,
      "snowfall_7day": 0,
      "forecast_text": "Mostly clear, with a low around 27. Southwest wind around 5 mph.",
      "last_updated": "2025-11-10T12:46:41.541Z"
    },
    {
      "name": "Aspen Highlands",
      "lat": 39.1825,
      "lng": -106.8553,
      "snowfall_7day": 0,
      "forecast_text": "Mostly clear, with a low around 26. South wind around 5 mph.",
      "last_updated": "2025-11-10T12:46:44.135Z"
    },
    {
      "name": "Buttermilk",
      "lat": 39.2078,
      "lng": -106.8608,
      "snowfall_7day": 0,
      "forecast_text": "Mostly clear, with a low around 24. South wind around 5 mph.",
      "last_updated": "2025-11-10T12:46:48.421Z"
    },
    {
      "name": "Beaver Creek",
      "lat": 39.6042,
      "lng": -106.5164,
      "snowfall_7day": 0,
      "forecast_text": "Mostly clear, with a low around 22. South southeast wind around 5 mph.",
      "last_updated": "2025-11-10T12:46:49.857Z"
    },
    {
      "name": "Purgatory",
      "lat": 37.6303,
      "lng": -107.8139,
      "snowfall_7day": 0,
      "forecast_text": "Mostly clear, with a low around 28. North wind around 5 mph.",
      "last_updated": "2025-11-10T12:46:51.475Z"
    },
    {
      "name": "Wolf Creek",
      "lat": 37.4722,
      "lng": -106.7931,
      "snowfall_7day": 0,
      "forecast_text": "Clear, with a low around 28. West wind around 5 mph.",
      "last_updated": "2025-11-10T12:46:53.599Z"
    },
    {
      "name": "Monarch Mountain",
      "lat": 38.5117,
      "lng": -106.3317,
      "snowfall_7day": 0,
      "forecast_text": "Clear, with a low around 24. West wind around 15 mph.",
      "last_updated": "2025-11-10T12:47:07.000Z"
    },
    {
      "name": "Eldora",
      "lat": 39.9372,
      "lng": -105.5828,
      "snowfall_7day": 0,
      "forecast_text": "Clear. Low around 27, with temperatures rising to around 29 overnight. West wind around 22 mph, with gusts as high as 37 mph.",
      "last_updated": "2025-11-10T12:47:08.114Z"
    },
    {
      "name": "Grand Targhee",
      "lat": 43.7886,
      "lng": -110.9586,
      "snowfall_7day": 0,
      "forecast_text": "Mostly cloudy. Low around 27, with temperatures rising to around 32 overnight. Southeast wind around 7 mph.",
      "last_updated": "2025-11-10T12:47:43.558Z"
    },
    {
      "name": "Snow King",
      "lat": 43.4783,
      "lng": -110.7628,
      "snowfall_7day": 0,
      "forecast_text": "Partly cloudy. Low around 19, with temperatures rising to around 23 overnight. South southeast wind around 3 mph.",
      "last_updated": "2025-11-10T12:47:44.148Z"
    },
    {
      "name": "Bridger Bowl",
      "lat": 45.8167,
      "lng": -110.8969,
      "snowfall_7day": 0,
      "forecast_text": "Mostly cloudy, with a low around 36. Southwest wind around 7 mph.",
      "last_updated": "2025-11-10T12:47:51.410Z"
    },
    {
      "name": "Big Mountain",
      "lat": 48.4928,
      "lng": -114.3483,
      "snowfall_7day": 0,
      "forecast_text": "Partly cloudy, with a low around 29. Southwest wind around 6 mph.",
      "last_updated": "2025-11-10T12:47:52.675Z"
    },
    {
      "name": "Snowbowl",
      "lat": 46.9417,
      "lng": -113.9492,
      "snowfall_7day": 0,
      "forecast_text": "Mostly cloudy, with a low around 38. Northwest wind around 5 mph.",
      "last_updated": "2025-11-10T12:47:55.736Z"
    },
    {
      "name": "Bogus Basin",
      "lat": 43.7725,
      "lng": -116.0939,
      "snowfall_7day": 0,
      "forecast_text": "Mostly cloudy, with a low around 38. South southeast wind around 8 mph.",
      "last_updated": "2025-11-10T12:48:01.674Z"
    },
    {
      "name": "Tamarack",
      "lat": 44.6922,
      "lng": -116.1344,
      "snowfall_7day": 0,
      "forecast_text": "Mostly cloudy, with a low around 35. South southwest wind around 5 mph.",
      "last_updated": "2025-11-10T12:48:03.276Z"
    },
    {
      "name": "Silver Mountain",
      "lat": 47.6764,
      "lng": -116.0703,
      "snowfall_7day": 0,
      "forecast_text": "Mostly cloudy, with a low around 41. North wind around 3 mph.",
      "last_updated": "2025-11-10T12:48:04.252Z"
    },
    {
      "name": "Mt. Hood Meadows",
      "lat": 45.3319,
      "lng": -121.6653,
      "snowfall_7day": 0,
      "forecast_text": "Mostly cloudy. Low around 42, with temperatures rising to around 44 overnight. West wind around 3 mph.",
      "last_updated": "2025-11-10T12:48:05.555Z"
    },
    {
      "name": "Timberline",
      "lat": 45.3306,
      "lng": -121.7108,
      "snowfall_7day": 0,
      "forecast_text": "Mostly cloudy. Low around 41, with temperatures rising to around 43 overnight. West northwest wind around 7 mph.",
      "last_updated": "2025-11-10T12:48:06.319Z"
    },
    {
      "name": "Willamette Pass",
      "lat": 43.6006,
      "lng": -122.0336,
      "snowfall_7day": 0,
      "forecast_text": "Mostly cloudy, with a low around 41. West wind around 3 mph.",
      "last_updated": "2025-11-10T12:48:07.650Z"
    },
    {
      "name": "Mission Ridge",
      "lat": 47.2917,
      "lng": -120.3997,
      "snowfall_7day": 0,
      "forecast_text": "A slight chance of rain. Mostly cloudy, with a low around 38. Southwest wind around 7 mph. Chance of precipitation is 20%.",
      "last_updated": "2025-11-10T12:48:08.800Z"
    },
    {
      "name": "Snoqualmie",
      "lat": 47.4219,
      "lng": -121.4136,
      "snowfall_7day": 0,
      "forecast_text": "Rain. Cloudy. Low around 36, with temperatures rising to around 41 overnight. West wind around 5 mph. Chance of precipitation is 90%. New rainfall amounts between a tenth and quarter of an inch possible.",
      "last_updated": "2025-11-10T12:48:11.019Z"
    },
    {
      "name": "Mt. Spokane",
      "lat": 47.9208,
      "lng": -117.0856,
      "snowfall_7day": 0,
      "forecast_text": "Mostly cloudy, with a low around 38. Southwest wind around 5 mph.",
      "last_updated": "2025-11-10T12:48:11.905Z"
    },
    {
      "name": "White Pass",
      "lat": 46.6394,
      "lng": -121.3908,
      "snowfall_7day": 0,
      "forecast_text": "Rain likely. Mostly cloudy, with a low around 38. West wind around 9 mph, with gusts as high as 24 mph. Chance of precipitation is 60%. New rainfall amounts less than a tenth of an inch possible.",
      "last_updated": "2025-11-10T12:48:12.894Z"
    },
    {
      "name": "49 Degrees North",
      "lat": 48.7511,
      "lng": -117.6369,
      "snowfall_7day": 0,
      "forecast_text": "A slight chance of rain. Cloudy, with a low around 37. Southeast wind around 2 mph. Chance of precipitation is 20%. New rainfall amounts less than a tenth of an inch possible.",
      "last_updated": "2025-11-10T12:48:14.311Z"
    },
    {
      "name": "Red Mountain",
      "lat": 49.0917,
      "lng": -117.8233,
      "snowfall_7day": 0,
      "forecast_text": "Data unavailable",
      "last_updated": "2025-11-10T12:48:14.628Z",
      "error": "Point API failed: 404"
    },
    {
      "name": "Whitewater",
      "lat": 49.5394,
      "lng": -117.2717,
      "snowfall_7day": 0,
      "forecast_text": "Data unavailable",
      "last_updated": "2025-11-10T12:48:14.953Z",
      "error": "Point API failed: 404"
    },
    {
      "name": "Panorama",
      "lat": 50.8036,
      "lng": -116.0533,
      "snowfall_7day": 0,
      "forecast_text": "Data unavailable",
      "last_updated": "2025-11-10T12:48:18.271Z",
      "error": "Point API failed: 404"
    },
    {
      "name": "Marmot Basin",
      "lat": 52.8236,
      "lng": -118.0747,
      "snowfall_7day": 0,
      "forecast_text": "Data unavailable",
      "last_updated": "2025-11-10T12:48:18.557Z",
      "error": "Point API failed: 404"
    },
    {
      "name": "Nakiska",
      "lat": 50.98,
      "lng": -115.0733,
      "snowfall_7day": 0,
      "forecast_text": "Data unavailable",
      "last_updated": "2025-11-10T12:48:19.084Z",
      "error": "Point API failed: 404"
    },
    {
      "name": "Castle Mountain",
      "lat": 49.4058,
      "lng": -114.5169,
      "snowfall_7day": 0,
      "forecast_text": "Data unavailable",
      "last_updated": "2025-11-10T12:48:22.904Z",
      "error": "Point API failed: 404"
    },
    {
      "name": "Norquay",
      "lat": 51.1967,
      "lng": -115.5531,
      "snowfall_7day": 0,
      "forecast_text": "Data unavailable",
      "last_updated": "2025-11-10T12:48:23.273Z",
      "error": "Point API failed: 404"
    },
    {
      "name": "Le Massif",
      "lat": 47.3136,
      "lng": -70.6358,
      "snowfall_7day": 0,
      "forecast_text": "Data unavailable",
      "last_updated": "2025-11-10T12:48:24.560Z",
      "error": "Point API failed: 404"
    },
    {
      "name": "Calabogie",
      "lat": 45.2906,
      "lng": -76.7019,
      "snowfall_7day": 0,
      "forecast_text": "Data unavailable",
      "last_updated": "2025-11-10T12:48:25.511Z",
      "error": "Point API failed: 404"
    },
    {
      "name": "Sierra-at-Tahoe",
      "lat": 38.7986,
      "lng": -120.0828,
      "snowfall_7day": 0,
      "forecast_text": "Partly cloudy, with a low around 46. Southwest wind around 0 mph.",
      "last_updated": "2025-11-10T12:48:31.627Z"
    },
    {
      "name": "Kirkwood",
      "lat": 38.6867,
      "lng": -120.0656,
      "snowfall_7day": 0,
      "forecast_text": "Partly cloudy. Low around 40, with temperatures rising to around 42 overnight. Southwest wind around 6 mph.",
      "last_updated": "2025-11-10T12:48:35.039Z"
    },
    {
      "name": "Northstar",
      "lat": 39.2733,
      "lng": -120.1211,
      "snowfall_7day": 0,
      "forecast_text": "Patchy freezing fog. Partly cloudy, with a low around 44. South wind around 0 mph.",
      "last_updated": "2025-11-10T12:48:43.567Z"
    },
    {
      "name": "Homewood",
      "lat": 39.0833,
      "lng": -120.1667,
      "snowfall_7day": 0,
      "forecast_text": "Partly cloudy, with a low around 44. West wind around 0 mph.",
      "last_updated": "2025-11-10T12:48:45.631Z"
    },
    {
      "name": "Mt. Rose",
      "lat": 39.3397,
      "lng": -119.8894,
      "snowfall_7day": 0,
      "forecast_text": "Mostly cloudy, with a low around 42. West wind around 5 mph.",
      "last_updated": "2025-11-10T12:49:09.658Z"
    },
    {
      "name": "Diamond Peak",
      "lat": 39.2525,
      "lng": -119.9169,
      "snowfall_7day": 0,
      "forecast_text": "Mostly cloudy, with a low around 43. Northwest wind around 5 mph.",
      "last_updated": "2025-11-10T12:49:21.112Z"
    },
    {
      "name": "June Mountain",
      "lat": 37.7853,
      "lng": -119.0781,
      "snowfall_7day": 0,
      "forecast_text": "Partly cloudy, with a low around 42. Southwest wind around 0 mph.",
      "last_updated": "2025-11-10T12:49:23.055Z"
    },
    {
      "name": "Bear Mountain",
      "lat": 34.235,
      "lng": -116.865,
      "snowfall_7day": 0,
      "forecast_text": "Clear, with a low around 37. Southeast wind around 10 mph.",
      "last_updated": "2025-11-10T12:49:24.231Z"
    },
    {
      "name": "Snow Summit",
      "lat": 34.2306,
      "lng": -116.8886,
      "snowfall_7day": 0,
      "forecast_text": "Clear, with a low around 42. East wind around 10 mph, with gusts as high as 20 mph.",
      "last_updated": "2025-11-10T12:49:26.089Z"
    },
    {
      "name": "Mountain High",
      "lat": 34.3811,
      "lng": -117.6881,
      "snowfall_7day": 0,
      "forecast_text": "Clear, with a low around 50. Southeast wind around 10 mph.",
      "last_updated": "2025-11-10T12:49:34.624Z"
    },
    {
      "name": "Ski Santa Fe",
      "lat": 35.7869,
      "lng": -105.7961,
      "snowfall_7day": 0,
      "forecast_text": "Clear, with a low around 26. North wind around 10 mph.",
      "last_updated": "2025-11-10T12:49:58.738Z"
    },
    {
      "name": "Angel Fire",
      "lat": 36.3975,
      "lng": -105.2886,
      "snowfall_7day": 0,
      "forecast_text": "Mostly clear, with a low around 24. Southwest wind around 0 mph.",
      "last_updated": "2025-11-10T12:50:18.692Z"
    }
  ]
}